{"version": 0.6, "generator": "Overpass API 0.7.62.7 375dc00a", "osm3s": {"timestamp_osm_base": "2025-06-14T15:11:00Z", "copyright": "The data included in this document is from www.openstreetmap.org. The data is made available under ODbL."}, "elements": [{"type": "node", "id": 4565001612, "lat": 30.6016898, "lon": 32.2875229, "tags": {"addr:housenumber": "01003230105", "addr:street": "\u0634\u0627\u0631\u0639 \u062c\u0627\u0645\u0639 \u062d\u0631\u0627\u0621", "amenity": "cafe", "internet_access": "wlan", "name": "\u0642\u0647\u0648\u062a\u064a \u0643\u0627\u0641\u064a\u0647", "name:ar": "\u0642\u0647\u0648\u062a\u064a \u0643\u0627\u0641\u064a\u0647", "name:en": "Kahwety cafee"}}, {"type": "node", "id": 4716966890, "lat": 30.5867066, "lon": 32.2609446, "tags": {"amenity": "restaurant", "cuisine": "tea;seafood;fish", "name": "\u062d\u0633\u0646 \u0623\u0628\u0648 \u0639\u0644\u0649 \u0644\u0644\u0645\u0623\u0643\u0648\u0644\u0627\u062a \u0627\u0644\u0628\u062d\u0631\u064a\u0629", "name:ar": "\u062d\u0633\u0646 \u0623\u0628\u0648 \u0639\u0644\u0649 \u0644\u0644\u0645\u0623\u0643\u0648\u0644\u0627\u062a \u0627\u0644\u0628\u062d\u0631\u064a\u0629", "name:en": "Hassan Abo Ali Sea Food"}}, {"type": "node", "id": 4782612321, "lat": 30.5943021, "lon": 32.2789211, "tags": {"amenity": "restaurant", "name": "\u0643\u0648\u0643\u062f\u0648\u0631", "name:ar": "\u0643\u0648\u0643\u062f\u0648\u0631"}}, {"type": "node", "id": 6990591571, "lat": 30.5685427, "lon": 32.278841, "tags": {"amenity": "restaurant", "name": "Seafood"}}, {"type": "node", "id": 7590516556, "lat": 30.6015225, "lon": 32.287216, "tags": {"addr:city": "ismailia", "addr:country": "EG", "addr:district": "\u062d\u0649 \u062b\u0627\u0644\u062b \u0627\u0644\u0627\u0633\u0645\u0627\u0639\u064a\u0644\u064a\u0647", "addr:district:en": "Third District Ismailia", "addr:postcode": "41516", "addr:province": "\u0627\u0644\u0627\u0633\u0645\u0627\u0639\u064a\u0644\u064a\u0647", "addr:province:en": "Ismailia", "addr:street": "\u0627\u0644\u0637\u0631\u064a\u0642 \u0627\u0644\u0633\u0631\u064a\u0639 \u0627\u0645\u0627\u0645 \u0627\u0644\u0630\u0627\u0639\u0629 \u0648\u0627\u0644\u062a\u0641\u0632\u064a\u0648\u0646", "addr:street:en": "Arabi Al Hanady Street", "addr:subdistrict": "\u0627\u0644\u0634\u064a\u062e \u0632\u0627\u064a\u062f", "addr:subdistrict:en": "Al Sheikh Zaid", "amenity": "restaurant", "cuisine": "pizza;burger;pasta", "name": "Spark Restaurant", "opening_hours": "13:00-01:30", "website": "https://linktr.ee/spark.eg"}}, {"type": "node", "id": 9170314002, "lat": 30.6014294, "lon": 32.2874571, "tags": {"amenity": "cafe", "contact:facebook": "https://www.facebook.com/Oye-Coffee-106405198363215/", "name": "\u0623\u0648\u064a\u064a \u0643\u0648\u0641\u064a", "name:ar": "\u0623\u0648\u064a\u064a \u0643\u0648\u0641\u064a", "name:en": "Oye Coffee"}}, {"type": "node", "id": 9261518464, "lat": 30.5863948, "lon": 32.257381, "tags": {"amenity": "restaurant", "name": "\u200f\u0645\u0637\u0639\u0645 \u062d\u0636\u0631\u0645\u0648\u062a", "name:ar": "\u200f\u0645\u0637\u0639\u0645 \u062d\u0636\u0631\u0645\u0648\u062a", "name:en": "Hadramout Restaurant"}}, {"type": "node", "id": 9580755928, "lat": 30.6128575, "lon": 32.2835227, "tags": {"amenity": "restaurant", "contact:facebook": "https://www.facebook.com/\u0645\u0637\u0639\u0645-\u0627\u0644\u062f\u0645\u0634\u0642\u064a-\u0627\u0644\u0627\u0633\u0645\u0627\u0639\u064a\u0644\u064a\u0629-661929467224301/", "name": "\u0627\u0644\u062f\u0645\u0634\u0642\u064a", "name:ar": "\u0627\u0644\u062f\u0645\u0634\u0642\u064a", "name:en": "Al Dimashqi"}}, {"type": "node", "id": 9647899739, "lat": 30.5283571, "lon": 32.4897852, "tags": {"amenity": "cafe"}}]}