{"version": 0.6, "generator": "Overpass API 0.7.62.7 375dc00a", "osm3s": {"timestamp_osm_base": "2025-06-14T15:20:06Z", "copyright": "The data included in this document is from www.openstreetmap.org. The data is made available under ODbL."}, "elements": [{"type": "node", "id": 3071643687, "lat": 40.5043799, "lon": 38.351356, "tags": {"amenity": "restaurant"}}, {"type": "node", "id": 10181607676, "lat": 40.1703024, "lon": 38.0916283, "tags": {"amenity": "cafe", "name": "Has Bah\u00e7e Tand\u0131r"}}, {"type": "node", "id": 10181607683, "lat": 40.1715011, "lon": 38.0896838, "tags": {"amenity": "cafe", "name": "S2 Et&Mangal"}}, {"type": "node", "id": 10181608066, "lat": 40.1813741, "lon": 38.0572999, "tags": {"amenity": "cafe", "name": "Ege Camp\u00fcs Sosyal Tesis"}}, {"type": "node", "id": 11046384645, "lat": 40.1728505, "lon": 38.0868236, "tags": {"amenity": "restaurant", "name": "Y\u00fcceller"}}, {"type": "node", "id": 12441888410, "lat": 40.6267555, "lon": 37.9630936, "tags": {"addr:city": "Ordu", "addr:district": "Kabad\u00fcz", "addr:housenumber": "2/A", "addr:neighbourhood": "Musak\u0131r\u0131k", "addr:street": "Hasan Tahsin T\u0131fl\u0131 Caddesi", "amenity": "restaurant", "name": "Alper Ocakba\u015f\u0131"}}, {"type": "node", "id": 12441888413, "lat": 40.6263989, "lon": 37.9635675, "tags": {"addr:city": "Ordu", "addr:district": "Kabad\u00fcz", "addr:housenumber": "7/A", "addr:neighbourhood": "Musak\u0131r\u0131k", "addr:street": "Hasan Tahsin T\u0131fl\u0131 Caddesi", "amenity": "restaurant", "name": "Kalyoncuo\u011flu \u015een Kasap"}}, {"type": "node", "id": 12441888414, "lat": 40.6264682, "lon": 37.9634712, "tags": {"addr:city": "Ordu", "addr:district": "Kabad\u00fcz", "addr:neighbourhood": "Musak\u0131r\u0131k", "amenity": "cafe", "name": "Tatar K\u0131raathanesi"}}, {"type": "node", "id": 12441888415, "lat": 40.6265347, "lon": 37.9633902, "tags": {"addr:city": "Ordu", "addr:district": "Kabad\u00fcz", "addr:neighbourhood": "Musak\u0131r\u0131k", "addr:street": "Hasan Tahsin T\u0131fl\u0131 Caddesi", "amenity": "restaurant", "name": "Volkan Ocakba\u015f\u0131"}}]}