{"version": 0.6, "generator": "Overpass API 0.7.62.7 375dc00a", "osm3s": {"timestamp_osm_base": "2025-06-14T13:11:54Z", "copyright": "The data included in this document is from www.openstreetmap.org. The data is made available under ODbL."}, "elements": [{"type": "node", "id": 1159237786, "lat": 32.488947, "lon": 3.6970074}, {"type": "node", "id": 4171822370, "lat": 32.4794129, "lon": 3.6826024}, {"type": "node", "id": 4171822371, "lat": 32.4793666, "lon": 3.6826593}, {"type": "node", "id": 4171822372, "lat": 32.4794575, "lon": 3.6827772}, {"type": "node", "id": 4171822373, "lat": 32.4795038, "lon": 3.6827163}, {"type": "node", "id": 4196279228, "lat": 32.4228609, "lon": 3.7256016}, {"type": "node", "id": 4196279229, "lat": 32.4229594, "lon": 3.7257647}, {"type": "node", "id": 4196279230, "lat": 32.4230434, "lon": 3.7254332}, {"type": "node", "id": 4196279231, "lat": 32.4231432, "lon": 3.7255879}, {"type": "node", "id": 4352517499, "lat": 32.4910186, "lon": 3.681561, "tags": {"addr:country": "DZ", "addr:housenumber": "+213772009191", "addr:postcode": "47000", "addr:street": "Avenue Ahmed Talbi", "amenity": "cafe", "cuisine": "coffee_shop", "internet_access": "wlan", "name": "Caf\u00e9t\u00e9ria Elgosto", "opening_hours": "Mo-Su 10:00-22:00"}}, {"type": "node", "id": 5274955513, "lat": 32.3723966, "lon": 3.7931931, "tags": {"addr:country": "DZ", "amenity": "restaurant", "name": "Resto", "name:fr": "Resto"}}, {"type": "node", "id": 6431578285, "lat": 32.4863682, "lon": 3.6975093, "tags": {"amenity": "restaurant", "cuisine": "arab", "name": "Djurdjura", "name:ar": "\u062c\u0631\u062c\u0631\u0629", "name:etymology": "\u062c\u0631\u062c\u0631\u0629", "name:etymology:wikidata": "Q3033100", "name:etymology:wikipedia": "ar:\u062c\u0628\u0627\u0644 \u062c\u0631\u062c\u0631\u0629"}}, {"type": "node", "id": 10911929227, "lat": 32.488767, "lon": 3.6968491}, {"type": "node", "id": 10911929438, "lat": 32.4889215, "lon": 3.6970369}, {"type": "node", "id": 10911934422, "lat": 32.4888424, "lon": 3.696762}, {"type": "node", "id": 10911934513, "lat": 32.4890183, "lon": 3.6969759}, {"type": "node", "id": 10911936004, "lat": 32.4889685, "lon": 3.6970335}, {"type": "way", "id": 416439799, "nodes": [4171822370, 4171822371, 4171822372, 4171822373, 4171822370], "tags": {"addr:city": "\u063a\u0631\u062f\u0627\u064a\u0629", "addr:city:ar": "\u063a\u0631\u062f\u0627\u064a\u0629", "addr:postcode": "47000", "addr:street": "\u0634\u0627\u0631\u0639 1 \u0646\u0648\u0641\u0645\u0628\u0631", "addr:street:ar": "\u0634\u0627\u0631\u0639 1 \u0646\u0648\u0641\u0645\u0628\u0631", "amenity": "cafe", "building": "yes"}}, {"type": "way", "id": 419592812, "nodes": [4196279231, 4196279229, 4196279228, 4196279230, 4196279231], "tags": {"amenity": "restaurant"}}, {"type": "way", "id": 1174356326, "nodes": [10911934422, 10911929227, 10911929438, 1159237786, 10911936004, 10911934513, 10911934422], "tags": {"addr:city": "\u0628\u0648\u0646\u0648\u0631\u0629", "addr:city:ar": "\u0628\u0648\u0646\u0648\u0631\u0629", "amenity": "restaurant", "building": "yes", "name": "Restaurant Tiliwine", "name:ar": "\u0645\u0637\u0639\u0645 \u062a\u064a\u0644\u064a\u0648\u064a\u0646", "source": "Algerie Mapper Team"}}]}