{"version": 0.6, "generator": "Overpass API 0.7.62.7 375dc00a", "osm3s": {"timestamp_osm_base": "2025-06-14T15:31:13Z", "copyright": "The data included in this document is from www.openstreetmap.org. The data is made available under ODbL."}, "elements": [{"type": "node", "id": 3805022510, "lat": 37.3206384, "lon": 40.7219653, "tags": {"addr:city": "Artuklu/Mardin", "amenity": "cafe", "name": "R\u00fcyam Cafe & Pastane"}}, {"type": "node", "id": 3805022662, "lat": 37.3256949, "lon": 40.7170522, "tags": {"addr:city": "Artuklu/Mardin", "amenity": "cafe", "name": "\u0130ldo"}}, {"type": "node", "id": 3806301897, "lat": 37.1866644, "lon": 40.596782, "tags": {"addr:city": "K\u0131z\u0131ltepe/Mardin", "amenity": "restaurant", "name": "Diyarbekir Sofras\u0131"}}, {"type": "node", "id": 4450713295, "lat": 37.320372, "lon": 40.7241619, "tags": {"amenity": "restaurant", "name": "\u00c7a\u011f Urfa Sofras\u0131", "phone": "+90 482 212 6555"}}, {"type": "node", "id": 4450716494, "lat": 37.319982, "lon": 40.7263298, "tags": {"amenity": "restaurant", "name": "Buket Lahmacun", "opening_hours": "Mo-Su 11:00-23:00", "phone": "+90 482 212 3400"}}, {"type": "node", "id": 4450738389, "lat": 37.313671, "lon": 40.736309, "tags": {"addr:street": "1. Cadde", "amenity": "restaurant", "name": "Ba\u011fdadi Restaurant", "opening_hours": "Mo-Su 14:00-00:00", "phone": "+90 482 212 5555"}}, {"type": "node", "id": 4477219190, "lat": 37.193578, "lon": 40.588542, "tags": {"amenity": "restaurant", "name": "Sultan Restaurant", "name:tr": "Sultan Restaurant"}}, {"type": "node", "id": 4477228490, "lat": 37.1875568, "lon": 40.5958676, "tags": {"addr:street": "Hastane Caddesi", "amenity": "restaurant", "name": "Y\u00f6rem Restaurant", "name:tr": "Y\u00f6rem Restaurant", "opening_hours": "Mo-Su 07:00-22:00", "phone": "+90 482 312 4946"}}, {"type": "node", "id": 4624161229, "lat": 37.3369897, "lon": 40.7037657, "tags": {"amenity": "restaurant", "name": "Tuna Ocakba\u015f\u0131"}}, {"type": "node", "id": 4838905324, "lat": 37.3140537, "lon": 40.7431587, "tags": {"addr:city": "Mardin", "addr:district": "Artuklu", "addr:street": "1. Cadde", "amenity": "cafe", "name": "Atilla Aile \u00c7ay Bah\u00e7esi"}}, {"type": "node", "id": 4838905352, "lat": 37.3140367, "lon": 40.7429189, "tags": {"addr:city": "Mardin", "addr:district": "Artuklu", "addr:street": "1. Cadde", "amenity": "cafe", "name": "Mezopotamya Aile \u00c7ay Bah\u00e7esi"}}, {"type": "node", "id": 4892678023, "lat": 37.3133484, "lon": 40.7399129, "tags": {"amenity": "restaurant", "name": "Seyr-i Merdin", "name:en": "Seyr-i Merdin"}}, {"type": "node", "id": 4893850121, "lat": 37.3142096, "lon": 40.7417629, "tags": {"amenity": "cafe", "name": "C Block", "name:en": "C Block"}}, {"type": "node", "id": 4898005721, "lat": 37.3128111, "lon": 40.7337553, "tags": {"amenity": "restaurant", "name": "Cercis Murat Konagi"}}, {"type": "node", "id": 5024176983, "lat": 37.3141758, "lon": 40.7434262, "tags": {"addr:city": "Mardin", "addr:district": "Artuklu", "addr:street": "Eski Mardin Cumhuriyet Caddesi", "amenity": "restaurant", "name": "Kebap\u00e7\u0131 Yusuf Usta"}}, {"type": "node", "id": 5060289321, "lat": 37.0788946, "lon": 40.6629625, "tags": {"amenity": "cafe"}}, {"type": "node", "id": 5196452424, "lat": 37.3224655, "lon": 40.7175792, "tags": {"amenity": "restaurant", "name": "Ci\u011ferci Yusuf"}}, {"type": "node", "id": 5232699421, "lat": 37.3233693, "lon": 40.7198334, "tags": {"amenity": "cafe", "name": "Adiyamanli hasan aybak", "name:ru": "\u041a\u0430\u0444\u0435"}}, {"type": "node", "id": 5251668122, "lat": 37.3131481, "lon": 40.7409671, "tags": {"amenity": "cafe", "name": "Siba"}}, {"type": "node", "id": 5318331950, "lat": 37.3213382, "lon": 40.7191253, "tags": {"amenity": "restaurant"}}, {"type": "node", "id": 5621701632, "lat": 37.0878036, "lon": 40.6897345, "tags": {"amenity": "restaurant", "name:en": "zalal"}}, {"type": "node", "id": 5746306221, "lat": 37.3141015, "lon": 40.741445, "tags": {"amenity": "cafe", "name": "Kulilk cafe"}}, {"type": "node", "id": 5758502623, "lat": 37.3137357, "lon": 40.7339646, "tags": {"amenity": "cafe", "name": "K\u00fclt\u00fcr cafe"}}, {"type": "node", "id": 5761224321, "lat": 37.3136818, "lon": 40.742399, "tags": {"amenity": "cafe", "name": "Sinek cafe"}}, {"type": "node", "id": 5814978353, "lat": 37.3132507, "lon": 40.7403946, "tags": {"amenity": "cafe", "name": "Marangozlar Kahvesi"}}, {"type": "node", "id": 6564867088, "lat": 37.316035, "lon": 40.7542143, "tags": {"amenity": "restaurant", "name": "cheap and nice trad food", "name:en": "cheap & nice turkish food", "name:tr": "good atmosphere and nice people"}}, {"type": "node", "id": 6808342857, "lat": 37.3145863, "lon": 40.7418109, "tags": {"amenity": "restaurant", "name": "The Republic"}}, {"type": "node", "id": 7041501389, "lat": 37.3227165, "lon": 40.7172709, "tags": {"amenity": "restaurant", "cuisine": "local;kebab;turkish", "internet_access": "wlan", "name": "Adana Dostlar Kebap\u00e7\u0131s\u0131"}}, {"type": "node", "id": 7041501390, "lat": 37.3193343, "lon": 40.724149, "tags": {"amenity": "restaurant", "cuisine": "local;turkish;ice_cream", "name": "Sadik K\u00fcnefe", "website": "https://www.sadikkunefe.com/"}}, {"type": "node", "id": 7041501391, "lat": 37.3258817, "lon": 40.7164938, "tags": {"amenity": "restaurant", "cuisine": "turkish;breakfast;local;tea", "name": "Kasr-i Kaya"}}, {"type": "node", "id": 7042269785, "lat": 37.3258593, "lon": 40.7178058, "tags": {"addr:housenumber": "3", "addr:street": "I\u015f\u0131k Caddesi", "amenity": "restaurant", "cuisine": "fish", "name": "Karadeniz Balik\u00e7ilik", "name:en": "Karadeniz Fish Restaurant", "phone": "+904822135368"}}, {"type": "node", "id": 7046762885, "lat": 37.328344, "lon": 40.7120585, "tags": {"amenity": "cafe", "cuisine": "pasta;burger;sandwich;turkish;tea;coffee_shop", "name": "Ottoman"}}, {"type": "node", "id": 7844441886, "lat": 37.3136228, "lon": 40.7353353, "tags": {"amenity": "restaurant", "name": "Leyli Restoran", "name:en": "Leyli Muse Restaurant"}}, {"type": "node", "id": 8648589017, "lat": 37.3221079, "lon": 40.7310133, "tags": {"amenity": "restaurant", "name": "Kebap\u00e7\u0131 Yusuf Usta"}}, {"type": "node", "id": 9956314995, "lat": 37.3129992, "lon": 40.7317353, "tags": {"amenity": "cafe", "name": "Azizo\u011flu Leblebicisi"}}, {"type": "node", "id": 9956314999, "lat": 37.3127901, "lon": 40.731856, "tags": {"amenity": "restaurant", "name": "Medeniyetler cafe Restorant"}}, {"type": "node", "id": 9956315003, "lat": 37.3127496, "lon": 40.7312257, "tags": {"amenity": "restaurant", "name": "Medeniyetler Aile restoran"}}, {"type": "node", "id": 9956315007, "lat": 37.3130496, "lon": 40.7293549, "tags": {"amenity": "cafe", "name": "SULTAN KIRAATHANES\u0130"}}, {"type": "node", "id": 10098201823, "lat": 37.3101315, "lon": 40.7292732, "tags": {"amenity": "cafe", "name:ru": "\u0412\u0438\u0434 \u043d\u0430 \u043c\u0430\u0440\u0434\u0438\u043d"}}, {"type": "node", "id": 10099557317, "lat": 37.3130314, "lon": 40.7314572, "tags": {"amenity": "cafe", "name:en": "Medeniyetler cafe Restorant"}}, {"type": "node", "id": 10099558417, "lat": 37.3257621, "lon": 40.7227285, "tags": {"amenity": "cafe", "name:en": "Mardin Sofras\u0131"}}, {"type": "node", "id": 10099559417, "lat": 37.3186324, "lon": 40.7213231, "tags": {"amenity": "cafe", "name:en": "Ehlitat K\u00fcnefe"}}, {"type": "node", "id": 10103351217, "lat": 37.3134373, "lon": 40.7373678, "tags": {"amenity": "cafe", "name:en": "Tombik"}}, {"type": "node", "id": 10106050817, "lat": 37.3133607, "lon": 40.7390652, "tags": {"amenity": "cafe", "name:en": "Melanie-I Fecr cafe"}}, {"type": "node", "id": 10106118517, "lat": 37.3139479, "lon": 40.7360533, "tags": {"amenity": "cafe", "name:en": "Kebikecsahaf & Kate kulturhane"}}, {"type": "node", "id": 10106180117, "lat": 37.3130478, "lon": 40.734308, "tags": {"amenity": "cafe", "name:en": "Han simit evi"}}, {"type": "node", "id": 10106284317, "lat": 37.3134186, "lon": 40.7395302, "tags": {"amenity": "cafe"}}, {"type": "node", "id": 10106330117, "lat": 37.3138184, "lon": 40.739982, "tags": {"amenity": "cafe", "name:en": "Ararat cafe"}}, {"type": "node", "id": 11009607905, "lat": 37.3126603, "lon": 40.7350779, "tags": {"amenity": "restaurant", "name:en": "Revan"}}, {"type": "node", "id": 12035585455, "lat": 37.3137586, "lon": 40.7406396, "tags": {"addr:city": "Mardin", "addr:district": "Artuklu", "addr:street": "1. Cadde", "amenity": "restaurant", "name": "Antik Sur Restaurant"}}, {"type": "node", "id": 12730549502, "lat": 37.3133726, "lon": 40.7398533, "tags": {"amenity": "restaurant", "name": "Tarihi Sultan Sofras\u0131"}}]}