{"version": 0.6, "generator": "Overpass API 0.7.62.7 375dc00a", "osm3s": {"timestamp_osm_base": "2025-06-14T15:06:54Z", "copyright": "The data included in this document is from www.openstreetmap.org. The data is made available under ODbL."}, "elements": [{"type": "node", "id": 6358877604, "lat": 30.4667559, "lon": 31.1801198, "tags": {"amenity": "restaurant", "name": "\u0645\u0627\u0643\u062f\u0648\u0646\u0627\u0644\u062f\u0632", "name:ar": "\u0645\u0627\u0643\u062f\u0648\u0646\u0627\u0644\u062f\u0632", "name:en": "Mcdonalds", "opening_hours": "24/7", "phone": "19991"}}, {"type": "node", "id": 6988656387, "lat": 30.5624494, "lon": 31.0122068, "tags": {"amenity": "cafe", "internet_access": "yes", "internet_access:fee": "yes", "name": "\u0646\u0627\u062f\u0649 \u0627\u0644\u062a\u062c\u0627\u0631\u064a\u064a\u0646", "name:ar": "\u0627\u064a\u062c\u064a \u0628\u0633\u062a", "name:en": "egybest", "opening_hours": "24/7", "outdoor_seating": "yes", "website": "https://best.egbest2.com/"}}, {"type": "node", "id": 7016599397, "lat": 30.334705, "lon": 30.8482267, "tags": {"amenity": "cafe", "name": "Sha3rawy"}}, {"type": "node", "id": 9851360017, "lat": 30.5716135, "lon": 31.0086418, "tags": {"amenity": "cafe", "name": "\u0642\u0647\u0648\u0629 \u0628\u0627\u0628 \u0627\u0644\u062e\u0644\u0642", "name:en": "Bab al 5ol2"}}, {"type": "node", "id": 9864634270, "lat": 30.4742417, "lon": 31.1802023, "tags": {"amenity": "restaurant", "name": "AL ABD", "opening_hours": "24/7"}}, {"type": "node", "id": 10037544117, "lat": 30.570448, "lon": 31.0029695, "tags": {"addr:street": "\u0634\u0627\u0631\u0639 \u0639\u0627\u0637\u0641 \u0627\u0644\u0633\u0627\u062f\u0627\u062a", "amenity": "restaurant", "cuisine": "arab", "name": "\u0645\u0637\u0639\u0645 \u0645\u0648\u0644\u0627\u0646\u0627", "name:en": "Mawlana restaurant"}}, {"type": "node", "id": 10630174184, "lat": 30.6358622, "lon": 31.0893163}, {"type": "node", "id": 10630174185, "lat": 30.6358383, "lon": 31.0891668}, {"type": "node", "id": 10630174186, "lat": 30.635687, "lon": 31.0892134}, {"type": "node", "id": 10630174187, "lat": 30.6356165, "lon": 31.0892622}, {"type": "node", "id": 10630174188, "lat": 30.6356353, "lon": 31.0893651}, {"type": "node", "id": 11470557170, "lat": 30.5495052, "lon": 31.0090862, "tags": {"addr:street": "\u0634\u0627\u0631\u0639 \u0627\u0644\u0633\u0631\u0627\u062c\u064a\u0629", "amenity": "restaurant", "name": "\u0627\u0644\u0634\u064a\u062e \u0627\u062d\u0645\u062f", "name:en": "Al sheikh ahmed"}}, {"type": "node", "id": 11914378241, "lat": 30.4008314, "lon": 30.8380105}, {"type": "node", "id": 11914378242, "lat": 30.4008785, "lon": 30.8381218}, {"type": "node", "id": 11914378243, "lat": 30.4009365, "lon": 30.8380774}, {"type": "node", "id": 11914378244, "lat": 30.4008815, "lon": 30.8379784}, {"type": "way", "id": 1140893237, "nodes": [10630174184, 10630174185, 10630174186, 10630174187, 10630174188, 10630174184], "tags": {"amenity": "cafe", "building": "yes"}}, {"type": "way", "id": 1284261141, "nodes": [11914378241, 11914378242, 11914378243, 11914378244, 11914378241], "tags": {"amenity": "cafe", "building": "yes", "internet_access": "yes", "internet_access:fee": "customers", "outdoor_seating": "yes"}}]}