{"version": 0.6, "generator": "Overpass API 0.7.62.7 375dc00a", "osm3s": {"timestamp_osm_base": "2025-06-14T14:39:19Z", "copyright": "The data included in this document is from www.openstreetmap.org. The data is made available under ODbL."}, "elements": [{"type": "node", "id": 779447580, "lat": 40.1039636, "lon": 22.4901622, "tags": {"amenity": "restaurant", "cuisine": "greek", "name": "\u039f\u03b9 \u039c\u03cd\u03bb\u03bf\u03b9", "phone": "2352083111"}}, {"type": "node", "id": 1377477523, "lat": 40.2706393, "lon": 22.5083508, "tags": {"addr:city": "\u039a\u03b1\u03c4\u03b5\u03c1\u03af\u03bd\u03b7", "addr:housenumber": "10-12", "addr:postcode": "601 32", "addr:street": "\u0393\u03b5\u03c9\u03c1\u03b3\u03ac\u03ba\u03b7 \u039f\u03bb\u03c5\u03bc\u03c0\u03af\u03bf\u03c5", "amenity": "cafe", "name": "Kartell", "operator": "BAG \u03a4\u03bf\u03c5\u03c1\u03b9\u03c3\u03c4\u03b9\u03ba\u03ad\u03c2 \u0395\u03ba\u03bc\u03b5\u03c4\u03b1\u03bb\u03bb\u03b5\u03cd\u03c3\u03b5\u03b9\u03c2 \u03a7\u03ce\u03c1\u03c9\u03bd \u0391\u03bd\u03b1\u03c8\u03c5\u03c7\u03ae\u03c2 \u0395\u03a0E", "outdoor_seating": "yes"}}, {"type": "node", "id": 1377477542, "lat": 40.2706607, "lon": 22.5085488, "tags": {"addr:city": "\u039a\u03b1\u03c4\u03b5\u03c1\u03af\u03bd\u03b7", "addr:housenumber": "1", "addr:postcode": "601 32", "addr:street": "\u0393\u03b5\u03c9\u03c1\u03b3\u03ac\u03ba\u03b7 \u039f\u03bb\u03c5\u03bc\u03c0\u03af\u03bf\u03c5", "amenity": "cafe", "name": "Boga", "operator": "\u0393 \u039c\u03b5\u03c1\u03af\u03ba\u03bf\u03c2 \u03ba\u03b1\u03b9 \u03a3\u03af\u03b1 \u039f\u0395", "outdoor_seating": "yes"}}, {"type": "node", "id": 1377477561, "lat": 40.270581, "lon": 22.5088444, "tags": {"addr:city": "\u039a\u03b1\u03c4\u03b5\u03c1\u03af\u03bd\u03b7", "addr:housenumber": "4", "addr:postcode": "601 32", "addr:street": "\u03a3\u03bf\u03bb\u03c9\u03bc\u03bf\u03cd", "amenity": "cafe", "name": "Oliver's Pub", "operator": "\u0399\u03bf\u03c1\u03b4\u03b1\u03bd\u03af\u03b4\u03b7\u03c2 \u03a7\u03c1\u03ae\u03c3\u03c4\u03bf\u03c2 \u03ba\u03b1\u03b9 \u03a3\u03af\u03b1 \u039f\u0395", "outdoor_seating": "yes"}}, {"type": "node", "id": 1707382550, "lat": 40.3163519, "lon": 22.5787225, "tags": {"amenity": "cafe", "name": "Cafe Select"}}, {"type": "node", "id": 1731434694, "lat": 40.2731956, "lon": 22.5073581, "tags": {"addr:city": "\u039a\u03b1\u03c4\u03b5\u03c1\u03af\u03bd\u03b7", "addr:housenumber": "14", "addr:postcode": "601 33", "addr:street": "\u0394\u03b7\u03bc\u03b7\u03c4\u03c1\u03af\u03bf\u03c5 \u0394\u03b7\u03bc\u03ac\u03b4\u03b7", "amenity": "cafe", "name": "Bistro 49"}}, {"type": "node", "id": 1731445028, "lat": 40.2706471, "lon": 22.5074875, "tags": {"addr:city": "\u039a\u03b1\u03c4\u03b5\u03c1\u03af\u03bd\u03b7", "addr:housenumber": "5", "addr:postcode": "601 32", "addr:street": "\u0391\u03b3\u03af\u03b1\u03c2 \u039b\u03b1\u03cd\u03c1\u03b1\u03c2", "amenity": "cafe", "name": "Ludo"}}, {"type": "node", "id": 1731445914, "lat": 40.2703665, "lon": 22.5079543, "tags": {"addr:city": "\u039a\u03b1\u03c4\u03b5\u03c1\u03af\u03bd\u03b7", "addr:housenumber": "14", "addr:postcode": "601 32", "addr:street": "\u0391\u03b3\u03af\u03b1\u03c2 \u039b\u03b1\u03cd\u03c1\u03b1\u03c2", "amenity": "restaurant", "name": "\u0397 \u03a0\u03b1\u03c1\u03ac\u03b4\u03bf\u03c3\u03b7", "operator": "\u039a\u03bf\u03ba\u03ba\u03b9\u03bd\u03bf\u03c0\u03bb\u03af\u03c4\u03b7\u03c2 \u0398\u03c9\u03bc\u03ac\u03c2"}}, {"type": "node", "id": 1731446966, "lat": 40.2708602, "lon": 22.5068706, "tags": {"addr:city": "\u039a\u03b1\u03c4\u03b5\u03c1\u03af\u03bd\u03b7", "addr:housenumber": "1", "addr:postcode": "601 32", "addr:street": "\u0391\u03b2\u03ad\u03c1\u03c9\u03c6", "amenity": "restaurant", "cuisine": "\u039c\u03b1\u03c1\u03b3\u03b1\u03c1\u03af\u03c4\u03b7\u03c2_\u0399\u03c9\u03ac\u03bd\u03bd\u03b7\u03c2", "name": "Crepaland", "phone": "+30 2351 028288"}}, {"type": "node", "id": 1731447910, "lat": 40.2639085, "lon": 22.5966397, "tags": {"amenity": "cafe", "check_date": "2023-08-28", "name": "Prestige"}}, {"type": "node", "id": 1731447913, "lat": 40.2685421, "lon": 22.5984957, "tags": {"addr:city": "\u03a0\u03b1\u03c1\u03b1\u03bb\u03af\u03b1 \u039a\u03b1\u03c4\u03b5\u03c1\u03af\u03bd\u03b7\u03c2", "amenity": "cafe", "name": "Caldera"}}, {"type": "node", "id": 1731447917, "lat": 40.2737789, "lon": 22.5432405, "tags": {"addr:city": "\u03a0\u03b5\u03c1\u03af\u03c3\u03c4\u03b1\u03c3\u03b7", "addr:housenumber": "38", "addr:postcode": "601 50", "addr:street": "\u039c\u03b1\u03ba\u03b5\u03b4\u03bf\u03bd\u03af\u03b1\u03c2", "amenity": "restaurant", "cuisine": "pizza", "delivery": "yes", "name": "Al Forno", "operator": "\u03a1\u03b1\u03c0\u03c4\u03cc\u03c0\u03bf\u03c5\u03bb\u03bf\u03c2 \u0399\u03c9\u03ac\u03bd\u03bd\u03b7\u03c2", "takeaway": "yes"}}, {"type": "node", "id": 1731448581, "lat": 40.2712983, "lon": 22.5092759, "tags": {"addr:city": "\u039a\u03b1\u03c4\u03b5\u03c1\u03af\u03bd\u03b7", "addr:housenumber": "5", "addr:postcode": "601 34", "addr:street": "\u03a0\u03bb\u03b1\u03c4\u03b5\u03af\u03b1 \u0395\u03bb\u03b5\u03c5\u03b8\u03b5\u03c1\u03af\u03b1\u03c2", "amenity": "restaurant", "name": "\u038c\u03bb\u03c5\u03bc\u03c0\u03bf\u03c2", "operator": "\u039d\u03c4\u03bf\u03cd\u03bb\u03b1\u03c2 \u0392\u03b1\u03c3\u03af\u03bb\u03b5\u03b9\u03bf\u03c2 \u03ba\u03b1\u03b9 \u03a3\u03af\u03b1 \u039f\u0395"}}, {"type": "node", "id": 1731448607, "lat": 40.27107, "lon": 22.5094911, "tags": {"addr:city": "\u039a\u03b1\u03c4\u03b5\u03c1\u03af\u03bd\u03b7", "addr:housenumber": "2", "addr:postcode": "601 34", "addr:street": "\u03a0\u03b1\u03bd\u03b1\u03b3\u03ae \u03a4\u03c3\u03b1\u03bb\u03b4\u03ac\u03c1\u03b7", "amenity": "cafe", "brand": "Mikel", "brand:wikidata": "Q16952021", "brand:wikipedia": "el:Mikel", "cuisine": "coffee_shop", "name": "Mikel", "takeaway": "yes"}}, {"type": "node", "id": 1731450581, "lat": 40.2697558, "lon": 22.5088254, "tags": {"addr:city": "\u039a\u03b1\u03c4\u03b5\u03c1\u03af\u03bd\u03b7", "addr:housenumber": "2", "addr:postcode": "601 32", "addr:street": "\u0394\u03b9\u03bf\u03bd\u03c5\u03c3\u03af\u03bf\u03c5 \u0391\u03c1\u03b5\u03bf\u03c0\u03b1\u03b3\u03af\u03c4\u03bf\u03c5", "amenity": "cafe", "name": "\u0395\u03c0\u03af\u03ba\u03b5\u03bd\u03c4\u03c1\u03bf", "operator": "\u03a0\u03b1\u03c0\u03b1\u03bd\u03b9\u03ba\u03bf\u03bb\u03ac\u03bf\u03c5 \u03a7\u03b1\u03c1\u03af\u03bb\u03b1\u03bf\u03c2"}}, {"type": "node", "id": 1731450584, "lat": 40.2696973, "lon": 22.5087534, "tags": {"addr:city": "\u039a\u03b1\u03c4\u03b5\u03c1\u03af\u03bd\u03b7", "addr:housenumber": "2", "addr:postcode": "601 32", "addr:street": "\u0394\u03b9\u03bf\u03bd\u03c5\u03c3\u03af\u03bf\u03c5 \u0391\u03c1\u03b5\u03bf\u03c0\u03b1\u03b3\u03af\u03c4\u03bf\u03c5", "amenity": "cafe", "name": "Rock 'n Rolla"}}, {"type": "node", "id": 1731450788, "lat": 40.2826873, "lon": 22.5037205, "tags": {"addr:city": "\u039a\u03b1\u03c4\u03b5\u03c1\u03af\u03bd\u03b7", "addr:housenumber": "99", "addr:postcode": "601 33", "addr:street": "\u03a6\u03b9\u03bb\u03af\u03c0\u03c0\u03bf\u03c5", "amenity": "restaurant", "name": "\u039f \u03a3\u03c4\u03ad\u03bb\u03b9\u03bf\u03c2", "operator": "\u0393\u03ba\u03bf\u03c1\u03b3\u03ba\u03bf\u03c4\u03b6\u03ae\u03c2 \u0391\u03c3\u03c4\u03ad\u03c1\u03b9\u03bf\u03c2"}}, {"type": "node", "id": 1732839843, "lat": 40.271436, "lon": 22.5015902, "tags": {"addr:city": "\u039a\u03b1\u03c4\u03b5\u03c1\u03af\u03bd\u03b7", "addr:housenumber": "3", "addr:postcode": "601 31", "addr:street": "\u039c\u03b7\u03c4\u03c1\u03bf\u03c0\u03cc\u03bb\u03b5\u03c9\u03c2", "amenity": "cafe", "name": "Barrio Gastrobar", "operator": "\u03a4\u03c3\u03b9\u03bf\u03cd\u03c7\u03b1 \u0391\u03b9\u03ba\u03b1\u03c4\u03b5\u03c1\u03af\u03bd\u03b7-\u03a1\u03b1\u03c6\u03b1\u03ad\u03bb\u03b1", "outdoor_seating": "yes"}}, {"type": "node", "id": 1732839854, "lat": 40.2713278, "lon": 22.5015593, "tags": {"addr:city": "\u039a\u03b1\u03c4\u03b5\u03c1\u03af\u03bd\u03b7", "addr:housenumber": "5", "addr:postcode": "601 31", "addr:street": "\u039c\u03b7\u03c4\u03c1\u03bf\u03c0\u03cc\u03bb\u03b5\u03c9\u03c2", "amenity": "cafe", "name": "Park Cafe", "operator": "\u0394\u03b7\u03bc\u03ac\u03ba\u03b7 \u0386\u03bd\u03bd\u03b1"}}, {"type": "node", "id": 1732848835, "lat": 40.2614398, "lon": 22.5099213, "tags": {"amenity": "cafe"}}, {"type": "node", "id": 1732848836, "lat": 40.2608094, "lon": 22.5073571, "tags": {"amenity": "restaurant"}}, {"type": "node", "id": 1732848837, "lat": 40.2653911, "lon": 22.5117511, "tags": {"addr:city": "\u039a\u03b1\u03c4\u03b5\u03c1\u03af\u03bd\u03b7", "addr:housenumber": "1", "addr:postcode": "601 32", "addr:street": "\u039b\u03bf\u03c5\u03ba\u03b9\u03b1\u03bd\u03bf\u03cd", "amenity": "cafe", "internet_access": "yes", "name": "\u039a\u03b1\u03c6\u03ad \u0393\u03b9\u03ac\u03bd\u03bd\u03b7\u03c2", "name:el": "\u039a\u03b1\u03c6\u03ad \u0393\u03b9\u03ac\u03bd\u03bd\u03b7\u03c2", "operator": "\u0393\u03ba\u03cc\u03bb\u03c4\u03c3\u03b9\u03bf\u03c2 \u0399\u03c9\u03ac\u03bd\u03bd\u03b7\u03c2"}}, {"type": "node", "id": 1732856635, "lat": 40.2721393, "lon": 22.505212, "tags": {"addr:city": "\u039a\u03b1\u03c4\u03b5\u03c1\u03af\u03bd\u03b7", "addr:housenumber": "3", "addr:postcode": "601 33", "addr:street": "\u039a\u03c1\u03ad\u03c3\u03bd\u03b1\u03c2", "amenity": "cafe", "name": "Art Caffe"}}, {"type": "node", "id": 1747338120, "lat": 40.2712439, "lon": 22.5084498, "tags": {"addr:city": "\u039a\u03b1\u03c4\u03b5\u03c1\u03af\u03bd\u03b7", "addr:housenumber": "11", "addr:postcode": "601 33", "addr:street": "\u03a0\u03bb\u03b1\u03c4\u03b5\u03af\u03b1 \u0395\u03bb\u03b5\u03c5\u03b8\u03b5\u03c1\u03af\u03b1\u03c2", "amenity": "cafe", "name": "Dolce"}}, {"type": "node", "id": 1747338293, "lat": 40.2714585, "lon": 22.5074243, "tags": {"amenity": "cafe"}}, {"type": "node", "id": 1747338356, "lat": 40.2694406, "lon": 22.5074379, "tags": {"addr:city": "\u039a\u03b1\u03c4\u03b5\u03c1\u03af\u03bd\u03b7", "addr:housenumber": "30", "addr:postcode": "601 32", "addr:street": "\u0393\u03b5\u03c9\u03c1\u03b3\u03ac\u03ba\u03b7 \u039f\u03bb\u03c5\u03bc\u03c0\u03af\u03bf\u03c5", "amenity": "restaurant", "name": "\u03a4\u03bf \u039c\u03c0\u03b1\u03c7\u03ac\u03c1\u03b9", "operator": "\u039c\u03c0\u03b1\u03c4\u03b6\u03ac\u03ba\u03b7\u03c2 \u0394\u03b7\u03bc\u03ae\u03c4\u03c1\u03b9\u03bf\u03c2"}}, {"type": "node", "id": 1747338357, "lat": 40.2695487, "lon": 22.5076182, "tags": {"addr:city": "\u039a\u03b1\u03c4\u03b5\u03c1\u03af\u03bd\u03b7", "addr:housenumber": "27", "addr:postcode": "601 32", "addr:street": "\u0393\u03b5\u03c9\u03c1\u03b3\u03ac\u03ba\u03b7 \u039f\u03bb\u03c5\u03bc\u03c0\u03af\u03bf\u03c5", "amenity": "cafe", "name": "\u0388\u03c4\u03b5\u03c1\u03bf\u03bd", "operator": "\u039a\u03b1\u03c1\u03b1\u03b2\u03af\u03b4\u03b1\u03c2 \u03a4\u03c1\u03b9\u03b1\u03bd\u03c4\u03ac\u03c6\u03c5\u03bb\u03bb\u03bf\u03c2"}}, {"type": "node", "id": 1747338358, "lat": 40.2700768, "lon": 22.5080097, "tags": {"addr:city": "\u039a\u03b1\u03c4\u03b5\u03c1\u03af\u03bd\u03b7", "addr:housenumber": "18", "addr:postcode": "601 32", "addr:street": "\u0393\u03b5\u03c9\u03c1\u03b3\u03ac\u03ba\u03b7 \u039f\u03bb\u03c5\u03bc\u03c0\u03af\u03bf\u03c5", "amenity": "restaurant", "name": "\u0393\u03b5\u03cd\u03c3\u03b5\u03b9\u03c2", "operator": "\u0391\u03c1\u03b1\u03bc\u03c0\u03b1\u03c4\u03b6\u03ae\u03c2 \u0394\u03b7\u03bc\u03ae\u03c4\u03c1\u03b9\u03bf\u03c2"}}, {"type": "node", "id": 1747338359, "lat": 40.2696142, "lon": 22.5075377, "tags": {"addr:city": "\u039a\u03b1\u03c4\u03b5\u03c1\u03af\u03bd\u03b7", "addr:housenumber": "26", "addr:postcode": "601 32", "addr:street": "\u0393\u03b5\u03c9\u03c1\u03b3\u03ac\u03ba\u03b7 \u039f\u03bb\u03c5\u03bc\u03c0\u03af\u03bf\u03c5", "amenity": "restaurant", "name": "\u039c\u03c0\u03bf\u03c5\u03ba\u03b9\u03ac & \u0393\u03bf\u03c5\u03bb\u03b9\u03ac", "operator": "\u0395\u03bb\u03b5\u03c5\u03b8\u03b5\u03c1\u03b9\u03ac\u03b4\u03bf\u03c5 \u03a3\u03bf\u03c6\u03af\u03b1"}}, {"type": "node", "id": 1747338830, "lat": 40.2715401, "lon": 22.5057948, "tags": {"addr:city": "\u039a\u03b1\u03c4\u03b5\u03c1\u03af\u03bd\u03b7", "addr:housenumber": "2", "addr:postcode": "601 33", "addr:street": "\u03a4\u03c3\u03b9\u03bc\u03b9\u03c3\u03ba\u03ae", "amenity": "cafe", "name": "Boutique 26"}}, {"type": "node", "id": 1753755657, "lat": 40.4116299, "lon": 22.610296, "tags": {"amenity": "cafe"}}, {"type": "node", "id": 1753755660, "lat": 40.413427, "lon": 22.6105535, "tags": {"amenity": "restaurant"}}, {"type": "node", "id": 1753755662, "lat": 40.4136394, "lon": 22.610929, "tags": {"amenity": "restaurant"}}, {"type": "node", "id": 1753756821, "lat": 40.4130797, "lon": 22.6083576, "tags": {"amenity": "cafe", "name": "Cafe Bar Dias"}}, {"type": "node", "id": 1753757036, "lat": 40.4130225, "lon": 22.6082181, "tags": {"amenity": "restaurant"}}, {"type": "node", "id": 1753764684, "lat": 40.2710323, "lon": 22.5025987, "tags": {"amenity": "restaurant"}}, {"type": "node", "id": 1753767590, "lat": 40.2608106, "lon": 22.5086858, "tags": {"amenity": "cafe"}}, {"type": "node", "id": 1753767591, "lat": 40.2609054, "lon": 22.5083493, "tags": {"amenity": "cafe"}}, {"type": "node", "id": 1764134996, "lat": 40.2735615, "lon": 22.5151671, "tags": {"addr:city": "\u039a\u03b1\u03c4\u03b5\u03c1\u03af\u03bd\u03b7", "addr:housenumber": "54", "addr:postcode": "601 34", "addr:street": "\u03a0\u03b5\u03c1\u03b3\u03ac\u03bc\u03bf\u03c5", "amenity": "cafe", "name": "\u0396\u03b1\u03c7\u03b1\u03c1\u03bf\u03c0\u03bb\u03b1\u03c3\u03c4\u03b5\u03af\u03bf-\u039a\u03b1\u03c6\u03ad \u039c\u03ac\u03c1\u03ba\u03bf\u03c2"}}, {"type": "node", "id": 1792206800, "lat": 40.1054557, "lon": 22.5047501, "tags": {"amenity": "restaurant", "cuisine": "greek", "indoor_seating": "yes", "name": "Meze Meze", "outdoor_seating": "yes"}}, {"type": "node", "id": 1866310985, "lat": 40.2788553, "lon": 22.5040232, "tags": {"addr:city": "\u039a\u03b1\u03c4\u03b5\u03c1\u03af\u03bd\u03b7", "addr:housenumber": "11", "addr:postcode": "601 33", "addr:street": "\u03a3\u03c9\u03ba\u03c1\u03ac\u03c4\u03bf\u03c5\u03c2", "amenity": "cafe", "cuisine": "ice_cream", "name": "\u0396\u03b1\u03c7\u03b1\u03c1\u03bf\u03c0\u03bb\u03b1\u03c3\u03c4\u03b5\u03af\u03bf \u039c\u03c0\u03bf\u03cd\u03c3\u03b9\u03b1", "operator": "\u039c\u03c0\u03bf\u03cd\u03c3\u03b9\u03b1\u03c2 \u03a3\u03c9\u03c4\u03ae\u03c1\u03b9\u03bf\u03c2"}}, {"type": "node", "id": 1866314083, "lat": 40.2802333, "lon": 22.4977178, "tags": {"addr:city": "\u039a\u03b1\u03c4\u03b5\u03c1\u03af\u03bd\u03b7", "addr:housenumber": "73", "addr:postcode": "601 33", "addr:street": "\u039d\u03b9\u03ba\u03bf\u03bb\u03ac\u03bf\u03c5 \u03a0\u03bb\u03b1\u03c3\u03c4\u03ae\u03c1\u03b1", "amenity": "cafe", "cuisine": "ice_cream", "name": "\u03a0\u03b1\u03bd\u03c4\u03b5\u03bb\u03ae\u03c2", "operator": "\u03a0\u03b1\u03c0\u03b1\u03ca\u03b5\u03c1\u03bf\u03b8\u03ad\u03bf\u03c5 \u039d\u03af\u03ba\u03b7 \u03ba\u03b1\u03b9 \u03a3\u03af\u03b1 \u039f\u0395"}}, {"type": "node", "id": 1883438166, "lat": 40.489808, "lon": 22.232405, "tags": {"amenity": "cafe"}}, {"type": "node", "id": 1883438167, "lat": 40.4887702, "lon": 22.2331364, "tags": {"amenity": "cafe"}}, {"type": "node", "id": 1883438168, "lat": 40.4885907, "lon": 22.2321922, "tags": {"amenity": "cafe"}}, {"type": "node", "id": 1883448723, "lat": 40.4892282, "lon": 22.2318089, "tags": {"amenity": "restaurant"}}, {"type": "node", "id": 1883448749, "lat": 40.4886488, "lon": 22.2333968, "tags": {"amenity": "restaurant"}}, {"type": "node", "id": 1883448760, "lat": 40.4905419, "lon": 22.2311169, "tags": {"amenity": "restaurant"}}, {"type": "node", "id": 1883448763, "lat": 40.488757, "lon": 22.2335799, "tags": {"amenity": "restaurant"}}, {"type": "node", "id": 2235980103, "lat": 40.3287253, "lon": 22.5816238, "tags": {"amenity": "restaurant", "name": "\u03b5\u03bb\u03b9\u03ac & \u03bb\u03ac\u03b4\u03b9"}}, {"type": "node", "id": 2235980105, "lat": 40.3313722, "lon": 22.5810255, "tags": {"amenity": "restaurant", "name": "\u03b5\u03bb\u03b9\u03ac & \u03bb\u03ac\u03b4\u03b9"}}, {"type": "node", "id": 2853614063, "lat": 40.5270983, "lon": 22.2043545, "tags": {"amenity": "cafe"}}, {"type": "node", "id": 2853614066, "lat": 40.5232732, "lon": 22.206892, "tags": {"amenity": "cafe", "name": "Beluga"}}, {"type": "node", "id": 2853614067, "lat": 40.5235178, "lon": 22.206998, "tags": {"amenity": "cafe", "name": "Social"}}, {"type": "node", "id": 3067940706, "lat": 40.2585525, "lon": 22.142995, "tags": {"amenity": "cafe", "cuisine": "regional"}}, {"type": "node", "id": 3067942314, "lat": 40.2608921, "lon": 22.144057, "tags": {"amenity": "cafe"}}, {"type": "node", "id": 3161747944, "lat": 40.1119097, "lon": 22.4684092, "tags": {"amenity": "restaurant", "name": "Boudolas refuge", "name:el": "Boudolas refuge"}}, {"type": "node", "id": 3165215220, "lat": 40.1052554, "lon": 22.5025672, "tags": {"amenity": "cafe", "internet_access": "wlan", "internet_access:fee": "no", "name": "\u039a\u03b1\u03c6\u03b5-\u0396\u03b1\u03c7\u03b1\u03c1\u03bf\u03c0\u03bb\u03b1\u03c3\u03c4\u03b5\u03af\u03bf \u039f\u039b\u03a5\u039c\u03a0\u0399\u039f\u039d", "payment:cash": "yes", "payment:mastercard": "yes", "payment:visa": "yes"}}, {"type": "node", "id": 3165272430, "lat": 40.1059496, "lon": 22.5084921, "tags": {"amenity": "cafe", "name": "\u039b\u03b9\u03b1\u03b3\u03ba\u03b1\u03c2"}}, {"type": "node", "id": 3165272432, "lat": 40.1060202, "lon": 22.5075775, "tags": {"amenity": "cafe"}}, {"type": "node", "id": 3498782547, "lat": 40.2379826, "lon": 22.5871463, "tags": {"addr:city": "\u039f\u03bb\u03c5\u03bc\u03c0\u03b9\u03b1\u03ba\u03ae \u0391\u03ba\u03c4\u03ae", "addr:postcode": "601 50", "addr:street": "\u039a\u03bb\u03b5\u03b9\u03bf\u03cd\u03c2", "amenity": "restaurant", "cuisine": "international", "name": "White Rose Restaurant"}}, {"type": "node", "id": 3750009430, "lat": 40.1048603, "lon": 22.5012668, "tags": {"amenity": "restaurant", "cuisine": "regional", "name": "\u0395\u03c1\u03b1\u03c4\u03ce"}}, {"type": "node", "id": 3918773471, "lat": 40.4560309, "lon": 22.5878297, "tags": {"amenity": "restaurant", "cuisine": "seafood", "name": "\u0391\u03b9\u03b3\u03b1\u03af\u03bf \u03a0\u03ad\u03bb\u03b1\u03b3\u03bf\u03c2", "name:el": "\u0391\u03b9\u03b3\u03b1\u03af\u03bf \u03a0\u03ad\u03bb\u03b1\u03b3\u03bf\u03c2", "name:en": "Aigaio Pelagos"}}, {"type": "node", "id": 3918773472, "lat": 40.4559799, "lon": 22.5879719, "tags": {"amenity": "cafe", "name": "\u038c\u03c1\u03bc\u03bf\u03c2"}}, {"type": "node", "id": 3918773473, "lat": 40.4558972, "lon": 22.5881141, "tags": {"amenity": "restaurant", "name": "\u039d\u03af\u03ba\u03bf\u03c2"}}, {"type": "node", "id": 3918773474, "lat": 40.4561003, "lon": 22.5876702, "tags": {"amenity": "restaurant", "cuisine": "fish", "name": "\u0398\u03cc\u03b4\u03c9\u03c1\u03bf\u03c2"}}, {"type": "node", "id": 3923341657, "lat": 40.523124, "lon": 22.2076958, "tags": {"amenity": "cafe", "name": "Kori"}}, {"type": "node", "id": 3923341658, "lat": 40.5234152, "lon": 22.2060264, "tags": {"amenity": "cafe", "name": "Coin"}}, {"type": "node", "id": 3924440181, "lat": 40.5227734, "lon": 22.2072791, "tags": {"amenity": "restaurant", "cuisine": "italian", "name": "Pappagallo"}}, {"type": "node", "id": 3925366176, "lat": 40.5234588, "lon": 22.2057332, "tags": {"amenity": "cafe"}}, {"type": "node", "id": 3925366178, "lat": 40.5235261, "lon": 22.205398, "tags": {"amenity": "cafe", "brand": "Mikel", "brand:wikidata": "Q16952021", "brand:wikipedia": "el:Mikel Coffee Company", "cuisine": "coffee_shop", "name": "Mikel", "takeaway": "yes"}}, {"type": "node", "id": 3925523657, "lat": 40.5268722, "lon": 22.2044883, "tags": {"amenity": "cafe"}}, {"type": "node", "id": 4104682075, "lat": 40.2718613, "lon": 22.5039306, "tags": {"addr:city": "\u039a\u03b1\u03c4\u03b5\u03c1\u03af\u03bd\u03b7", "addr:housenumber": "1", "addr:postcode": "601 33", "addr:street": "\u03a3\u03b1\u03c1\u03b1\u03bd\u03c4\u03b1\u03c0\u03cc\u03c1\u03bf\u03c5", "amenity": "cafe", "name": "\u03a0\u03cc\u03b4\u03b1\u03c2"}}, {"type": "node", "id": 4235476989, "lat": 40.2274611, "lon": 22.5024085, "tags": {"amenity": "cafe", "internet_access": "wlan", "name": "Mojito Cafe bar"}}, {"type": "node", "id": 4243886589, "lat": 40.2609374, "lon": 22.5948254, "tags": {"addr:housenumber": "1", "addr:street": "\u039f\u03bb\u03cd\u03bc\u03c0\u03bf\u03c5", "amenity": "restaurant", "check_date": "2023-09-25", "cuisine": "greek", "email": "tavernamolos@gmail.com", "internet_access": "wlan", "name": "Molos Fish Resto", "opening_hours": "11:00-24:00", "outdoor_seating": "yes", "payment:mastercard": "yes", "payment:visa": "yes", "phone": "+30 2351 064052", "reservation": "yes", "toilets": "yes", "website": "https://molosrestaurant.gr/", "website:menu": "https://molosrestaurant.gr/menu/"}}, {"type": "node", "id": 4370195018, "lat": 40.105415, "lon": 22.5041655, "tags": {"addr:housenumber": "36", "addr:postcode": "60200", "addr:street": "\u0391\u03b3\u03af\u03bf\u03c5 \u039d\u03b9\u03ba\u03bf\u03bb\u03ac\u03bf\u03c5", "amenity": "restaurant", "cuisine": "balkan", "email": "info@gastrodromio.gr", "internet_access": "wlan", "name": "Gastrodromio", "name:el": "Gastrodromio", "opening_hours": "24/7", "operator": "Gavris Andreas", "phone": "00302352021300"}}, {"type": "node", "id": 4389042495, "lat": 40.1038294, "lon": 22.5054078, "tags": {"addr:housenumber": "1", "addr:postcode": "60200", "addr:street": "Agion Apostolon", "amenity": "cafe", "cuisine": "balkan", "name": "Kalimera", "name:el": "Kalimera", "opening_hours": "Mo-Su 05:00-13:30", "phone": "6948372544"}}, {"type": "node", "id": 4402590493, "lat": 40.2714018, "lon": 22.5072329, "tags": {"amenity": "cafe"}}, {"type": "node", "id": 4452140178, "lat": 40.5228008, "lon": 22.2061205, "tags": {"addr:city": "\u0392\u03ad\u03c1\u03bf\u03b9\u03b1", "addr:housenumber": "6", "addr:postcode": "59131", "addr:street": "28 \u039f\u03ba\u03c4\u03c9\u03b2\u03c1\u03af\u03bf\u03c5", "amenity": "cafe", "cuisine": "coffee_shop", "internet_access": "wlan", "internet_access:fee": "no", "internet_access:ssid": "Original", "name": "Original PlayCafe", "opening_hours": "10:00-24:00", "smoking": "yes"}}, {"type": "node", "id": 4455716269, "lat": 40.2689862, "lon": 22.5163281, "tags": {"addr:city": "\u039a\u03b1\u03c4\u03b5\u03c1\u03af\u03bd\u03b7", "addr:housenumber": "8", "addr:postcode": "601 32", "addr:street": "28\u03b7\u03c2 \u039f\u03ba\u03c4\u03c9\u03b2\u03c1\u03af\u03bf\u03c5", "amenity": "cafe", "name": "\u03a3\u03b5\u03c1\u03c1\u03b1\u03ca\u03ba\u03cc\u03bd", "operator": "\u039a\u03b1\u03c1\u03b1\u03c4\u03b6\u03ac\u03c2 \u03a7\u03b1\u03c1\u03ac\u03bb\u03b1\u03bc\u03c0\u03bf\u03c2"}}, {"type": "node", "id": 4456111692, "lat": 40.2740797, "lon": 22.5163734, "tags": {"addr:city": "\u039a\u03b1\u03c4\u03b5\u03c1\u03af\u03bd\u03b7", "addr:housenumber": "8", "addr:postcode": "601 34", "addr:street": "\u039d\u03b9\u03ba\u03bf\u03bb\u03ac\u03bf\u03c5 \u0394\u03af\u03ba\u03b1", "amenity": "restaurant", "name": "\u039c\u03ad\u03b8\u03b5\u03be\u03b9\u03c2", "operator": "\u039c\u03c0\u03af\u03ba\u03bf\u03c2 \u0397\u03bb\u03af\u03b1\u03c2"}}, {"type": "node", "id": 4463502198, "lat": 40.2764041, "lon": 22.5146083, "tags": {"addr:city": "\u039a\u03b1\u03c4\u03b5\u03c1\u03af\u03bd\u03b7", "addr:housenumber": "82", "addr:postcode": "601 34", "addr:street": "\u0398\u03b5\u03c3\u03c3\u03b1\u03bb\u03bf\u03bd\u03af\u03ba\u03b7\u03c2", "amenity": "cafe", "cuisine": "sausage;hot_dog;sandwich;coffee_shop;greek", "name": "\u039c\u03c0\u03bf\u03c5\u03b3\u03ac\u03c4\u03c3\u03b1 \u039b\u0399\u03a7\u039f\u03a5\u0394\u0399\u0395\u03a3", "name:el": "\u039c\u03c0\u03bf\u03c5\u03b3\u03ac\u03c4\u03c3\u03b1 \u039b\u0399\u03a7\u039f\u03a5\u0394\u0399\u0395\u03a3", "name:en": "Bougatsa LICHOUDIES", "opening_hours": "Mo-Sa 06:00-16:00", "operator": "\u039a\u03b1\u03c4\u03b5\u03c1\u03af\u03bd\u03b1", "phone": "+302351079996"}}, {"type": "node", "id": 4558145493, "lat": 40.47046, "lon": 22.5694839, "tags": {"amenity": "cafe", "name": "DC3 airplane cafe"}}, {"type": "node", "id": 4581122231, "lat": 40.2678215, "lon": 22.522717, "tags": {"addr:city": "\u039a\u03b1\u03c4\u03b5\u03c1\u03af\u03bd\u03b7", "addr:housenumber": "2", "addr:postcode": "601 34", "addr:street": "\u039b\u03b5\u03c9\u03bd\u03af\u03b4\u03b1 \u0399\u03b1\u03c3\u03c9\u03bd\u03af\u03b4\u03b7", "amenity": "cafe", "name": "Gentle"}}, {"type": "node", "id": 4664290780, "lat": 40.2620562, "lon": 22.1412597, "tags": {"amenity": "restaurant", "name": "taverna '' \u03a4\u03bf \u039a\u03b1\u03c1\u03b1\u03bf\u03c5\u03bb\u03b9 ''"}}, {"type": "node", "id": 4688866415, "lat": 40.2698424, "lon": 22.510188, "tags": {"addr:city": "\u039a\u03b1\u03c4\u03b5\u03c1\u03af\u03bd\u03b7", "addr:housenumber": "25", "addr:postcode": "601 32", "addr:street": "25\u03b7\u03c2 \u039c\u03b1\u03c1\u03c4\u03af\u03bf\u03c5", "amenity": "cafe", "name": "Deluca"}}, {"type": "node", "id": 4688866417, "lat": 40.2699551, "lon": 22.5100785, "tags": {"addr:city": "\u039a\u03b1\u03c4\u03b5\u03c1\u03af\u03bd\u03b7", "addr:housenumber": "21", "addr:postcode": "601 32", "addr:street": "25\u03b7\u03c2 \u039c\u03b1\u03c1\u03c4\u03af\u03bf\u03c5", "amenity": "cafe", "name": "\u0386\u03c1\u03c9\u03bc\u03b1 \u03a0\u03cc\u03bb\u03b7\u03c2"}}, {"type": "node", "id": 4688882233, "lat": 40.2698632, "lon": 22.508956, "tags": {"addr:city": "\u039a\u03b1\u03c4\u03b5\u03c1\u03af\u03bd\u03b7", "addr:housenumber": "26", "addr:postcode": "601 32", "addr:street": "\u0391\u03b3\u03af\u03b1\u03c2 \u039b\u03b1\u03cd\u03c1\u03b1\u03c2", "amenity": "restaurant", "cuisine": "chicken", "name": "Chick In \u039a\u03b1\u03bb\u03b1\u03ca\u03c4\u03b6\u03ae", "operator": "\u039a\u03b1\u03bb\u03b1\u03ca\u03c4\u03b6\u03ae\u03c2 \u039c\u03bf\u03bd\u03bf\u03c0\u03c1\u03cc\u03c3\u03c9\u03c0\u03b7 \u0395\u03a0\u0395", "outdoor_seating": "yes"}}, {"type": "node", "id": 4688882234, "lat": 40.2695945, "lon": 22.5087894, "tags": {"addr:city": "\u039a\u03b1\u03c4\u03b5\u03c1\u03af\u03bd\u03b7", "addr:housenumber": "3", "addr:postcode": "601 32", "addr:street": "\u0394\u03b9\u03bf\u03bd\u03c5\u03c3\u03af\u03bf\u03c5 \u0391\u03c1\u03b5\u03bf\u03c0\u03b1\u03b3\u03af\u03c4\u03bf\u03c5", "amenity": "restaurant", "name": "Kitchen Pasta"}}, {"type": "node", "id": 4690473690, "lat": 40.2709395, "lon": 22.5083914, "tags": {"amenity": "cafe", "name": "Florian", "operator": "\u039d\u03c4\u03bf\u03cd\u03c6\u03b1 \u0395\u03bb\u03ad\u03bd\u03b7"}}, {"type": "node", "id": 4704801679, "lat": 40.269847, "lon": 22.5273457, "tags": {"addr:city": "\u039a\u03b1\u03c4\u03b5\u03c1\u03af\u03bd\u03b7", "addr:housenumber": "40-42", "addr:postcode": "601 34", "addr:street": "\u039b\u03b5\u03c9\u03bd\u03af\u03b4\u03b1 \u0399\u03b1\u03c3\u03c9\u03bd\u03af\u03b4\u03b7", "amenity": "cafe", "name": "Dakota"}}, {"type": "node", "id": 4704801681, "lat": 40.2718186, "lon": 22.5042894, "tags": {"addr:city": "\u039a\u03b1\u03c4\u03b5\u03c1\u03af\u03bd\u03b7", "addr:housenumber": "2", "addr:postcode": "601 33", "addr:street": "\u0396\u03b1\u03bb\u03cc\u03b3\u03b3\u03bf\u03c5", "amenity": "restaurant", "name": "\u0397 \u0394\u03c1\u03b1\u03c7\u03bc\u03ae"}}, {"type": "node", "id": 4708442361, "lat": 40.1262906, "lon": 22.1568515, "tags": {"addr:city": "\u039b\u03b9\u03b2\u03ac\u03b4\u03b9", "amenity": "cafe", "internet_access": "wlan", "name": "\u0391\u03c1\u03c7\u03bf\u03bd\u03c4\u03b9\u03ba\u03cc"}}, {"type": "node", "id": 4708442362, "lat": 40.1262158, "lon": 22.1563539, "tags": {"addr:city": "\u039b\u03b9\u03b2\u03ac\u03b4\u03b9", "amenity": "restaurant", "cuisine": "greek", "name": "\u039f \u03a3\u03bf\u03c6\u03c1\u03ac\u03c2", "phone": "+302493041820", "website": "http://o-sofras.gr"}}, {"type": "node", "id": 4711840948, "lat": 40.2625091, "lon": 22.5087787, "tags": {"addr:city": "\u039a\u03b1\u03c4\u03b5\u03c1\u03af\u03bd\u03b7", "addr:housenumber": "75", "addr:postcode": "601 32", "addr:street": "\u03a4\u03ac\u03ba\u03b7 \u03a4\u03b5\u03c1\u03b6\u03bf\u03c0\u03bf\u03cd\u03bb\u03bf\u03c5", "amenity": "cafe", "cuisine": "bougatsa", "name": "\u0395\u03bb\u03b2\u03af\u03c1\u03b1"}}, {"type": "node", "id": 4711840959, "lat": 40.2718562, "lon": 22.508945, "tags": {"addr:city": "\u039a\u03b1\u03c4\u03b5\u03c1\u03af\u03bd\u03b7", "addr:housenumber": "2", "addr:postcode": "601 34", "addr:street": "\u0395\u03b8\u03bd\u03b9\u03ba\u03ae\u03c2 \u0391\u03bd\u03c4\u03b9\u03c3\u03c4\u03ac\u03c3\u03b5\u03c9\u03c2", "amenity": "cafe", "name": "Cafe \u039a\u03b1\u03c6\u03ad", "operator": "\u039a\u03b1\u03c3\u03b9\u03c4\u03b5\u03c1\u03cc\u03c0\u03bf\u03c5\u03bb\u03bf\u03c2 \u0393. \u039a\u03b1\u03c3\u03b9\u03c4\u03b5\u03c1\u03bf\u03c0\u03bf\u03cd\u03bb\u03bf\u03c5 \u0394. \u039f\u0395"}}, {"type": "node", "id": 4711840961, "lat": 40.2716152, "lon": 22.5091064, "tags": {"amenity": "cafe", "brand": "Coffee Island", "brand:wikidata": "Q60867333", "brand:wikipedia": "en:Coffee Island", "cuisine": "coffee_shop", "name": "Coffee Island", "takeaway": "yes"}}, {"type": "node", "id": 4711840963, "lat": 40.2715857, "lon": 22.5091252, "tags": {"amenity": "cafe", "name": "Brand Cafe"}}, {"type": "node", "id": 4711935670, "lat": 40.2713142, "lon": 22.5084514, "tags": {"addr:city": "\u039a\u03b1\u03c4\u03b5\u03c1\u03af\u03bd\u03b7", "addr:housenumber": "9", "addr:postcode": "601 33", "addr:street": "\u03a0\u03bb\u03b1\u03c4\u03b5\u03af\u03b1 \u0395\u03bb\u03b5\u03c5\u03b8\u03b5\u03c1\u03af\u03b1\u03c2", "amenity": "cafe", "name": "\u0391\u03c1\u03c7\u03bf\u03bd\u03c4\u03b9\u03ba\u03cc"}}, {"type": "node", "id": 4711935673, "lat": 40.2715765, "lon": 22.5084551, "tags": {"addr:city": "\u039a\u03b1\u03c4\u03b5\u03c1\u03af\u03bd\u03b7", "addr:housenumber": "1", "addr:postcode": "601 33", "addr:street": "16\u03b7\u03c2 \u039f\u03ba\u03c4\u03c9\u03b2\u03c1\u03af\u03bf\u03c5", "amenity": "cafe", "name": "Better Cafe.bar"}}, {"type": "node", "id": 4712033657, "lat": 40.2709233, "lon": 22.5091822, "tags": {"addr:city": "\u039a\u03b1\u03c4\u03b5\u03c1\u03af\u03bd\u03b7", "addr:housenumber": "1", "addr:postcode": "601 32", "addr:street": "\u03a0\u03bb\u03b1\u03c4\u03b5\u03af\u03b1 \u0395\u03bb\u03b5\u03c5\u03b8\u03b5\u03c1\u03af\u03b1\u03c2", "amenity": "cafe", "name": "Piazza"}}, {"type": "node", "id": 4712033665, "lat": 40.270023, "lon": 22.5125651, "tags": {"addr:city": "\u039a\u03b1\u03c4\u03b5\u03c1\u03af\u03bd\u03b7", "addr:housenumber": "30", "addr:postcode": "601 32", "addr:street": "\u0395\u03b9\u03c1\u03ae\u03bd\u03b7\u03c2", "amenity": "cafe", "name": "\u039a\u03b1\u03c6\u03b5\u03bd\u03b5\u03af\u03bf"}}, {"type": "node", "id": 4737614916, "lat": 40.2683976, "lon": 22.5200065, "tags": {"addr:city": "\u039a\u03b1\u03c4\u03b5\u03c1\u03af\u03bd\u03b7", "addr:housenumber": "33", "addr:postcode": "601 34", "addr:street": "28\u03b7\u03c2 \u039f\u03ba\u03c4\u03c9\u03b2\u03c1\u03af\u03bf\u03c5", "amenity": "cafe", "cuisine": "donut", "name": "\u039c\u03ad\u03b3\u03b1\u03c2 Donuts"}}, {"type": "node", "id": 4737875344, "lat": 40.2718525, "lon": 22.4986403, "tags": {"addr:city": "\u039a\u03b1\u03c4\u03b5\u03c1\u03af\u03bd\u03b7", "addr:housenumber": "1", "addr:postcode": "601 33", "addr:street": "\u03a6\u03b9\u03bb\u03b5\u03bb\u03bb\u03ae\u03bd\u03c9\u03bd", "amenity": "cafe", "name": "Bruno"}}, {"type": "node", "id": 4737875345, "lat": 40.2743704, "lon": 22.5136211, "tags": {"addr:city": "\u039a\u03b1\u03c4\u03b5\u03c1\u03af\u03bd\u03b7", "addr:housenumber": "58", "addr:postcode": "601 34", "addr:street": "\u0398\u03b5\u03c3\u03c3\u03b1\u03bb\u03bf\u03bd\u03af\u03ba\u03b7\u03c2", "amenity": "cafe", "name": "Bruno", "operator": "\u03a7\u03b5\u03af\u03c1\u03b1\u03c2 \u0391\u03bb\u03ad\u03be\u03b1\u03bd\u03b4\u03c1\u03bf\u03c2"}}, {"type": "node", "id": 4739954608, "lat": 40.2682748, "lon": 22.5132732, "tags": {"addr:city": "\u039a\u03b1\u03c4\u03b5\u03c1\u03af\u03bd\u03b7", "addr:housenumber": "60", "addr:postcode": "601 32", "addr:street": "25\u03b7\u03c2 \u039c\u03b1\u03c1\u03c4\u03af\u03bf\u03c5", "amenity": "cafe", "name": "\u039c\u03c0\u03bf\u03c5\u03b3\u03ac\u03c4\u03c3\u03b1 Sante", "operator": "\u039a\u03b1\u03bd\u03c9\u03c4\u03af\u03b4\u03b7\u03c2 \u03a7\u03c1\u03ae\u03c3\u03c4\u03bf\u03c2"}}, {"type": "node", "id": 4741400627, "lat": 40.2798608, "lon": 22.5170519, "tags": {"addr:city": "\u039a\u03b1\u03c4\u03b5\u03c1\u03af\u03bd\u03b7", "addr:housenumber": "116", "addr:postcode": "601 34", "addr:street": "\u0398\u03b5\u03c3\u03c3\u03b1\u03bb\u03bf\u03bd\u03af\u03ba\u03b7\u03c2", "amenity": "restaurant", "name": "\u03a8\u03b7\u03c4\u03bf\u03c0\u03c9\u03bb\u03b5\u03af\u03bf \u03bf \u03a3\u03af\u03bc\u03bf\u03c2", "operator": "\u039f\u03c6\u03b5\u03af\u03b4\u03b7\u03c2 \u03a3\u03c5\u03bc\u03b5\u03ce\u03bd"}}, {"type": "node", "id": 4751102528, "lat": 40.2726038, "lon": 22.5111524, "tags": {"addr:city": "\u039a\u03b1\u03c4\u03b5\u03c1\u03af\u03bd\u03b7", "addr:housenumber": "17", "addr:postcode": "601 34", "addr:street": "\u0394\u03b7\u03bc\u03b7\u03c4\u03c1\u03af\u03bf\u03c5 \u039d\u03af\u03ba\u03b1", "amenity": "restaurant", "cuisine": "pizza", "name": "La Vita", "operator": "\u0393\u03b9\u03bf\u03c5\u03bc\u03af\u03b4\u03b7\u03c2 \u039a\u03c5\u03c1\u03b9\u03ac\u03ba\u03bf\u03c2"}}, {"type": "node", "id": 4773808698, "lat": 40.2710094, "lon": 22.5096468, "tags": {"addr:city": "\u039a\u03b1\u03c4\u03b5\u03c1\u03af\u03bd\u03b7", "addr:housenumber": "3", "addr:postcode": "601 34", "addr:street": "\u0395\u03b9\u03c1\u03ae\u03bd\u03b7\u03c2", "amenity": "cafe", "name": "\u039c\u03c0\u03bf\u03c5\u03b3\u03ac\u03c4\u03c3\u03b1 \u039a\u03b1\u03c6\u03ad \u039c\u03b9\u03c7\u03ac\u03bb\u03b7\u03c2", "operator": "\u039c\u03c0\u03bf\u03c5\u03bc\u03c0\u03bf\u03c5\u03bb\u03ad\u03bd\u03c4\u03c1\u03b1\u03c2 \u039c\u03b9\u03c7\u03b1\u03ae\u03bb"}}, {"type": "node", "id": 4776852872, "lat": 40.2757967, "lon": 22.5064217, "tags": {"addr:city": "\u039a\u03b1\u03c4\u03b5\u03c1\u03af\u03bd\u03b7", "addr:housenumber": "17", "addr:postcode": "601 33", "addr:street": "\u0394\u03bf\u03ca\u03c1\u03ac\u03bd\u03b7\u03c2", "amenity": "restaurant", "name": "\u0394\u03b5\u03c3\u03ba\u03ac\u03c4\u03b7", "operator": "\u0396\u03b9\u03ac\u03bb\u03c4\u03bf\u03c5 \u039b\u03b5\u03bc\u03bf\u03bd\u03b9\u03ac"}}, {"type": "node", "id": 4777868916, "lat": 40.2691255, "lon": 22.5157718, "tags": {"addr:city": "\u039a\u03b1\u03c4\u03b5\u03c1\u03af\u03bd\u03b7", "addr:housenumber": "2", "addr:postcode": "601 32", "addr:street": "28\u03b7\u03c2 \u039f\u03ba\u03c4\u03c9\u03b2\u03c1\u03af\u03bf\u03c5", "amenity": "restaurant", "name": "\u0391\u03bc\u03ad\u03b8\u03c5\u03c3\u03c4\u03bf\u03c2"}}, {"type": "node", "id": 4780012360, "lat": 40.274065, "lon": 22.5142513, "tags": {"addr:city": "\u039a\u03b1\u03c4\u03b5\u03c1\u03af\u03bd\u03b7", "addr:housenumber": "10", "addr:postcode": "601 34", "addr:street": "\u039d\u03b9\u03ba\u03bf\u03bb\u03ac\u03bf\u03c5 \u0394\u03af\u03ba\u03b1", "amenity": "cafe", "delivery": "yes", "name": "Illy Street Cafe", "opening_hours": "Mo-Su 06:00-23:30", "outdoor_seating": "yes", "payment:cash": "yes", "payment:contactless": "yes", "phone": "2351028777", "takeaway": "yes", "toilets": "yes", "website": "https://www.street-cafe.gr/"}}, {"type": "node", "id": 4780012364, "lat": 40.2694479, "lon": 22.512084, "tags": {"addr:city": "\u039a\u03b1\u03c4\u03b5\u03c1\u03af\u03bd\u03b7", "addr:housenumber": "8-10", "addr:postcode": "601 32", "addr:street": "\u0399\u03c0\u03c0\u03bf\u03ba\u03c1\u03ac\u03c4\u03bf\u03c5\u03c2", "amenity": "restaurant", "name": "\u0391\u03bc\u03ac\u03bb\u03b8\u03b5\u03b9\u03b1", "opening_hours": "Dec 25 off", "operator": "\u0391\u03bd\u03c4\u03c9\u03bd\u03af\u03bf\u03c5 \u0398\u03c9\u03bc\u03ac\u03c2", "phone": "+302351038588", "website": "https://facebook.com/AmaltheiaKaterini/"}}, {"type": "node", "id": 4794982256, "lat": 40.1565174, "lon": 22.5486928, "tags": {"addr:street": "\u0394\u03af\u03bf\u03bd - \u039b\u03b9\u03bc\u03ad\u03bd\u03b1\u03c2 \u039b\u03b9\u03c4\u03bf\u03c7\u03ce\u03c1\u03bf\u03c5", "amenity": "restaurant", "name": "\u03c8\u03b1\u03c1\u03bf\u03ba\u03cc\u03ba\u03ba\u03b1\u03bb\u03bf"}}, {"type": "node", "id": 4798382229, "lat": 40.2717716, "lon": 22.5058754, "tags": {"addr:city": "\u039a\u03b1\u03c4\u03b5\u03c1\u03af\u03bd\u03b7", "addr:housenumber": "5", "addr:postcode": "601 33", "addr:street": "\u03a4\u03c3\u03b9\u03bc\u03b9\u03c3\u03ba\u03ae", "amenity": "cafe", "name": "Louis Lauren Chocolates", "operator": "\u03a0\u03ad\u03bb\u03bb\u03b1\u03c2 \u039d\u03b9\u03ba\u03cc\u03bb\u03b1\u03bf\u03c2"}}, {"type": "node", "id": 4807395148, "lat": 40.2700574, "lon": 22.5283546, "tags": {"addr:city": "\u039a\u03b1\u03c4\u03b5\u03c1\u03af\u03bd\u03b7", "addr:housenumber": "52", "addr:postcode": "601 34", "addr:street": "\u039b\u03b5\u03c9\u03bd\u03af\u03b4\u03b1 \u0399\u03b1\u03c3\u03c9\u03bd\u03af\u03b4\u03b7", "amenity": "cafe", "name": "\u0391\u03c1\u03b3\u03b1\u03bb\u03af"}}, {"type": "node", "id": 4818950434, "lat": 40.2711956, "lon": 22.5015299, "tags": {"addr:city": "\u039a\u03b1\u03c4\u03b5\u03c1\u03af\u03bd\u03b7", "addr:housenumber": "9", "addr:postcode": "601 31", "addr:street": "\u039c\u03b7\u03c4\u03c1\u03bf\u03c0\u03cc\u03bb\u03b5\u03c9\u03c2", "amenity": "cafe", "name": "Mystique", "operator": "\u0393\u03b9\u03b1\u03bd\u03bd\u03bf\u03cd\u03bb\u03b7\u03c2 \u0393\u03b5\u03ce\u03c1\u03b3\u03b9\u03bf\u03c2"}}, {"type": "node", "id": 4818950435, "lat": 40.271601, "lon": 22.5016403, "tags": {"addr:city": "\u039a\u03b1\u03c4\u03b5\u03c1\u03af\u03bd\u03b7", "addr:housenumber": "1", "addr:postcode": "601 31", "addr:street": "\u039c\u03b7\u03c4\u03c1\u03bf\u03c0\u03cc\u03bb\u03b5\u03c9\u03c2", "amenity": "cafe", "brand": "Mikel", "brand:wikidata": "Q16952021", "cuisine": "coffee_shop", "disused:amenity": "cafe", "name": "Mikel", "takeaway": "yes"}}, {"type": "node", "id": 4870830321, "lat": 40.4111525, "lon": 22.6101699, "tags": {"addr:postcode": "60066", "addr:street": "\u03c0\u03b1\u03c1\u03b1\u03bb\u03af\u03b1 \u03bc\u03b1\u03ba\u03c1\u03c5\u03b3\u03b9\u03ac\u03bb\u03bf\u03c5", "amenity": "cafe", "cuisine": "coffee_shop;ice_cream;hot_dog;burger", "email": "parisnot@yahoo.gr", "internet_access": "wlan", "opening_hours": "Mo-Su 07:00-03:00", "phone": "+302353041723"}}, {"type": "node", "id": 4873092822, "lat": 40.4107866, "lon": 22.610315, "tags": {"addr:postcode": "60066", "amenity": "cafe", "cuisine": "coffee_shop;tea;ice_cream;burger;hot_dog", "email": "parisnot@yahoo.gr", "internet_access": "wlan", "name:en": "DALI Cafe Bar", "opening_hours": "Mo-Su 07:00-03:00", "phone": "+302353041723"}}, {"type": "node", "id": 4873607511, "lat": 40.2619091, "lon": 22.5098126, "tags": {"addr:city": "\u039a\u03b1\u03c4\u03b5\u03c1\u03af\u03bd\u03b7", "addr:housenumber": "12", "addr:postcode": "601 32", "addr:street": "\u0395\u03b8\u03bd\u03b9\u03ba\u03bf\u03cd \u03a3\u03c4\u03b1\u03b4\u03af\u03bf\u03c5", "amenity": "cafe", "name": "Maxim", "outdoor_seating": "yes"}}, {"type": "node", "id": 4876852489, "lat": 40.2668805, "lon": 22.5101897, "tags": {"addr:city": "\u039a\u03b1\u03c4\u03b5\u03c1\u03af\u03bd\u03b7", "addr:housenumber": "25", "addr:postcode": "601 32", "addr:street": "\u0395\u03bc\u03bc\u03b1\u03bd\u03bf\u03c5\u03ae\u03bb \u03a0\u03b1\u03c0\u03c0\u03ac", "amenity": "cafe", "name": "\u039a\u03b1\u03b8' \u039f\u03b4\u03cc\u03bd"}}, {"type": "node", "id": 4890072547, "lat": 40.2735125, "lon": 22.5123989, "tags": {"addr:city": "\u039a\u03b1\u03c4\u03b5\u03c1\u03af\u03bd\u03b7", "addr:housenumber": "13", "addr:postcode": "601 34", "addr:street": "\u0394\u03b7\u03bc\u03b7\u03c4\u03c1\u03af\u03bf\u03c5 \u0392\u03b1\u03ba\u03ac\u03bb\u03b7", "amenity": "cafe", "name": "\u039a\u03b1\u03c6\u03ad \u039a\u03bf\u03bc\u03c0\u03bf\u03bb\u03cc\u03b9", "operator": "\u039c\u03ad\u03c1\u03b9\u03bc\u03bd\u03b1 \u03a0\u03b1\u03b9\u03b4\u03b9\u03bf\u03cd \u039a\u03b1\u03c4\u03b5\u03c1\u03af\u03bd\u03b7\u03c2"}}, {"type": "node", "id": 4900573003, "lat": 40.2719846, "lon": 22.4955623, "tags": {"addr:city": "\u039a\u03b1\u03c4\u03b5\u03c1\u03af\u03bd\u03b7", "addr:housenumber": "84", "addr:postcode": "601 33", "addr:street": "7\u03b7\u03c2 \u039c\u03b5\u03c1\u03b1\u03c1\u03c7\u03af\u03b1\u03c2", "amenity": "restaurant", "name": "\u03a3\u03b1\u03c6\u03c1\u03ac\u03bd"}}, {"type": "node", "id": 4900573004, "lat": 40.2721807, "lon": 22.4964405, "tags": {"addr:city": "\u039a\u03b1\u03c4\u03b5\u03c1\u03af\u03bd\u03b7", "addr:housenumber": "4", "addr:postcode": "601 33", "addr:street": "\u03a6\u03b9\u03bb\u03ce\u03c4\u03b1", "amenity": "restaurant", "cuisine": "international", "delivery": "yes", "name": "Taste the World"}}, {"type": "node", "id": 4907617483, "lat": 40.1031395, "lon": 22.5630288, "tags": {"amenity": "restaurant", "cuisine": "greek;fish", "email": "thanasispapalos@gmail.com", "facebook": "https://www.facebook.com/%CE%91%CE%99%CE%9F%CE%9B%CE%9F%CE%A3-%CE%A8%CE%91%CE%A1%CE%9F%CE%A4%CE%91%CE%92%CE%95%CE%A1%CE%9D%CE%91-%CE%A0%CE%9B%CE%91%CE%9A%CE%91-%CE%9B%CE%99%CE%A4%CE%9F%CE%A7%CE%A9%CE%A1%CE%9F%CE%A5-118056361571118", "name": "Aiolos Fish Tavern", "opening_hours": "Mo-Su 11:15-23:00", "phone": "+30 2352022227", "website": "https://aiolosfishtavern.business.site/"}}, {"type": "node", "id": 4934957523, "lat": 40.4859683, "lon": 22.3193866, "tags": {"amenity": "restaurant", "cuisine": "regional", "int_name": "Olympiada", "name": "\u039f\u03bb\u03c5\u03bc\u03c0\u03b9\u03ac\u03b4\u03b1", "name:el": "\u039f\u03bb\u03c5\u03bc\u03c0\u03b9\u03ac\u03b4\u03b1", "name:en": "Olympiada"}}, {"type": "node", "id": 4939666307, "lat": 40.2790954, "lon": 22.5038466, "tags": {"addr:city": "\u039a\u03b1\u03c4\u03b5\u03c1\u03af\u03bd\u03b7", "addr:housenumber": "13", "addr:postcode": "601 33", "addr:street": "\u03a3\u03c9\u03ba\u03c1\u03ac\u03c4\u03bf\u03c5\u03c2", "amenity": "cafe", "name": "\u03a4\u03c3\u03b1\u03c7\u03bf\u03cd\u03c1"}}, {"type": "node", "id": 4976831023, "lat": 40.0962947, "lon": 22.2535424, "tags": {"amenity": "cafe", "name:en": "Nea Taverna"}}, {"type": "node", "id": 5018035110, "lat": 40.2680056, "lon": 22.5215406, "tags": {"addr:city": "\u039a\u03b1\u03c4\u03b5\u03c1\u03af\u03bd\u03b7", "addr:housenumber": "52", "addr:postcode": "601 34", "addr:street": "28\u03b7\u03c2 \u039f\u03ba\u03c4\u03c9\u03b2\u03c1\u03af\u03bf\u03c5", "amenity": "cafe", "cuisine": "bougatsa", "name": "Delight", "operator": "\u039c\u03c0\u03b1\u03bb\u03b1\u03bf\u03cd\u03c1\u03b1 \u03a3\u03bf\u03c6\u03af\u03b1"}}, {"type": "node", "id": 5052005221, "lat": 40.2604083, "lon": 22.5943568, "tags": {"addr:housenumber": "56", "addr:postcode": "601 50", "addr:street": "\u039f\u03bb\u03cd\u03bc\u03c0\u03bf\u03c5", "amenity": "restaurant", "check_date": "2023-09-25", "cuisine": "greek;mediterranean", "internet_access": "wlan", "name": "Nautilos", "name:el": "Nautilos", "name:en": "Nautilos", "name:ru": "\u041d\u0430\u0443\u0442\u0438\u043b\u043e\u0441", "opening_hours": "Mo-Su 11:00-01:00", "payment:mastercard": "yes", "payment:visa": "yes", "phone": "+302351063433", "website": "https://nautilostaverna.gr/"}}, {"type": "node", "id": 5058386694, "lat": 40.2859652, "lon": 22.6061405, "tags": {"amenity": "cafe"}}, {"type": "node", "id": 5073588800, "lat": 40.2808674, "lon": 22.4930225}, {"type": "node", "id": 5075268031, "lat": 40.1042533, "lon": 22.5013964, "tags": {"amenity": "restaurant", "name": "\u03a0\u03ac\u03bd\u03b8\u03b5\u03bf\u03bd", "outdoor_seating": "yes"}}, {"type": "node", "id": 5075268032, "lat": 40.1043217, "lon": 22.5010535, "tags": {"amenity": "restaurant", "name": "\u038c\u03bb\u03c5\u03bc\u03c0\u03bf\u03c2", "outdoor_seating": "yes"}}, {"type": "node", "id": 5131247681, "lat": 40.1056409, "lon": 22.5024461, "tags": {"amenity": "restaurant", "cuisine": "greek", "name": "Zeus", "restaurant": "taverna"}}, {"type": "node", "id": 5158965007, "lat": 40.2713581, "lon": 22.5066931, "tags": {"addr:city": "\u039a\u03b1\u03c4\u03b5\u03c1\u03af\u03bd\u03b7", "addr:housenumber": "26", "addr:postcode": "601 33", "addr:street": "\u039c\u03b5\u03b3\u03ac\u03bb\u03bf\u03c5 \u0391\u03bb\u03b5\u03be\u03ac\u03bd\u03b4\u03c1\u03bf\u03c5", "amenity": "cafe", "name": "Freud", "operator": "\u0399. \u039a\u03c9\u03bd\u03c3\u03c4\u03b1\u03bd\u03c4\u03b9\u03bd\u03af\u03b4\u03b7\u03c2 \u03ba\u03b1\u03b9 \u03a3\u03af\u03b1 \u039f\u0395", "outdoor_seating": "yes"}}, {"type": "node", "id": 5167011455, "lat": 40.270836, "lon": 22.4972756}, {"type": "node", "id": 5167011456, "lat": 40.2708081, "lon": 22.4974665}, {"type": "node", "id": 5167011457, "lat": 40.2707752, "lon": 22.4974636}, {"type": "node", "id": 5167011458, "lat": 40.2707761, "lon": 22.4972703}, {"type": "node", "id": 5167011459, "lat": 40.2708326, "lon": 22.4973424}, {"type": "node", "id": 5167011460, "lat": 40.2708145, "lon": 22.4973408}, {"type": "node", "id": 5167011461, "lat": 40.2707726, "lon": 22.4973386}, {"type": "node", "id": 5167011462, "lat": 40.2707816, "lon": 22.4973394}, {"type": "node", "id": 5183978720, "lat": 40.2723705, "lon": 22.5032499, "tags": {"addr:city": "\u039a\u03b1\u03c4\u03b5\u03c1\u03af\u03bd\u03b7", "addr:housenumber": "4", "addr:postcode": "601 33", "addr:street": "\u0394\u03b7\u03bc\u03b7\u03c4\u03c1\u03af\u03bf\u03c5 \u0393\u03bf\u03cd\u03bd\u03b1\u03c1\u03b7", "amenity": "restaurant", "name": "\u03a3\u03b1\u03bd \u03c4\u03bf \u03c3\u03c0\u03af\u03c4\u03b9 \u03c3\u03b1\u03c2"}}, {"type": "node", "id": 5218907709, "lat": 40.2665378, "lon": 22.5179425, "tags": {"addr:city": "\u039a\u03b1\u03c4\u03b5\u03c1\u03af\u03bd\u03b7", "addr:housenumber": "112", "addr:postcode": "601 32", "addr:street": "25\u03b7\u03c2 \u039c\u03b1\u03c1\u03c4\u03af\u03bf\u03c5", "amenity": "cafe", "name": "\u039a\u03b1\u03c6\u03ad \u00ab\u0397 \u039c\u03b1\u03c1\u03c4\u03af\u03bf\u03c5\u00bb"}}, {"type": "node", "id": 5218907716, "lat": 40.271376, "lon": 22.5056621, "tags": {"addr:city": "\u039a\u03b1\u03c4\u03b5\u03c1\u03af\u03bd\u03b7", "addr:housenumber": "39", "addr:postcode": "601 32", "addr:street": "\u039c\u03b5\u03b3\u03ac\u03bb\u03bf\u03c5 \u0391\u03bb\u03b5\u03be\u03ac\u03bd\u03b4\u03c1\u03bf\u03c5", "amenity": "cafe", "name": "Transistor", "operator": "\u0393\u03ba\u03b9\u03ac\u03c4\u03b1\u03c2 \u039d\u03b9\u03ba\u03cc\u03bb\u03b1\u03bf\u03c2"}}, {"type": "node", "id": 5218907719, "lat": 40.2704477, "lon": 22.508518, "tags": {"addr:city": "\u039a\u03b1\u03c4\u03b5\u03c1\u03af\u03bd\u03b7", "addr:housenumber": "2", "addr:postcode": "601 32", "addr:street": "\u03a3\u03bf\u03bb\u03c9\u03bc\u03bf\u03cd", "amenity": "cafe", "name": "The Dutch Pub", "outdoor_seating": "yes"}}, {"type": "node", "id": 5244558929, "lat": 40.2701397, "lon": 22.5088335, "tags": {"addr:city": "\u039a\u03b1\u03c4\u03b5\u03c1\u03af\u03bd\u03b7", "addr:housenumber": "27", "addr:postcode": "601 32", "addr:street": "\u0391\u03b3\u03af\u03b1\u03c2 \u039b\u03b1\u03cd\u03c1\u03b1\u03c2", "amenity": "restaurant", "name": "\u03a3\u03c7\u03ac\u03c1\u03b1 \u039b\u03b5\u03bc\u03cc\u03bd\u03b9", "operator": "\u0395\u03c5\u03c3\u03c4\u03b1\u03b8\u03af\u03bf\u03c5 \u0395\u03bb\u03b5\u03c5\u03b8\u03b5\u03c1\u03af\u03b1"}}, {"type": "node", "id": 5244558939, "lat": 40.2701533, "lon": 22.5086081, "tags": {"addr:city": "\u039a\u03b1\u03c4\u03b5\u03c1\u03af\u03bd\u03b7", "addr:housenumber": "20", "addr:postcode": "601 32", "addr:street": "\u0391\u03b3\u03af\u03b1\u03c2 \u039b\u03b1\u03cd\u03c1\u03b1\u03c2", "amenity": "cafe", "name": "\u039a\u03b1\u03c6\u03b5\u03bd\u03b5\u03af\u03bf \u00ab\u039f \u039c\u03c0\u03ac\u03bc\u03c0\u03b7\u03c2\u00bb"}}, {"type": "node", "id": 5244558941, "lat": 40.2702429, "lon": 22.5085043, "tags": {"addr:city": "\u039a\u03b1\u03c4\u03b5\u03c1\u03af\u03bd\u03b7", "addr:housenumber": "18", "addr:postcode": "601 32", "addr:street": "\u0391\u03b3\u03af\u03b1\u03c2 \u039b\u03b1\u03cd\u03c1\u03b1\u03c2", "amenity": "cafe", "name": "\u039c\u03c0\u03bf\u03c5\u03b3\u03ac\u03c4\u03c3\u03b1 \u0396\u03ad\u03bb\u03b9\u03bf\u03c2", "operator": "\u039c\u03c0\u03bf\u03c5\u03ba\u03bb\u03ae\u03c2 \u0398\u03b5\u03bc\u03b9\u03c3\u03c4\u03bf\u03ba\u03bb\u03ae\u03c2"}}, {"type": "node", "id": 5244558942, "lat": 40.2701982, "lon": 22.508558, "tags": {"addr:city": "\u039a\u03b1\u03c4\u03b5\u03c1\u03af\u03bd\u03b7", "addr:housenumber": "18", "addr:postcode": "601 32", "addr:street": "\u0391\u03b3\u03af\u03b1\u03c2 \u039b\u03b1\u03cd\u03c1\u03b1\u03c2", "amenity": "restaurant", "name": "\u039f\u03b9 \u039c\u03c0\u03b1\u03ba\u03b1\u03bb\u03cc\u03b3\u03b1\u03c4\u03b5\u03c2"}}, {"type": "node", "id": 5255483021, "lat": 40.270809, "lon": 22.5080431, "tags": {"addr:city": "\u039a\u03b1\u03c4\u03b5\u03c1\u03af\u03bd\u03b7", "addr:housenumber": "3", "addr:postcode": "601 32", "addr:street": "\u0391\u0384 \u03a0\u03ac\u03c1\u03bf\u03b4\u03bf\u03c2 \u0393\u03b5\u03c9\u03c1\u03b3\u03ac\u03ba\u03b7 \u039f\u03bb\u03c5\u03bc\u03c0\u03af\u03bf\u03c5", "amenity": "cafe", "name": "\u03a4\u03bf \u0391\u03b4\u03b9\u03ad\u03be\u03bf\u03b4\u03bf", "operator": "\u0392\u03b1\u03ca\u03c4\u03c3\u03bf\u03c0\u03bf\u03cd\u03bb\u03bf\u03c5 \u0395\u03bb\u03ad\u03bd\u03b7"}}, {"type": "node", "id": 5255483024, "lat": 40.2707179, "lon": 22.5083622, "tags": {"addr:city": "\u039a\u03b1\u03c4\u03b5\u03c1\u03af\u03bd\u03b7", "addr:housenumber": "10", "addr:postcode": "601 32", "addr:street": "\u0393\u03b5\u03c9\u03c1\u03b3\u03ac\u03ba\u03b7 \u039f\u03bb\u03c5\u03bc\u03c0\u03af\u03bf\u03c5", "amenity": "cafe", "name": "Celso", "operator": "\u039d\u03c4\u03bf\u03cd\u03bb\u03b1\u03c2 \u039d\u03b9\u03ba\u03cc\u03bb\u03b1\u03bf\u03c2"}}, {"type": "node", "id": 5272843624, "lat": 40.2702571, "lon": 22.5081492, "tags": {"addr:city": "\u039a\u03b1\u03c4\u03b5\u03c1\u03af\u03bd\u03b7", "addr:housenumber": "14", "addr:postcode": "601 32", "addr:street": "\u0391\u03b3\u03af\u03b1\u03c2 \u039b\u03b1\u03cd\u03c1\u03b1\u03c2", "amenity": "cafe", "name": "Geppetto Bistro", "outdoor_seating": "yes"}}, {"type": "node", "id": 5272843626, "lat": 40.2708038, "lon": 22.5085421, "tags": {"addr:city": "\u039a\u03b1\u03c4\u03b5\u03c1\u03af\u03bd\u03b7", "addr:housenumber": "1", "addr:postcode": "601 32", "addr:street": "\u0393\u03b5\u03c9\u03c1\u03b3\u03ac\u03ba\u03b7 \u039f\u03bb\u03c5\u03bc\u03c0\u03af\u03bf\u03c5", "amenity": "cafe"}}, {"type": "node", "id": 5274163885, "lat": 40.2700284, "lon": 22.5081219, "tags": {"addr:city": "\u039a\u03b1\u03c4\u03b5\u03c1\u03af\u03bd\u03b7", "addr:housenumber": "15", "addr:postcode": "601 32", "addr:street": "\u0393\u03b5\u03c9\u03c1\u03b3\u03ac\u03ba\u03b7 \u039f\u03bb\u03c5\u03bc\u03c0\u03af\u03bf\u03c5", "amenity": "restaurant", "name": "\u039f \u03a8\u03b7\u03bb\u03bf\u03c1\u03b5\u03af\u03c4\u03b7\u03c2", "operator": "\u03a4\u03c3\u03b9\u03bf\u03c5\u03b4\u03ac\u03ba\u03b7\u03c2 \u0391\u03b8\u03b1\u03bd\u03ac\u03c3\u03b9\u03bf\u03c2"}}, {"type": "node", "id": 5340643624, "lat": 40.2700016, "lon": 22.5989051}, {"type": "node", "id": 5340643625, "lat": 40.2699094, "lon": 22.5988491}, {"type": "node", "id": 5340643626, "lat": 40.2699663, "lon": 22.5990048}, {"type": "node", "id": 5341700404, "lat": 40.2670695, "lon": 22.5976253}, {"type": "node", "id": 5341700405, "lat": 40.2670163, "lon": 22.5978546}, {"type": "node", "id": 5341700406, "lat": 40.2668556, "lon": 22.5977916}, {"type": "node", "id": 5341700407, "lat": 40.2669027, "lon": 22.5975569}, {"type": "node", "id": 5341700408, "lat": 40.2668597, "lon": 22.5975421}, {"type": "node", "id": 5341700409, "lat": 40.2668413, "lon": 22.5976279}, {"type": "node", "id": 5341700410, "lat": 40.266829, "lon": 22.5976253}, {"type": "node", "id": 5341700411, "lat": 40.2668003, "lon": 22.5977567}, {"type": "node", "id": 5344607726, "lat": 40.2640381, "lon": 22.5966201}, {"type": "node", "id": 5344607727, "lat": 40.2640145, "lon": 22.5966}, {"type": "node", "id": 5344607728, "lat": 40.2640166, "lon": 22.5965652}, {"type": "node", "id": 5344607729, "lat": 40.2639736, "lon": 22.5965558}, {"type": "node", "id": 5344607730, "lat": 40.2639368, "lon": 22.5967261}, {"type": "node", "id": 5344607731, "lat": 40.2640053, "lon": 22.5967502}, {"type": "node", "id": 5351731035, "lat": 40.3069315, "lon": 22.6155411, "tags": {"amenity": "restaurant", "name": "Mnoymnoylina", "name:bg": "\u0422\u0430\u0432\u0435\u0440\u043d\u0430\u0442\u0430 \u043d\u0430 \u041a\u043e\u0441\u0442\u0430\u0441", "name:el": "Mnoymnoylina"}}, {"type": "node", "id": 5368746442, "lat": 40.2714219, "lon": 22.5099449, "tags": {"amenity": "cafe", "name": "BAKA"}}, {"type": "node", "id": 5404920322, "lat": 40.486213, "lon": 22.3208031, "tags": {"addr:city": "\u0392\u03b5\u03c1\u03b3\u03af\u03bd\u03b1", "amenity": "cafe", "name": "Fillipion", "outdoor_seating": "yes"}}, {"type": "node", "id": 5413301817, "lat": 40.2641369, "lon": 22.5017416, "tags": {"addr:city": "\u039a\u03b1\u03c4\u03b5\u03c1\u03af\u03bd\u03b7", "addr:housenumber": "25", "addr:postcode": "601 31", "addr:street": "\u039b\u03b9\u03c4\u03bf\u03c7\u03ce\u03c1\u03bf\u03c5", "amenity": "restaurant", "name": "\u03a4\u03bf \u03a1\u03b5\u03bc\u03c0\u03ad\u03c4\u03b9\u03ba\u03bf \u03c4\u03bf\u03c5 \u03a8\u03b5\u03af\u03c1\u03b1", "operator": "\u03a7\u03b1\u03ca\u03bb\u03b1\u03c4\u03b6\u03af\u03b4\u03b7\u03c2 \u0393\u03b5\u03ce\u03c1\u03b3\u03b9\u03bf\u03c2"}}, {"type": "node", "id": 5543026585, "lat": 40.2722031, "lon": 22.5127314, "tags": {"addr:city": "\u039a\u03b1\u03c4\u03b5\u03c1\u03af\u03bd\u03b7", "addr:housenumber": "31", "addr:postcode": "601 34", "addr:street": "\u0394\u03b7\u03bc\u03b7\u03c4\u03c1\u03af\u03bf\u03c5 \u039d\u03af\u03ba\u03b1", "amenity": "cafe", "name": "Amanthis"}}, {"type": "node", "id": 5549163466, "lat": 40.2693755, "lon": 22.5090328, "tags": {"addr:city": "\u039a\u03b1\u03c4\u03b5\u03c1\u03af\u03bd\u03b7", "addr:housenumber": "18", "addr:postcode": "601 32", "addr:street": "\u039c\u03b7\u03c4\u03c1\u03bf\u03c0\u03bf\u03bb\u03af\u03c4\u03bf\u03c5 \u039a\u03bf\u03ca\u03b4\u03ac\u03ba\u03b7", "amenity": "cafe", "name": "Chapel", "outdoor_seating": "yes"}}, {"type": "node", "id": 5580709704, "lat": 40.2695059, "lon": 22.510067, "tags": {"amenity": "cafe", "level": "0", "name": "Ethrion Basement", "outdoor_seating": "yes"}}, {"type": "node", "id": 5639817321, "lat": 40.5195902, "lon": 22.2039881, "tags": {"addr:street": "\u039c\u03c0\u03bf\u03c5\u03bc\u03c0\u03bf\u03c5\u03bb\u03af\u03bd\u03b1\u03c2", "amenity": "restaurant", "name": "Vergiotiko"}}, {"type": "node", "id": 5801848305, "lat": 40.2843281, "lon": 22.518813, "tags": {"addr:street": "\u039d\u03b9\u03ba\u03bf\u03bb\u03ac\u03bf\u03c5 \u03a0\u03bb\u03b1\u03c3\u03c4\u03ae\u03c1\u03b1", "amenity": "cafe", "name": "Barista", "source": "Kaart Ground Survey 2018"}}, {"type": "node", "id": 5802047329, "lat": 40.2830539, "lon": 22.5041265}, {"type": "node", "id": 5802047330, "lat": 40.2830806, "lon": 22.5041209}, {"type": "node", "id": 5802047331, "lat": 40.2830636, "lon": 22.5042051}, {"type": "node", "id": 5802047332, "lat": 40.2829634, "lon": 22.5042263}, {"type": "node", "id": 5802047333, "lat": 40.2829439, "lon": 22.5040676}, {"type": "node", "id": 5802047334, "lat": 40.2830707, "lon": 22.5040407}, {"type": "node", "id": 5802379890, "lat": 40.2808387, "lon": 22.4931136}, {"type": "node", "id": 5802379891, "lat": 40.2810235, "lon": 22.4931067}, {"type": "node", "id": 5802379892, "lat": 40.2809949, "lon": 22.4931979}, {"type": "node", "id": 5802379893, "lat": 40.2819064, "lon": 22.5008851, "tags": {"addr:street": "\u039d\u03b9\u03ba\u03bf\u03bb\u03ac\u03bf\u03c5 \u03a0\u03bb\u03b1\u03c3\u03c4\u03ae\u03c1\u03b1", "amenity": "cafe", "name": "City Likes Coffee", "source": "Kaart Ground Survey 2018"}}, {"type": "node", "id": 5802415978, "lat": 40.2787399, "lon": 22.5042258, "tags": {"addr:street": "\u03a3\u03c9\u03ba\u03c1\u03ac\u03c4\u03bf\u03c5\u03c2", "amenity": "cafe", "name": "Mojo Cafe", "source": "Kaart Ground Survey 2018"}}, {"type": "node", "id": 5814084453, "lat": 40.1054311, "lon": 22.5045802, "tags": {"amenity": "restaurant", "name:en": "Valsamico"}}, {"type": "node", "id": 5940938194, "lat": 40.1050445, "lon": 22.499504, "tags": {"amenity": "restaurant"}}, {"type": "node", "id": 6004231902, "lat": 40.2693114, "lon": 22.5091178, "tags": {"addr:city": "\u039a\u03b1\u03c4\u03b5\u03c1\u03af\u03bd\u03b7", "addr:housenumber": "18", "addr:postcode": "601 32", "addr:street": "\u039c\u03b7\u03c4\u03c1\u03bf\u03c0\u03bf\u03bb\u03af\u03c4\u03bf\u03c5 \u039a\u03bf\u03ca\u03b4\u03ac\u03ba\u03b7", "amenity": "cafe", "name": "Giardino"}}, {"type": "node", "id": 6352026585, "lat": 40.5243348, "lon": 22.2052016, "tags": {"addr:city": "\u0392\u03ad\u03c1\u03bf\u03b9\u03b1", "addr:postcode": "591 00", "addr:street": "\u039a\u03b1\u03c1\u03b1\u03ba\u03c9\u03c3\u03c4\u03ae", "amenity": "cafe", "name": "\u039a\u03b1\u03c6\u03ad \u0392\u03ac\u03c4\u03c1\u03b1\u03c7\u03bf\u03c2", "name:el": "\u039a\u03b1\u03c6\u03ad \u0392\u03ac\u03c4\u03c1\u03b1\u03c7\u03bf\u03c2", "name:en": "Cafeteria Vatrachos", "outdoor_seating": "yes"}}, {"type": "node", "id": 6360191785, "lat": 40.5222701, "lon": 22.2043199, "tags": {"addr:housenumber": "21", "addr:postcode": "59132", "addr:street": "\u0391\u03b3\u03b3\u03ad\u03bb\u03c9\u03bd", "amenity": "restaurant", "cuisine": "fish", "name": "\u0391\u03b3\u03b3\u03ad\u03bb\u03c9\u03bd", "name:el": "\u0391\u03b3\u03b3\u03ad\u03bb\u03c9\u03bd", "name:en": "Angelicon Meze", "opening_hours": "Mo-Su 09:00-24:00", "phone": "+302331027705"}}, {"type": "node", "id": 6378876678, "lat": 40.5227698, "lon": 22.2003553, "tags": {"amenity": "restaurant", "name": "12 Grada"}}, {"type": "node", "id": 6616006583, "lat": 40.2732746, "lon": 22.501665, "tags": {"amenity": "restaurant", "cuisine": "pizza"}}, {"type": "node", "id": 6630851401, "lat": 40.1051473, "lon": 22.5027547, "tags": {"amenity": "cafe", "brand": "Mikel", "brand:wikidata": "Q16952021", "cuisine": "coffee_shop", "name": "Mikel", "takeaway": "yes"}}, {"type": "node", "id": 6630851402, "lat": 40.1052019, "lon": 22.5025508, "tags": {"amenity": "cafe", "brand": "Coffee Island", "brand:wikidata": "Q60867333", "cuisine": "coffee_shop", "name": "Coffee Island", "takeaway": "yes"}}, {"type": "node", "id": 6731970310, "lat": 40.3114699, "lon": 22.2564806, "tags": {"amenity": "restaurant"}}, {"type": "node", "id": 6749946800, "lat": 40.2857778, "lon": 22.6060366, "tags": {"amenity": "restaurant"}}, {"type": "node", "id": 6758754409, "lat": 40.2769924, "lon": 22.6015262}, {"type": "node", "id": 6758754410, "lat": 40.2770753, "lon": 22.6019879}, {"type": "node", "id": 6758754415, "lat": 40.2768971, "lon": 22.6019123}, {"type": "node", "id": 6758754472, "lat": 40.2771706, "lon": 22.6016018}, {"type": "node", "id": 6759160633, "lat": 40.2388547, "lon": 22.587831, "tags": {"amenity": "restaurant", "cuisine": "fish", "name": "\u03a0\u03b5\u03c1\u03b9\u03b3\u03b9\u03ac\u03bb\u03b9"}}, {"type": "node", "id": 6759160655, "lat": 40.2390411, "lon": 22.5873294, "tags": {"amenity": "cafe", "cuisine": "ice_cream", "name": "Chillbox"}}, {"type": "node", "id": 6781647785, "lat": 40.1055681, "lon": 22.5053928, "tags": {"amenity": "restaurant", "cuisine": "greek", "internet_access": "wlan", "name": "Melia"}}, {"type": "node", "id": 6797421185, "lat": 40.2646512, "lon": 22.5967517, "tags": {"addr:city": "\u03a0\u03b1\u03c1\u03b1\u03bb\u03af\u03b1", "addr:housenumber": "37", "addr:postcode": "601 50", "addr:street": "\u0391\u03b3\u03af\u03bf\u03c5 \u039d\u03b9\u03ba\u03bf\u03bb\u03ac\u03bf\u03c5", "amenity": "restaurant", "cuisine": "fish;greek", "internet_access": "wlan", "name": "\u039c\u03ad\u03b3\u03ba\u03b1\u03c2 \u03a8\u03b1\u03c1\u03bf\u03c4\u03b1\u03b2\u03ad\u03c1\u03bd\u03b1", "name:el": "\u039c\u03ad\u03b3\u03ba\u03b1\u03c2 \u03a8\u03b1\u03c1\u03bf\u03c4\u03b1\u03b2\u03ad\u03c1\u03bd\u03b1", "name:en": "Megkas Tavern", "phone": "+306946515551"}}, {"type": "node", "id": 6800545085, "lat": 40.2682324, "lon": 22.5979585, "tags": {"addr:city": "\u03a0\u03b1\u03c1\u03b1\u03bb\u03af\u03b1 \u039a\u03b1\u03c4\u03b5\u03c1\u03af\u03bd\u03b7\u03c2", "addr:housenumber": "11", "addr:postcode": "601 50", "addr:street": "\u03a3\u03c4\u03c1\u03b1\u03c4\u03bf\u03cd", "amenity": "restaurant", "cuisine": "greek", "name": "\u03a3\u03c4\u03c1\u03bf\u03cd\u03b3\u03b1", "name:el": "\u03a3\u03c4\u03c1\u03bf\u03cd\u03b3\u03b1", "name:en": "Struga", "phone": "+302351062459"}}, {"type": "node", "id": 6806503385, "lat": 40.3072796, "lon": 22.6156405, "tags": {"addr:postcode": "60062", "addr:street": "\u03a0\u03b1\u03c1\u03b1\u03bb\u03af\u03b1", "amenity": "restaurant", "cuisine": "fish;greek", "name": "\u03a0\u03bf\u03bb\u03cd\u03b6\u03bf\u03c2", "name:el": "\u03a0\u03bf\u03bb\u03cd\u03b6\u03bf\u03c2", "name:en": "Polyzos Tavern", "phone": "+302351041370"}}, {"type": "node", "id": 7072590086, "lat": 40.1029802, "lon": 22.5635876, "tags": {"amenity": "cafe", "name:en": "CAVO DIMO"}}, {"type": "node", "id": 7072771390, "lat": 40.156183, "lon": 22.5458281, "tags": {"addr:street": "\u0394\u03af\u03bf\u03bd - \u039b\u03b9\u03bc\u03ad\u03bd\u03b1\u03c2 \u039b\u03b9\u03c4\u03bf\u03c7\u03ce\u03c1\u03bf\u03c5", "amenity": "restaurant", "cuisine": "greek;seafood;fish", "name": "\u039f\u03a3\u03a4\u03a1\u0399\u0391", "opening_hours": "Mo-Su 12:00-00:00", "phone": "2352 083230"}}, {"type": "node", "id": 7074272285, "lat": 40.1056482, "lon": 22.5058717, "tags": {"addr:housenumber": "56", "addr:postcode": "60200", "addr:street": "\u0391\u03b3\u03af\u03bf\u03c5 \u039d\u03b9\u03ba\u03bf\u03bb\u03ac\u03bf\u03c5", "amenity": "cafe", "internet_access": "wlan", "name:en": "KENZO cafe bar", "opening_hours": "Mo-Su 09:00-00:00"}}, {"type": "node", "id": 7074272286, "lat": 40.1056367, "lon": 22.505787, "tags": {"addr:housenumber": "32", "addr:postcode": "60200", "addr:street": "\u0391\u03b3\u03af\u03bf\u03c5 \u039d\u03b9\u03ba\u03bf\u03bb\u03ac\u03bf\u03c5", "amenity": "restaurant", "cuisine": "grill", "name": "\u0391\u03bc\u03b2\u03c1\u03bf\u03c3\u03b9\u03b1", "name:el": "\u0391\u03bc\u03b2\u03c1\u03bf\u03c3\u03b9\u03b1", "name:en": "Ambrosia", "phone": "2352081086"}}, {"type": "node", "id": 7087993085, "lat": 40.1054087, "lon": 22.502492, "tags": {"addr:street": "\u03a0\u03b1\u03c1\u03b8\u03b5\u03bd\u03b9\u03bf\u03c5 \u0392\u03b1\u03c1\u03b4\u03b1\u03ba\u03b1", "amenity": "restaurant", "cuisine": "grill;mediterranean", "internet_access": "wlan", "name": "\u039c\u03b5\u03b6\u03b5\u03b4\u03b5\u03ba\u03b9\u03b1", "name:el": "\u03a4\u03b1 \u039c\u03b5\u03b6\u03b5\u03b4\u03b5\u03ba\u03b9\u03b1", "opening_hours": "Mo-Su 12:00-00:00", "phone": "2352 084574"}}, {"type": "node", "id": 7247211028, "lat": 40.2795539, "lon": 22.5013326, "tags": {"addr:city": "\u039a\u03b1\u03c4\u03b5\u03c1\u03af\u03bd\u03b7", "addr:housenumber": "19", "addr:postcode": "601 33", "addr:street": "\u03a6\u03b1\u03c1\u03bc\u03ac\u03ba\u03b7", "amenity": "restaurant", "name": "\u039f \u03b4\u03b9\u03ba\u03cc\u03c2 \u03bc\u03b1\u03c2 \u03c6\u03ac\u03c1\u03bf\u03c2", "phone": "+30 2351 073885"}}, {"type": "node", "id": 7247317379, "lat": 40.2770778, "lon": 22.505311, "tags": {"addr:city": "\u039a\u03b1\u03c4\u03b5\u03c1\u03af\u03bd\u03b7", "addr:housenumber": "6", "addr:postcode": "601 33", "addr:street": "\u03a0\u03bb\u03b1\u03c4\u03b5\u03af\u03b1 \u0391\u03b9\u03bc\u03b9\u03bb\u03af\u03bf\u03c5 \u039e\u03b1\u03bd\u03b8\u03bf\u03c0\u03bf\u03cd\u03bb\u03bf\u03c5", "amenity": "restaurant", "cuisine": "mediterranean", "name": "Al Dente Delivery", "operator": "\u03a3\u03bc\u03c5\u03c1\u03bb\u03ae\u03c2 \u0391\u03bb\u03ad\u03be\u03b7\u03c2", "phone": "+30 2351 020010"}}, {"type": "node", "id": 7250386056, "lat": 40.2682554, "lon": 22.5082973, "tags": {"addr:city": "\u039a\u03b1\u03c4\u03b5\u03c1\u03af\u03bd\u03b7", "addr:housenumber": "7", "addr:postcode": "601 32", "addr:street": "\u0391\u03b3\u03af\u03b1\u03c2 \u03a0\u03b1\u03c1\u03b1\u03c3\u03ba\u03b5\u03c5\u03ae\u03c2", "amenity": "restaurant", "name": "\u03a4\u03bf \u03bb\u03c5\u03c7\u03bd\u03ac\u03c1\u03b9", "phone": "+30 2351 037337"}}, {"type": "node", "id": 7250455616, "lat": 40.2707904, "lon": 22.5082094, "tags": {"addr:city": "\u039a\u03b1\u03c4\u03b5\u03c1\u03af\u03bd\u03b7", "addr:housenumber": "1", "addr:postcode": "601 32", "addr:street": "\u0391\u0384 \u03a0\u03ac\u03c1\u03bf\u03b4\u03bf\u03c2 \u0393\u03b5\u03c9\u03c1\u03b3\u03ac\u03ba\u03b7 \u039f\u03bb\u03c5\u03bc\u03c0\u03af\u03bf\u03c5", "amenity": "cafe", "name": "\u039c\u03c0\u03ac\u03c1\u03bc\u03c0\u03b1 \u03a3\u03c0\u03cd\u03c1\u03bf\u03c2"}}, {"type": "node", "id": 7803912849, "lat": 40.1850419, "lon": 22.5575036, "tags": {"amenity": "restaurant", "cuisine": "seafood;greek", "name": "\u03a8\u03b1\u03c1\u03bf\u03c4\u03b1\u03b2\u03ad\u03c1\u03bd\u03b1 \"\u0395\u03bb\u03bb\u03b7\u03bd\u03b9\u03ba\u03cc\u03bd\"", "name:el": "\u03a8\u03b1\u03c1\u03bf\u03c4\u03b1\u03b2\u03ad\u03c1\u03bd\u03b1 \"\u0395\u03bb\u03bb\u03b7\u03bd\u03b9\u03ba\u03cc\u03bd\"", "name:en": "\"ELLINIKON\" fish tavern", "phone": "+302352061365"}}, {"type": "node", "id": 8524424051, "lat": 40.2392698, "lon": 22.584539, "tags": {"amenity": "restaurant", "name": "50-50"}}, {"type": "node", "id": 8777895177, "lat": 40.2699111, "lon": 22.5989713}, {"type": "node", "id": 8777895178, "lat": 40.2699196, "lon": 22.598947}, {"type": "node", "id": 8777895179, "lat": 40.2698827, "lon": 22.5989246}, {"type": "node", "id": 8960592417, "lat": 40.5246073, "lon": 22.2026994, "tags": {"amenity": "restaurant", "name": "Bistrot 49", "name:en": "Bistrot 49"}}, {"type": "node", "id": 9221335841, "lat": 40.2680885, "lon": 22.5141379, "tags": {"addr:city": "\u039a\u03b1\u03c4\u03b5\u03c1\u03af\u03bd\u03b7", "addr:housenumber": "51", "addr:postcode": "601 32", "addr:street": "25\u03b7\u03c2 \u039c\u03b1\u03c1\u03c4\u03af\u03bf\u03c5", "amenity": "cafe", "name": "Kyclos"}}, {"type": "node", "id": 9416764293, "lat": 40.3190137, "lon": 22.2633352, "tags": {"amenity": "restaurant", "cuisine": "burger;kebab;ice_cream;greek", "diet:meat": "yes", "name": "\u039f \u0396\u03ae\u03ba\u03bf\u03c2"}}, {"type": "node", "id": 9416764297, "lat": 40.3195398, "lon": 22.2673208, "tags": {"amenity": "restaurant", "cuisine": "regional", "name": "\u03a4\u03bf \u039a\u03b1\u03c1\u03b1\u03bf\u03cd\u03bb\u03b9", "phone": "+302351082174"}}, {"type": "node", "id": 9416764298, "lat": 40.3195665, "lon": 22.2655696, "tags": {"amenity": "cafe", "name": "\u038a\u03c4\u03b1\u03bc\u03bf\u03c2", "outdoor_seating": "yes", "phone": "+302351082942"}}, {"type": "node", "id": 9416764300, "lat": 40.3197, "lon": 22.2636525, "tags": {"amenity": "restaurant", "name": "\u039f \u03a4\u03ac\u03ba\u03bf\u03c2", "phone": "+30 2351 082912"}}, {"type": "node", "id": 9416764303, "lat": 40.3185681, "lon": 22.2619778, "tags": {"amenity": "restaurant", "cuisine": "kebab;regional", "name": "\u03a4\u03bf \u0391\u03b3\u03bd\u03ac\u03bd\u03c4\u03b9", "phone": "+30 2351082790"}}, {"type": "node", "id": 9416764305, "lat": 40.318709, "lon": 22.2591052, "tags": {"addr:street": "\u03a0\u03c1\u03cc\u03c2 \u03a7\u03b9\u03bf\u03bd\u03bf\u03b4\u03c1\u03bf\u03bc\u03b9\u03ba\u03cc \u039a\u03ad\u03bd\u03c4\u03c1\u03bf", "amenity": "cafe", "cuisine": "pizza;coffee_shop;ice_cream", "name": "\u0391\u03bd\u03b4\u03c1\u03bf\u03bc\u03ad\u03b4\u03b1+", "opening_hours": "10:00-03:00", "phone": "+30 697 244 2966"}}, {"type": "node", "id": 9550839720, "lat": 40.5242002, "lon": 22.2147022}, {"type": "node", "id": 9550839721, "lat": 40.5240797, "lon": 22.214651}, {"type": "node", "id": 9550839722, "lat": 40.5240577, "lon": 22.2147319}, {"type": "node", "id": 9550839723, "lat": 40.5241808, "lon": 22.2147844}, {"type": "node", "id": 9811264242, "lat": 40.1509762, "lon": 22.5455274}, {"type": "node", "id": 9811264243, "lat": 40.1508368, "lon": 22.545754}, {"type": "node", "id": 9811264244, "lat": 40.1509485, "lon": 22.5458814}, {"type": "node", "id": 9811264245, "lat": 40.1509783, "lon": 22.546041}, {"type": "node", "id": 9811264246, "lat": 40.1512007, "lon": 22.5459445}, {"type": "node", "id": 9811264247, "lat": 40.1511351, "lon": 22.5457044}, {"type": "node", "id": 9857858717, "lat": 40.1020255, "lon": 22.5637072, "tags": {"amenity": "restaurant", "cuisine": "seafood", "name": "\u0393\u03bb\u03ac\u03c1\u03bfs", "name:el": "\u0393\u03bb\u03ac\u03c1\u03bfs", "name:en": "Glaros"}}, {"type": "node", "id": 9915254856, "lat": 40.2498445, "lon": 22.5914041}, {"type": "node", "id": 9915254857, "lat": 40.2497572, "lon": 22.591734}, {"type": "node", "id": 9915254858, "lat": 40.2494645, "lon": 22.5916136}, {"type": "node", "id": 9915254859, "lat": 40.2495435, "lon": 22.5912754}, {"type": "node", "id": 9915254862, "lat": 40.2494995, "lon": 22.5916284}, {"type": "node", "id": 9923932183, "lat": 40.2676587, "lon": 22.4973975, "tags": {"addr:city": "\u039a\u03b1\u03c4\u03b5\u03c1\u03af\u03bd\u03b7", "addr:housenumber": "2", "addr:postcode": "601 31", "addr:street": "\u0398\u03b5\u03bf\u03c6\u03af\u03bb\u03bf\u03c5 \u039a\u03b1\u0390\u03c1\u03b7", "amenity": "cafe", "name": "Coffee Idol", "opening_hours": "Mo-Su 06:30-20:30", "outdoor_seating": "yes", "phone": "+30 2351 030999"}}, {"type": "node", "id": 9923932186, "lat": 40.2715157, "lon": 22.4989213, "tags": {"amenity": "cafe", "name": "Ekavi Lounge Bar", "name:el": "\u0395\u03ba\u03ac\u03b2\u03b7 Lounge Bar", "opening_hours": "Mo-Su 10:00-01:00"}}, {"type": "node", "id": 9998924108, "lat": 40.1863801, "lon": 22.5648034, "tags": {"amenity": "restaurant", "outdoor_seating": "yes"}}, {"type": "node", "id": 10048621969, "lat": 40.4880146, "lon": 22.2135225, "tags": {"addr:city": "\u03a1\u03ac\u03c7\u03b7", "amenity": "restaurant", "name": "\u03a4\u03bf \u03a0\u03b1\u03bb\u03b9\u03cc \u03a0\u03bf\u03b4\u03ae\u03bb\u03b1\u03c4\u03bf"}}, {"type": "node", "id": 10054255841, "lat": 40.1196483, "lon": 22.5547985, "tags": {"amenity": "restaurant", "name": "Heleon", "website": "https://www.instagram.com/heleon_events/", "wheelchair": "limited"}}, {"type": "node", "id": 10279363774, "lat": 40.1060262, "lon": 22.5077069, "tags": {"addr:city": "\u039b\u03b9\u03c4\u03cc\u03c7\u03c9\u03c1\u03bf", "addr:housenumber": "19", "addr:postcode": "60200", "addr:street": "\u0391\u03b3\u03af\u03bf\u03c5 \u039d\u03b9\u03ba\u03bf\u03bb\u03ac\u03bf\u03c5", "amenity": "cafe", "internet_access": "wlan", "internet_access:fee": "no", "name": "Mple Factory Coffees & Drinks", "name:el": "\u039c\u03c0\u03bb\u03b5 \u039a\u03b1\u03c6\u03ad", "outdoor_seating": "yes", "phone": "+30 2352 021228"}}, {"type": "node", "id": 10870179422, "lat": 40.4149099, "lon": 22.6108223, "tags": {"amenity": "restaurant", "contact:facebook": "https://www.facebook.com/psarotavernaakrogiali/", "contact:phone": "+30 2353 041205", "name": "\u03a8\u03b1\u03c1\u03bf\u03c4\u03b1\u03b2\u03ad\u03c1\u03bd\u03b1 \u0391\u03ba\u03c1\u03bf\u03b3\u03b9\u03ac\u03bb\u03b9", "name:el": "\u03a8\u03b1\u03c1\u03bf\u03c4\u03b1\u03b2\u03ad\u03c1\u03bd\u03b1 \u0391\u03ba\u03c1\u03bf\u03b3\u03b9\u03ac\u03bb\u03b9", "name:en": "Psarotaverna Akrogiali"}}, {"type": "node", "id": 11081068288, "lat": 40.5217159, "lon": 22.2059552, "tags": {"amenity": "restaurant", "cuisine": "regional", "name": "Black Sheep", "website": "http://mavroprovatoveria.gr/"}}, {"type": "node", "id": 11218003278, "lat": 40.2619507, "lon": 22.5948707, "tags": {"addr:housenumber": "48", "addr:street": "\u039f\u03bb\u03cd\u03bc\u03c0\u03bf\u03c5", "amenity": "restaurant", "check_date": "2023-09-25", "cuisine": "greek", "internet_access": "wlan", "internet_access:fee": "customers", "name": "\u039c\u03c0\u03b1\u03bc\u03c0\u03b7\u03c2 & \u039c\u03c0\u03b1\u03bc\u03c0\u03b7\u03c2", "name:el": "\u039c\u03c0\u03b1\u03bc\u03c0\u03b7\u03c2 & \u039c\u03c0\u03b1\u03bc\u03c0\u03b7\u03c2", "name:en": "Babis & Babis", "name:ru": "\u0412\u0430\u0432\u0438\u0441 \u0438 \u0412\u0430\u0432\u0438\u0441", "payment:mastercard": "yes", "payment:visa": "yes", "phone": "+30 2351 064405"}}, {"type": "node", "id": 11371662667, "lat": 40.1021623, "lon": 22.5620481}, {"type": "node", "id": 11371662668, "lat": 40.1020413, "lon": 22.5619703}, {"type": "node", "id": 11371675869, "lat": 40.1020037, "lon": 22.5620703}, {"type": "node", "id": 11371675870, "lat": 40.1021247, "lon": 22.5621481}, {"type": "node", "id": 11374092598, "lat": 40.1707474, "lon": 22.4865849, "tags": {"amenity": "restaurant"}}, {"type": "node", "id": 11374092599, "lat": 40.170775, "lon": 22.4868894, "tags": {"amenity": "restaurant"}}, {"type": "node", "id": 11374092600, "lat": 40.1708524, "lon": 22.4871542, "tags": {"amenity": "restaurant"}}, {"type": "node", "id": 11483383809, "lat": 40.2678196, "lon": 22.5253213, "tags": {"amenity": "cafe", "brand": "Mikel", "brand:wikidata": "Q16952021", "cuisine": "coffee_shop", "name": "Mikel", "takeaway": "yes"}}, {"type": "node", "id": 11536735726, "lat": 40.5004364, "lon": 22.5447713, "tags": {"amenity": "cafe", "craft": "confectionery"}}, {"type": "node", "id": 11576141686, "lat": 40.2741529, "lon": 22.5213822, "tags": {"amenity": "cafe", "name": "Mooven"}}, {"type": "node", "id": 11693586780, "lat": 40.2711614, "lon": 22.5988373, "tags": {"amenity": "restaurant", "name": "\u039c\u03c0\u03b9\u03bd\u03b5\u03bb\u03af\u03ba\u03b9\u03b1"}}, {"type": "node", "id": 11693586786, "lat": 40.2682877, "lon": 22.5982286, "tags": {"addr:city": "\u03a0\u03b1\u03c1\u03b1\u03bb\u03af\u03b1 \u039a\u03b1\u03c4\u03b5\u03c1\u03af\u03bd\u03b7\u03c2", "amenity": "restaurant", "cuisine": "fish;greek", "name": "\u0393\u0399\u039f\u03a5\u03a1\u0391\u03a3"}}, {"type": "node", "id": 11693645586, "lat": 40.2685706, "lon": 22.5983132, "tags": {"addr:city": "\u03a0\u03b1\u03c1\u03b1\u03bb\u03af\u03b1 \u039a\u03b1\u03c4\u03b5\u03c1\u03af\u03bd\u03b7\u03c2", "amenity": "restaurant", "cuisine": "fish;greek", "name": "\u039a\u039f\u03a5\u039a\u039b\u0397\u03a3"}}, {"type": "node", "id": 11693645592, "lat": 40.2703562, "lon": 22.5970515, "tags": {"amenity": "cafe", "name": "Cafe Posto Paralia"}}, {"type": "node", "id": 11693645603, "lat": 40.2675495, "lon": 22.5964153, "tags": {"amenity": "cafe", "name": "Fresh day"}}, {"type": "node", "id": 11812006356, "lat": 40.2646173, "lon": 22.514215, "tags": {"addr:city": "\u039a\u03b1\u03c4\u03b5\u03c1\u03af\u03bd\u03b7", "addr:housenumber": "15", "addr:postcode": "601 32", "addr:street": "\u0391\u03b3\u03c1\u03ac\u03c6\u03c9\u03bd", "amenity": "cafe", "name": "\u039c\u03c0\u03c1\u03af\u03ba\u03b9"}}, {"type": "node", "id": 11873618246, "lat": 40.2589184, "lon": 22.5093788, "tags": {"amenity": "cafe", "drive_through": "yes", "name": "Street Caf\u00e9 Drive-Thru", "outdoor_seating": "yes"}}, {"type": "node", "id": 11881791893, "lat": 40.5021629, "lon": 22.542213, "tags": {"amenity": "cafe", "cuisine": "coffee_shop"}}, {"type": "node", "id": 11948008646, "lat": 40.4858095, "lon": 22.3179157, "tags": {"amenity": "restaurant", "cuisine": "greek", "indoor_seating": "yes", "name": "Vergina The Royal Spot", "outdoor_seating": "yes"}}, {"type": "node", "id": 11948047408, "lat": 40.4860849, "lon": 22.3176842, "tags": {"amenity": "restaurant", "indoor_seating": "yes", "outdoor_seating": "yes"}}, {"type": "node", "id": 11955268387, "lat": 40.478688, "lon": 22.4855673, "tags": {"amenity": "cafe"}}, {"type": "node", "id": 11955268388, "lat": 40.4784278, "lon": 22.4851596, "tags": {"amenity": "cafe"}}, {"type": "node", "id": 11955268389, "lat": 40.4786441, "lon": 22.4853916, "tags": {"amenity": "cafe"}}, {"type": "node", "id": 11955306691, "lat": 40.4665848, "lon": 22.5421091, "tags": {"amenity": "cafe"}}, {"type": "node", "id": 11955395410, "lat": 40.4564733, "lon": 22.5872166, "tags": {"amenity": "restaurant"}}, {"type": "node", "id": 12051849686, "lat": 40.2645647, "lon": 22.5115553}, {"type": "node", "id": 12051849687, "lat": 40.2646441, "lon": 22.5116634}, {"type": "node", "id": 12051849688, "lat": 40.2645868, "lon": 22.5117357}, {"type": "node", "id": 12051849689, "lat": 40.2645074, "lon": 22.5116275}, {"type": "node", "id": 12051849690, "lat": 40.2645603, "lon": 22.5115608}, {"type": "node", "id": 12051849691, "lat": 40.2645106, "lon": 22.5116235}, {"type": "node", "id": 12110604960, "lat": 40.1527117, "lon": 22.5471054, "tags": {"amenity": "restaurant", "cuisine": "greek", "name": "\u0399\u03c0\u03c0\u03cc\u03ba\u03b1\u03bc\u03c0\u03bf\u03c2", "wheelchair": "limited"}}, {"type": "node", "id": 12155656101, "lat": 40.1056202, "lon": 22.5056312, "tags": {"amenity": "restaurant", "contact:instagram": "Olympusgitema", "cuisine": "greek", "name": "Olympus \u0393\u03ae\u03c4\u03b5\u03bc\u03b1", "phone": "2352021525"}}, {"type": "node", "id": 12188069078, "lat": 40.4858685, "lon": 22.3203801, "tags": {"air_conditioning": "yes", "amenity": "restaurant", "cuisine": "greek;coffee_shop", "diet:vegan": "no", "diet:vegetarian": "yes", "name": "\u0393\u03c9\u03bd\u03af\u03b1 \u0395\u03bb\u03b9\u03ac", "payment:credit_cards": "yes", "payment:debit_cards": "yes", "smoking": "outside", "wheelchair": "limited"}}, {"type": "node", "id": 12211135802, "lat": 40.2762356, "lon": 22.5968922, "tags": {"amenity": "cafe", "diet:vegan": "yes", "diet:vegetarian": "yes", "indoor_seating": "no", "name": "By The Pool - cafe-bar restaurant", "outdoor_seating": "yes"}}, {"type": "node", "id": 12216034101, "lat": 40.2655242, "lon": 22.5961878, "tags": {"amenity": "restaurant", "cuisine": "greek;steak_house", "name": "Jordan's Place - Steak House"}}, {"type": "node", "id": 12216047001, "lat": 40.2669313, "lon": 22.5973407, "tags": {"amenity": "cafe", "name": "La Platea"}}, {"type": "node", "id": 12222730702, "lat": 40.2700144, "lon": 22.598527, "tags": {"amenity": "restaurant", "cuisine": "italian_pizza;pizza", "name": "Burrata - The Pizza Company"}}, {"type": "node", "id": 12222810801, "lat": 40.2648679, "lon": 22.5968739, "tags": {"amenity": "restaurant", "cuisine": "greek", "name": "Ilias food"}}, {"type": "node", "id": 12225031201, "lat": 40.2691161, "lon": 22.5973768, "tags": {"amenity": "restaurant", "cuisine": "greek", "name": "Golden Chicken"}}, {"type": "node", "id": 12369893948, "lat": 40.2700331, "lon": 22.5272205, "tags": {"addr:city": "\u039a\u03b1\u03c4\u03b5\u03c1\u03af\u03bd\u03b7", "addr:housenumber": "57", "addr:postcode": "601 34", "addr:street": "\u039b\u03b5\u03c9\u03bd\u03af\u03b4\u03b1 \u0399\u03b1\u03c3\u03c9\u03bd\u03af\u03b4\u03b7", "amenity": "cafe", "name": "Sth Caf\u00e9", "operator": "\u0393\u03c1\u03b7\u03b3\u03bf\u03c1\u03b9\u03ac\u03b4\u03b7\u03c2 \u03a0\u03bf\u03bb\u03c5\u03c7\u03c1\u03cc\u03bd\u03b7\u03c2"}}, {"type": "node", "id": 12435523605, "lat": 40.2717095, "lon": 22.5031936, "tags": {"addr:city": "\u039a\u03b1\u03c4\u03b5\u03c1\u03af\u03bd\u03b7", "addr:housenumber": "58", "addr:postcode": "601 33", "addr:street": "\u039c\u03b5\u03b3\u03ac\u03bb\u03bf\u03c5 \u0391\u03bb\u03b5\u03be\u03ac\u03bd\u03b4\u03c1\u03bf\u03c5", "amenity": "cafe", "name": "The Coffee Road"}}, {"type": "node", "id": 12439698366, "lat": 40.5228311, "lon": 22.2056107, "tags": {"addr:city": "\u0392\u03ad\u03c1\u03bf\u03b9\u03b1", "addr:housenumber": "14", "addr:street": "\u039a\u03bf\u03bd\u03c4\u03bf\u03b3\u03b5\u03c9\u03c1\u03b3\u03ac\u03ba\u03b7", "amenity": "cafe", "name": "Coffee World", "opening_hours": "Mo-Fr 08:00-16:30", "phone": "+302331064811", "website": "https://coffee-world.coffee/"}}, {"type": "node", "id": 12488230345, "lat": 40.4859148, "lon": 22.3207463, "tags": {"amenity": "restaurant", "outdoor_seating": "yes"}}, {"type": "node", "id": 12490258992, "lat": 40.1067164, "lon": 22.5602, "tags": {"amenity": "restaurant", "cuisine": "mediterranean", "diet:vegan": "yes", "name": "Nero", "website": "https://www.cavoolympo.gr/el/nero-restaurant"}}, {"type": "node", "id": 12541463967, "lat": 40.2692537, "lon": 22.5214055, "tags": {"addr:city": "\u039a\u03b1\u03c4\u03b5\u03c1\u03af\u03bd\u03b7", "addr:housenumber": "2", "addr:postcode": "601 34", "addr:street": "\u0399\u03c3\u03bf\u03ba\u03c1\u03ac\u03c4\u03bf\u03c5\u03c2", "amenity": "cafe", "name": "My Coffee Quality & Premium"}}, {"type": "node", "id": 12846527541, "lat": 40.4570393, "lon": 22.5868926}, {"type": "node", "id": 12846527542, "lat": 40.456905, "lon": 22.5868402}, {"type": "node", "id": 12846527543, "lat": 40.4569557, "lon": 22.5869559}, {"type": "node", "id": 12846527544, "lat": 40.4569886, "lon": 22.5867769}, {"type": "way", "id": 532481952, "nodes": [5167011455, 5167011459, 5167011460, 5167011456, 5167011457, 5167011462, 5167011461, 5167011458, 5167011455], "tags": {"amenity": "cafe", "building": "yes", "building:levels": "1", "description": "\u039a\u03c5\u03bb\u03b9\u03ba\u03b5\u03af\u03bf \u03c4\u03bf\u03c5 \u039a\u03bf\u03b9\u03bd\u03c9\u03bd\u03b9\u03ba\u03bf\u03cd \u03a3\u03c5\u03bd\u03b5\u03c4\u03b1\u03b9\u03c1\u03b9\u03c3\u03bc\u03bf\u03cd \u03a0\u03b5\u03c1\u03b9\u03bf\u03c1\u03b9\u03c3\u03bc\u03ad\u03bd\u03b7\u03c2 \u0395\u03c5\u03b8\u03cd\u03bd\u03b7\u03c2 \u03a4\u03bf\u03bc\u03ad\u03b1 \u03a8\u03c5\u03c7\u03b9\u03ba\u03ae\u03c2 \u03a5\u03b3\u03b5\u03af\u03b1\u03c2 \u039d. \u03a0\u03b9\u03b5\u03c1\u03af\u03b1\u03c2", "name": "\u039a\u03c5\u03bb\u03b9\u03ba\u03b5\u03af\u03bf \u039a\u03bf\u03b9\u03a3\u03a0\u0395"}}, {"type": "way", "id": 553243301, "nodes": [5340643624, 5340643625, 8777895179, 8777895178, 8777895177, 5340643626, 5340643624], "tags": {"amenity": "cafe", "building": "yes", "name": "Menta"}}, {"type": "way", "id": 553369827, "nodes": [5341700407, 5341700408, 5341700409, 5341700410, 5341700411, 5341700406, 5341700405, 5341700404, 5341700407], "tags": {"amenity": "cafe", "building": "yes", "name": "Sofrano Caffee", "smoking": "yes"}}, {"type": "way", "id": 553719143, "nodes": [5344607726, 5344607727, 5344607728, 5344607729, 5344607730, 5344607731, 5344607726], "tags": {"amenity": "cafe", "building": "yes"}}, {"type": "way", "id": 613097497, "nodes": [5802047334, 5802047330, 5802047329, 5802047331, 5802047332, 5802047333, 5802047334], "tags": {"addr:street": "\u039d\u03b9\u03ba\u03bf\u03bb\u03ac\u03bf\u03c5 \u03a0\u03bb\u03b1\u03c3\u03c4\u03ae\u03c1\u03b1", "amenity": "cafe", "building": "yes", "cuisine": "coffee_shop", "name": "KA & E Quick Snacks", "source": "Kaart Ground Survey 2018"}}, {"type": "way", "id": 613141825, "nodes": [5802379892, 5802379890, 5073588800, 5802379891, 5802379892], "tags": {"addr:city": "\u039a\u03b1\u03c4\u03b5\u03c1\u03af\u03bd\u03b7", "addr:housenumber": "88", "addr:postcode": "601 33", "addr:street": "\u03a6\u03b1\u03c1\u03bc\u03ac\u03ba\u03b7", "amenity": "cafe", "building": "yes", "name": "Coffee Garden", "operator": "\u039a\u03b1\u03c1\u03b1\u03b3\u03ba\u03bf\u03cd\u03bd\u03b7\u03c2 \u0391\u03b8\u03b1\u03bd\u03ac\u03c3\u03b9\u03bf\u03c2", "source": "Kaart Ground Survey 2018"}}, {"type": "way", "id": 720119367, "nodes": [6758754409, 6758754415, 6758754410, 6758754472, 6758754409], "tags": {"amenity": "cafe", "indoor_seating": "yes", "outdoor_seating": "yes"}}, {"type": "way", "id": 1036690319, "nodes": [9550839720, 9550839721, 9550839722, 9550839723, 9550839720], "tags": {"amenity": "cafe", "building": "train_station", "description": "\u03a3\u03b9\u03b4\u03b7\u03c1\u03bf\u03b4\u03c1\u03bf\u03bc\u03b9\u03ba\u03ae \u03b3\u03c1\u03b1\u03bc\u03bc\u03ae \u039a\u03b1\u03bb\u03b1\u03bc\u03c0\u03ac\u03ba\u03b1\u03c2 - \u039a\u03bf\u03b6\u03ac\u03bd\u03b7\u03c2 - \u0392\u03ad\u03c1\u03bf\u03b9\u03b1\u03c2 - \u0395\u03b3\u03ba\u03b1\u03c4\u03b1\u03bb\u03b5\u03bb\u03b5\u03b9\u03bc\u03bc\u03ad\u03bd\u03b7 \u03b7\u03bc\u03b9\u03c4\u03b5\u03bb\u03ae\u03c2 \u03c3\u03b9\u03b4\u03b7\u03c1\u03bf\u03b4\u03c1\u03bf\u03bc\u03b9\u03ba\u03ae \u03b3\u03c1\u03b1\u03bc\u03bc\u03ae", "description:en": "Kalabaka - Kozani - Veria Railway - Abandoned unfinished railway line", "name": "\u0392\u03ad\u03c1\u03bf\u03b9\u03b1 - \u0392\u03bf\u03b7\u03b8\u03b7\u03c4\u03b9\u03ba\u03cc \u03ba\u03c4\u03ae\u03c1\u03b9\u03bf", "name:el": "\u0392\u03ad\u03c1\u03bf\u03b9\u03b1 - \u0392\u03bf\u03b7\u03b8\u03b7\u03c4\u03b9\u03ba\u03cc \u03ba\u03c4\u03ae\u03c1\u03b9\u03bf", "name:en": "Veria - Support building"}}, {"type": "way", "id": 1068836919, "nodes": [9811264242, 9811264243, 9811264244, 9811264245, 9811264246, 9811264247, 9811264242], "tags": {"amenity": "restaurant", "building": "yes"}}, {"type": "way", "id": 1081856824, "nodes": [9915254856, 9915254857, 9915254862, 9915254858, 9915254859, 9915254856], "tags": {"amenity": "cafe", "layer": "1"}}, {"type": "way", "id": 1226249753, "nodes": [11371675870, 11371675869, 11371662668, 11371662667, 11371675870], "tags": {"amenity": "restaurant", "building": "yes", "cuisine": "greek", "name": "\u039f \u03a0\u03af\u03c4\u03b1\u03c2"}}, {"type": "way", "id": 1301173586, "nodes": [12051849686, 12051849687, 12051849688, 12051849689, 12051849691, 12051849690, 12051849686], "tags": {"amenity": "cafe", "building": "yes"}}, {"type": "way", "id": 1387742648, "nodes": [12846527543, 12846527541, 12846527544, 12846527542, 12846527543], "tags": {"amenity": "cafe", "building": "yes", "outdoor_seating": "yes", "wheelchair": "yes"}}]}