{"version": 0.6, "generator": "Overpass API 0.7.62.7 375dc00a", "osm3s": {"timestamp_osm_base": "2025-06-14T15:11:57Z", "copyright": "The data included in this document is from www.openstreetmap.org. The data is made available under ODbL."}, "elements": [{"type": "node", "id": 8367892095, "lat": 38.7370031, "lon": 34.0388508, "tags": {"amenity": "cafe", "name": "Simit Teknesi"}}, {"type": "node", "id": 8740988866, "lat": 38.7353398, "lon": 34.0381278, "tags": {"amenity": "restaurant", "name": "Kad\u0131o\u011flu Etli Ekmek"}}, {"type": "node", "id": 8771802062, "lat": 38.7382792, "lon": 34.0386901, "tags": {"amenity": "restaurant", "name": "SOS D\u00f6ner"}}, {"type": "node", "id": 8827023604, "lat": 38.7359352, "lon": 34.03936, "tags": {"amenity": "restaurant", "name": "P\u0131nar Kebap & Lahmacun"}}, {"type": "node", "id": 8827045638, "lat": 38.7358133, "lon": 34.0395997, "tags": {"amenity": "restaurant", "name": "Alt\u0131noluk Lokantas\u0131"}}, {"type": "node", "id": 8827048985, "lat": 38.7365366, "lon": 34.0395291, "tags": {"amenity": "restaurant", "name": "Karde\u015fler"}}, {"type": "node", "id": 8827051929, "lat": 38.7357448, "lon": 34.0397721, "tags": {"amenity": "restaurant", "name": "Konya Etli Ekmek"}}, {"type": "node", "id": 8827051930, "lat": 38.7361174, "lon": 34.0398975, "tags": {"amenity": "restaurant", "name": "\u00d6z Papatya Pide Salonu"}}, {"type": "node", "id": 8857442090, "lat": 38.7369157, "lon": 34.0388763, "tags": {"amenity": "restaurant", "name": "Osmanl\u0131 Sofras\u0131"}}, {"type": "node", "id": 10732837878, "lat": 38.7347011, "lon": 34.0371078, "tags": {"amenity": "restaurant", "cuisine": "pizza"}}]}