{"version": 0.6, "generator": "Overpass API 0.7.62.7 375dc00a", "osm3s": {"timestamp_osm_base": "2025-06-14T15:20:06Z", "copyright": "The data included in this document is from www.openstreetmap.org. The data is made available under ODbL."}, "elements": [{"type": "node", "id": 600245460, "lat": 32.516813, "lon": 36.4830969, "tags": {"amenity": "restaurant", "ele": "850.8900000", "name": "\u0645\u0637\u0639\u0645 \u0643\u0631\u0643\u0644\u0627", "name:ar": "\u0645\u0637\u0639\u0645 \u0643\u0631\u0643\u0644\u0627", "name:en": "Caracalla Restaurant"}}, {"type": "node", "id": 1187772503, "lat": 32.7087699, "lon": 36.5691951, "tags": {"amenity": "cafe", "name": "\u0627\u0644\u0645\u0636\u064a\u0627\u0641", "name:en": "Al Mdiaf"}}, {"type": "node", "id": 1187772506, "lat": 32.7082359, "lon": 36.5679662, "tags": {"amenity": "restaurant", "name": "\u0645\u0637\u0639\u0645 \u0627\u0644\u0637\u0627\u0648\u0648\u0633"}}, {"type": "node", "id": 1189940571, "lat": 32.7085077, "lon": 36.5683148, "tags": {"amenity": "restaurant", "name": "\u0627\u0644\u0645\u0648\u0639\u062f", "name:en": "Al Mued"}}, {"type": "node", "id": 1191283312, "lat": 32.7139376, "lon": 36.5732877, "tags": {"amenity": "restaurant", "name": "\u0633\u0648\u0628\u0631\u064a\u0645", "name:en": "Soprim"}}, {"type": "node", "id": 1191283559, "lat": 32.7145424, "lon": 36.5734274, "tags": {"amenity": "restaurant", "name": "\u0641\u062a\u0627\u0641\u064a\u062a \u0631\u064a\u0645\u0648\u0646", "name:en": "Fatafit Rimon"}}, {"type": "node", "id": 1199433670, "lat": 32.7239166, "lon": 36.5675743, "tags": {"amenity": "restaurant", "name": "\u0645\u0637\u0639\u0645 \u0627\u0644\u0644\u0648\u062a\u0633", "name:en": "Al Lotas Restaurant"}}, {"type": "node", "id": 1291037699, "lat": 32.7673751, "lon": 36.5757393}, {"type": "node", "id": 1291037700, "lat": 32.7674563, "lon": 36.5754496}, {"type": "node", "id": 1291037721, "lat": 32.767745, "lon": 36.5758358}, {"type": "node", "id": 1291037728, "lat": 32.7679074, "lon": 36.5757285}, {"type": "node", "id": 1291037733, "lat": 32.767736, "lon": 36.5760397}, {"type": "node", "id": 1291037737, "lat": 32.7678532, "lon": 36.5760182}, {"type": "node", "id": 1291037763, "lat": 32.767754, "lon": 36.5756749}, {"type": "node", "id": 1291037765, "lat": 32.7676277, "lon": 36.5754818}, {"type": "node", "id": 1330053704, "lat": 32.7134662, "lon": 36.5735085, "tags": {"amenity": "restaurant", "name": "\u0625\u0633\u062a\u0631\u0627\u062d\u0629 \u0627\u0644\u0645\u0632\u0631\u0639\u0629", "name:en": "Al Mazraa"}}, {"type": "node", "id": 1333754759, "lat": 32.7135872, "lon": 36.6311681, "tags": {"amenity": "restaurant", "name": "\u0645\u0637\u0639\u0645 \u0627\u0644\u0645\u0631\u062c", "name:en": "Al Marj Resturant", "stars": "2"}}, {"type": "node", "id": 1334329115, "lat": 32.708462, "lon": 36.6288379, "tags": {"amenity": "restaurant", "name": "\u0645\u0637\u0639\u0645 \u0627\u0644\u0635\u0641\u0635\u0627\u0641", "name:en": "Al Safsaf Restaurant"}}, {"type": "node", "id": 1352708620, "lat": 32.5388356, "lon": 36.2007412, "tags": {"amenity": "restaurant"}}, {"type": "node", "id": 1452975892, "lat": 32.5177709, "lon": 36.4830272, "tags": {"amenity": "cafe"}}, {"type": "node", "id": 1452975932, "lat": 32.5179202, "lon": 36.4830165, "tags": {"amenity": "restaurant"}}, {"type": "node", "id": 1647928530, "lat": 32.7140864, "lon": 36.6270623}, {"type": "node", "id": 1647928532, "lat": 32.7140997, "lon": 36.6272274}, {"type": "node", "id": 1647928534, "lat": 32.7141423, "lon": 36.6269643}, {"type": "node", "id": 1647928537, "lat": 32.7141496, "lon": 36.6270551}, {"type": "node", "id": 1647928538, "lat": 32.7141554, "lon": 36.627221}, {"type": "node", "id": 1647928539, "lat": 32.714165, "lon": 36.6273403}, {"type": "node", "id": 1647928563, "lat": 32.7143276, "lon": 36.6269433}, {"type": "node", "id": 1647928569, "lat": 32.7143578, "lon": 36.6273184}, {"type": "node", "id": 1652144065, "lat": 32.7105829, "lon": 36.5654929, "tags": {"amenity": "cafe", "internet_access": "no", "name": "\u0623\u0648\u0644\u062f \u0647\u0627\u0648\u0633 \u0643\u0648\u0641\u064a", "name:ar": "\u0623\u0648\u0644\u062f \u0647\u0627\u0648\u0633 \u0643\u0648\u0641\u064a", "name:en": "Old House Cafe", "smoking": "yes"}}, {"type": "node", "id": 1696750292, "lat": 32.7143411, "lon": 36.6271107, "tags": {"barrier": "gate"}}, {"type": "node", "id": 3595667811, "lat": 32.7120195, "lon": 36.5662704, "tags": {"addr:street": "\u0634\u0627\u0631\u0639 \u0627\u0644\u0631\u0626\u064a\u0633 \u062d\u0627\u0641\u0638 \u0627\u0644\u0623\u0633\u062f", "amenity": "cafe", "cuisine": "coffee", "internet_access": "no", "name": "\u0645\u0642\u0647\u0649 \u062c\u0631\u064a\u0631 \u0627\u0644\u062b\u0642\u0627\u0641\u064a", "smoking": "no"}}, {"type": "node", "id": 4400963293, "lat": 32.7208523, "lon": 36.5797605, "tags": {"addr:street": "\u0634\u0627\u0631\u0639 \u0642\u0646\u0648\u0627\u062a", "amenity": "restaurant", "cuisine": "international", "internet_access": "wlan", "name:en": "La Vista"}}, {"type": "node", "id": 4400996392, "lat": 32.7115487, "lon": 36.5723712, "tags": {"addr:street": "\u0634\u0627\u0631\u0639 \u0642\u0646\u0648\u0627\u062a", "amenity": "cafe", "name:en": "Cello caf\u00e9"}}, {"type": "node", "id": 4401010089, "lat": 32.7125968, "lon": 36.5725473, "tags": {"addr:street": "\u0634\u0627\u0631\u0639 \u0642\u0646\u0648\u0627\u062a", "amenity": "cafe", "name:en": "Choco lake"}}, {"type": "node", "id": 5145787621, "lat": 32.7128237, "lon": 36.6262592, "tags": {"amenity": "restaurant", "name": "\u0627\u0644\u0639\u0645\u0627\u0637\u0648\u0631\u064a"}}, {"type": "node", "id": 5298431422, "lat": 32.7197867, "lon": 36.57885, "tags": {"amenity": "restaurant", "name": "\u062f\u064a\u0641\u064a\u0646\u0648", "name:en": "DIVINO CAFF\u00c8", "phone": "016310455"}}, {"type": "node", "id": 5454032321, "lat": 32.7163537, "lon": 36.5704081, "tags": {"addr:street": "\u062f\u0648\u0627\u0631 \u0627\u0644\u0634\u0639\u0644\u0629", "amenity": "cafe", "internet_access": "wlan", "name": "\u0633\u0645\u0627\u064a\u0644", "name:en": "Smile Cafe", "operator": "Hani Naser"}}, {"type": "node", "id": 5454081742, "lat": 32.7103299, "lon": 36.5654926, "tags": {"addr:street": "\u0634\u0627\u0631\u0639 \u0627\u0644\u0645\u062d\u0648\u0631\u064a", "amenity": "cafe", "internet_access": "wlan", "name": "\u0639 \u0627\u0644\u0628\u0627\u0644", "name:en": "Albal Cafe"}}, {"type": "node", "id": 5454082031, "lat": 32.7149684, "lon": 36.5697909, "tags": {"addr:street": "\u062f\u0648\u0627\u0631 \u0627\u0644\u0634\u0639\u0644\u0629", "amenity": "cafe", "internet_access": "wlan", "name": "\u0644\u0627\u0641\u064a\u062f\u0627", "name:en": "La Vida"}}, {"type": "node", "id": 5454082032, "lat": 32.7063167, "lon": 36.5702874, "tags": {"addr:street": "\u0628\u0631\u062c \u0627\u0644\u0645\u062f\u064a\u0646\u0629", "amenity": "cafe", "internet_access": "wlan", "name": "\u062f\u0648\u0634\u064a\u0634", "name:en": "Doshaish"}}, {"type": "node", "id": 5454082033, "lat": 32.7063102, "lon": 36.5709236, "tags": {"addr:street": "\u0628\u0631\u062c \u0622\u062f\u0645", "amenity": "cafe", "internet_access": "wlan", "name": "\u062d\u0643\u064a", "name:en": "Haki Cafe"}}, {"type": "node", "id": 5984125385, "lat": 32.715846, "lon": 36.5698891, "tags": {"addr:street": "\u0628\u0646\u0627\u0621 \u0627\u0644\u0639\u0646\u0642\u0648\u062f", "amenity": "cafe", "cuisine": "sandwich;heuriger;breakfast;ice_cream;tea;coffee_shop;friture;buschenschank;deli", "internet_access": "wlan", "name": "Volume cafe", "phone": "016314606", "website": "http://www.facebook.com/Volume-caf\u00e9-333899857374478/"}}, {"type": "node", "id": 7055759408, "lat": 32.4694554, "lon": 36.1975681, "tags": {"amenity": "restaurant", "cuisine": "pizza;burger;sandwich;kebab;asian;chicken;hot_dog;arab;mexican;middle_eastern;shawarma;lebanese", "name": "\u0645\u0637\u0639\u0645 \u0642\u0627\u0633\u0645\u064a\u0629 \u0627\u0644\u0641\u0648\u0627\u0644", "opening_hours": "24/7"}}, {"type": "node", "id": 7055799373, "lat": 32.4675152, "lon": 36.1968916, "tags": {"addr:city": "\u0645\u063a\u064a\u0631 \u0627\u0644\u0633\u0631\u062d\u0627\u0646", "amenity": "cafe", "capacity": "70", "cuisine": "coffee_shop;ice_cream;sandwich;tea;coffee;juice;nescafe;tex-mex;cafe;cake", "delivery": "yes", "diet:halal": "yes", "diet:sugar_free": "yes", "internet_access": "yes", "level": "4", "name": "\u0646\u0633\u0643\u0627\u0641\u064a\u0629 \u0648 \u0642\u0647\u0648\u0629 \u0648\u0633\u0637 \u0627\u0644\u0628\u0644\u062f", "opening_hours": "24/7", "outdoor_seating": "yes", "payment:cash": "yes", "payment:coins": "yes", "reservation": "yes", "smoking": "outside"}}, {"type": "node", "id": 9292346597, "lat": 32.7114692, "lon": 36.5725207, "tags": {"amenity": "restaurant", "cuisine": "italian;regional;snacks", "internet_access": "yes", "name": "Cello", "phone": "+96316320200"}}, {"type": "way", "id": 113876381, "nodes": [1291037737, 1291037728, 1291037763, 1291037765, 1291037700, 1291037699, 1291037721, 1291037733, 1291037737], "tags": {"amenity": "restaurant", "building": "yes", "name": "\u0645\u0637\u0639\u0645 \u0627\u0644\u0646\u0628\u0644\u0627\u0621", "name:en": "Al Nobala Restaurant"}}, {"type": "way", "id": 151952132, "nodes": [1647928569, 1647928539, 1647928538, 1647928532, 1647928530, 1647928537, 1647928534, 1647928563, 1696750292, 1647928569], "tags": {"amenity": "restaurant", "name": "\u0645\u062c\u0645\u0639 \u0633\u0624\u0627\u062f\u0627 \u0627\u0644\u0633\u064a\u0627\u062d\u064a", "name:en": "Soa'ada Restaurand", "phone": "016230162", "smoking": "yes", "stars": "3", "website": "http://www.syriaspace.com/hostedpages/souda/index.htm"}}]}