{"version": 0.6, "generator": "Overpass API 0.7.62.7 375dc00a", "osm3s": {"timestamp_osm_base": "2025-06-14T13:24:02Z", "copyright": "The data included in this document is from www.openstreetmap.org. The data is made available under ODbL."}, "elements": [{"type": "node", "id": 312152694, "lat": 39.3067721, "lon": 9.1886376, "tags": {"amenity": "restaurant", "created_by": "Potlatch 0.10f", "cuisine": "pizza"}}, {"type": "node", "id": 314060576, "lat": 39.2991014, "lon": 9.2008698, "tags": {"addr:housenumber": "22", "addr:postcode": "09048", "addr:street": "Via Sebastiano Perra", "amenity": "restaurant", "cuisine": "pizza;steak_house", "name": "Ev\u00f2"}}, {"type": "node", "id": 314060881, "lat": 39.2995871, "lon": 9.1998527, "tags": {"amenity": "restaurant", "cuisine": "pizza"}}, {"type": "node", "id": 314061117, "lat": 39.2954084, "lon": 9.2107318, "tags": {"amenity": "restaurant", "cuisine": "pizza", "name": "Exp\u00f2"}}, {"type": "node", "id": 314061441, "lat": 39.3051653, "lon": 9.2078479, "tags": {"amenity": "restaurant", "created_by": "Potlatch 0.10f", "cuisine": "pizza"}}, {"type": "node", "id": 472709397, "lat": 39.3047643, "lon": 9.1940424, "tags": {"addr:postcode": "09048", "amenity": "cafe", "name": "Linpha"}}, {"type": "node", "id": 472709403, "lat": 39.3053595, "lon": 9.1943177, "tags": {"amenity": "cafe", "wheelchair": "no"}}, {"type": "node", "id": 472709407, "lat": 39.2994709, "lon": 9.1986515, "tags": {"amenity": "cafe"}}, {"type": "node", "id": 472709425, "lat": 39.3003875, "lon": 9.2000162, "tags": {"amenity": "cafe"}}, {"type": "node", "id": 512212109, "lat": 39.2120818, "lon": 9.3040618, "tags": {"amenity": "restaurant", "name": "Il tegamino bianco"}}, {"type": "node", "id": 860469707, "lat": 39.2531202, "lon": 9.1604623, "tags": {"amenity": "restaurant", "cuisine": "pizza", "name": "Pizzeria mai dire italia"}}, {"type": "node", "id": 867096317, "lat": 39.2527307, "lon": 9.1646305, "tags": {"addr:city": "Selargius", "addr:housenumber": "19", "addr:postcode": "09047", "addr:street": "Via Istria", "amenity": "cafe", "name": "Caffeteria eden"}}, {"type": "node", "id": 867096659, "lat": 39.2532663, "lon": 9.1655019, "tags": {"amenity": "cafe", "name": "Old red snack bar"}}, {"type": "node", "id": 867096840, "lat": 39.2537602, "lon": 9.1658792, "tags": {"amenity": "cafe", "name": "Green bar", "wheelchair": "no"}}, {"type": "node", "id": 867589336, "lat": 39.2557478, "lon": 9.1566243, "tags": {"amenity": "cafe"}}, {"type": "node", "id": 867589441, "lat": 39.2453578, "lon": 9.1646473, "tags": {"amenity": "cafe", "level": "0", "name": "Bar Le Vele"}}, {"type": "node", "id": 867589444, "lat": 39.2447982, "lon": 9.1631627, "tags": {"amenity": "restaurant", "brand": "Old Wild West", "brand:wikidata": "Q25402475", "brand:wikipedia": "it:Old Wild West", "cuisine": "american", "level": "1", "name": "Old Wild West"}}, {"type": "node", "id": 956130315, "lat": 39.2166701, "lon": 9.1166965, "tags": {"addr:city": "Cagliari", "addr:street": "Bastione di Saint Remy", "amenity": "restaurant", "cuisine": "regional", "name": "Cafe Degli Spiriti", "note": "Sardinian specialties, salads, pizza, ham etc. At night cocktails and loungebar. Great view over the city and the ocean.", "phone": "+39 070.311.03.73", "price": "\u20ac7 drinks"}}, {"type": "node", "id": 994731124, "lat": 39.2181472, "lon": 9.1276906, "tags": {"amenity": "cafe"}}, {"type": "node", "id": 994731131, "lat": 39.2191613, "lon": 9.129654, "tags": {"amenity": "cafe", "fixme": "Posizione, nome"}}, {"type": "node", "id": 994731145, "lat": 39.2190615, "lon": 9.1303192, "tags": {"amenity": "cafe"}}, {"type": "node", "id": 1162723274, "lat": 39.2533915, "lon": 9.1709097, "tags": {"amenity": "cafe", "name": "Bar"}}, {"type": "node", "id": 1165439709, "lat": 39.2139869, "lon": 9.1205061, "tags": {"amenity": "cafe", "name": "Caf\u00e8 d\u00e9j\u00e0 vu", "tobacco": "yes"}}, {"type": "node", "id": 1165439746, "lat": 39.2128587, "lon": 9.1295584, "tags": {"amenity": "cafe"}}, {"type": "node", "id": 1232502634, "lat": 39.2246441, "lon": 9.2474853, "tags": {"amenity": "restaurant"}}, {"type": "node", "id": 1237293512, "lat": 39.241429, "lon": 9.2044536, "tags": {"amenity": "cafe", "name": "Flower Park"}}, {"type": "node", "id": 1312752909, "lat": 39.2997074, "lon": 9.1992573, "tags": {"amenity": "cafe", "cost:coffee": "EUR1", "name": "Il Gallo Rosso"}}, {"type": "node", "id": 1327199685, "lat": 39.2057309, "lon": 9.3189915, "tags": {"amenity": "cafe", "name": "Ice Coffee"}}, {"type": "node", "id": 1336886728, "lat": 39.2463063, "lon": 9.1292576, "tags": {"amenity": "cafe", "cuisine": "italian", "name": "Bar Pasticceria Mariuccia"}}, {"type": "node", "id": 1343302850, "lat": 39.1739893, "lon": 9.372419, "tags": {"amenity": "cafe", "name": "B-Stone Mari Pintau"}}, {"type": "node", "id": 1388391553, "lat": 39.2176003, "lon": 9.1111441, "tags": {"addr:postcode": "09124", "addr:street": "Via Sassari", "amenity": "restaurant", "cuisine": "italian", "name": "Pomosardagna SRL"}}, {"type": "node", "id": 1388397471, "lat": 39.2174839, "lon": 9.1112514, "tags": {"addr:city": "Cagliari", "addr:housenumber": "75", "addr:street": "Via Sassari", "amenity": "restaurant", "name": "Locanda Caddeo", "website": "https://www.locandacaddeo.it/"}}, {"type": "node", "id": 1406230421, "lat": 39.207981, "lon": 9.1673434, "tags": {"amenity": "cafe", "name": "Caffe Zen Quartu"}}, {"type": "node", "id": 1406230600, "lat": 39.2252352, "lon": 9.2025293, "tags": {"amenity": "cafe", "name": "Stabilimento balneare baywatch"}}, {"type": "node", "id": 1406230644, "lat": 39.2245315, "lon": 9.2003385, "tags": {"amenity": "restaurant", "cuisine": "italian", "name": "Le bont\u00e0 di lilliccu"}}, {"type": "node", "id": 1406230670, "lat": 39.2244758, "lon": 9.200096, "tags": {"amenity": "cafe", "lidi": "lido mediterraneo", "name": "Lime"}}, {"type": "node", "id": 1415905304, "lat": 39.2514105, "lon": 9.1044792}, {"type": "node", "id": 1415905307, "lat": 39.2514868, "lon": 9.1043786}, {"type": "node", "id": 1415905310, "lat": 39.2514251, "lon": 9.1040051}, {"type": "node", "id": 1415905316, "lat": 39.251482, "lon": 9.1044442}, {"type": "node", "id": 1415905317, "lat": 39.2514137, "lon": 9.1044358}, {"type": "node", "id": 1415905318, "lat": 39.251365, "lon": 9.1041504}, {"type": "node", "id": 1415905319, "lat": 39.2515926, "lon": 9.1039215}, {"type": "node", "id": 1415905320, "lat": 39.251599, "lon": 9.1040286}, {"type": "node", "id": 1415905321, "lat": 39.2514327, "lon": 9.1039017}, {"type": "node", "id": 1415905322, "lat": 39.2515605, "lon": 9.1041902}, {"type": "node", "id": 1415905328, "lat": 39.2513412, "lon": 9.1044706}, {"type": "node", "id": 1415905331, "lat": 39.2515459, "lon": 9.1043859}, {"type": "node", "id": 1415905332, "lat": 39.2515848, "lon": 9.1040268}, {"type": "node", "id": 1415905334, "lat": 39.2513973, "lon": 9.1041544}, {"type": "node", "id": 1415905336, "lat": 39.2514086, "lon": 9.1040031}, {"type": "node", "id": 1415905339, "lat": 39.2515868, "lon": 9.1041935}, {"type": "node", "id": 1468456358, "lat": 39.0325232, "lon": 9.0004229, "tags": {"amenity": "restaurant", "cuisine": "italian", "name": "Tropical Garden"}}, {"type": "node", "id": 1468456363, "lat": 39.0357234, "lon": 9.0001654, "tags": {"amenity": "restaurant", "cuisine": "pizza", "name": "Atlantis"}}, {"type": "node", "id": 1481261071, "lat": 39.2525959, "lon": 9.1463677, "tags": {"addr:city": "Monserrato", "addr:housenumber": "156", "addr:postcode": "09042", "addr:street": "Via Giuseppe Zuddas", "amenity": "cafe", "cuisine": "italian", "name": "Casti Bar Pasticceria"}}, {"type": "node", "id": 1482298614, "lat": 39.2299487, "lon": 9.1133453, "tags": {"amenity": "cafe", "name": "Evergreen Cafe"}}, {"type": "node", "id": 1482298616, "lat": 39.2283614, "lon": 9.1109795, "tags": {"amenity": "cafe", "name": "Web Caf\u00e9", "opening_hours": "Mo-Sa 07:00-21:00", "wheelchair": "no"}}, {"type": "node", "id": 1482298620, "lat": 39.2181611, "lon": 9.1130475, "tags": {"addr:city": "Cagliari", "addr:street": "Via Domenico Alberto Azuni", "amenity": "cafe", "cuisine": "italian", "name": "Bar Aurora", "wheelchair": "limited"}}, {"type": "node", "id": 1507247200, "lat": 39.144813, "lon": 9.4051615}, {"type": "node", "id": 1523445782, "lat": 39.2510774, "lon": 9.1071239, "tags": {"amenity": "cafe", "cuisine": "ice_cream", "name": "Il Colle"}}, {"type": "node", "id": 1569007211, "lat": 39.3509991, "lon": 8.9615851, "tags": {"amenity": "restaurant"}}, {"type": "node", "id": 1569007254, "lat": 39.3474346, "lon": 8.9559514, "tags": {"amenity": "restaurant"}}, {"type": "node", "id": 1579296416, "lat": 39.0322556, "lon": 8.9972846, "tags": {"amenity": "cafe"}}, {"type": "node", "id": 1579296439, "lat": 39.0295324, "lon": 9.0011255, "tags": {"amenity": "cafe"}}, {"type": "node", "id": 1579296447, "lat": 39.0346475, "lon": 8.995914, "tags": {"amenity": "cafe"}}, {"type": "node", "id": 1583748391, "lat": 39.241458, "lon": 9.1775094, "tags": {"amenity": "restaurant", "name": "Ark\u00e9", "wheelchair": "yes"}}, {"type": "node", "id": 1634583275, "lat": 39.2468521, "lon": 9.1398076, "tags": {"amenity": "cafe"}}, {"type": "node", "id": 1684954954, "lat": 39.1991287, "lon": 9.1485152, "tags": {"amenity": "cafe", "name": "New Music Bar"}}, {"type": "node", "id": 1684955495, "lat": 39.2006751, "lon": 9.1485366, "tags": {"amenity": "cafe", "name": "De Curtis"}}, {"type": "node", "id": 1684957468, "lat": 39.1964348, "lon": 9.151648, "tags": {"amenity": "cafe"}}, {"type": "node", "id": 1698403337, "lat": 39.2470895, "lon": 9.1299383, "tags": {"amenity": "cafe"}}, {"type": "node", "id": 1714661797, "lat": 39.2139565, "lon": 9.1137841, "tags": {"addr:city": "Cagliari", "addr:housenumber": "78", "addr:postcode": "09124", "addr:street": "Via Sardegna", "amenity": "restaurant", "cuisine": "regional;seafood", "email": "lillicu@live.it", "name": "Trattoria Lillicu", "outdoor_seating": "yes", "phone": "+39 070 652970", "website": "http://www.trattoria.cagliari.it"}}, {"type": "node", "id": 1758400529, "lat": 39.2136195, "lon": 9.1139026, "tags": {"amenity": "restaurant", "name": "trattoria il buongustaio"}}, {"type": "node", "id": 1819264251, "lat": 39.2242249, "lon": 9.1011568, "tags": {"addr:city": "Cagliari", "addr:housenumber": "176", "addr:postcode": "09123", "addr:street": "Viale Trieste", "amenity": "cafe", "name": "Aurora Caff\u00e8", "phone": "+39 070 2776187", "wheelchair": "limited", "wheelchair:description": "Piccolo scalino all'ingresso di circa 3 cm"}}, {"type": "node", "id": 1930836781, "lat": 39.3465355, "lon": 9.1814171, "tags": {"amenity": "cafe", "wheelchair": "no"}}, {"type": "node", "id": 1941578537, "lat": 39.2454605, "lon": 9.1918712, "tags": {"amenity": "cafe", "cuisine": "italian", "name": "Chaplin Cafe", "wheelchair": "yes", "wifi": "no"}}, {"type": "node", "id": 1985378264, "lat": 39.288906, "lon": 9.2232906, "tags": {"amenity": "restaurant", "name": "La Gondola"}}, {"type": "node", "id": 1985382314, "lat": 39.2864062, "lon": 9.2256492, "tags": {"amenity": "restaurant", "name": "Da Secondo"}}, {"type": "node", "id": 1985469121, "lat": 39.2867622, "lon": 9.2262978, "tags": {"amenity": "cafe"}}, {"type": "node", "id": 1986470692, "lat": 39.2812983, "lon": 9.2291737, "tags": {"amenity": "cafe"}}, {"type": "node", "id": 1996894860, "lat": 39.2074222, "lon": 9.1344307, "tags": {"addr:city": "Cagliari", "addr:housenumber": "132", "addr:postcode": "09126", "addr:street": "Via della Pineta", "amenity": "cafe", "cuisine": "italian", "name": "Caff\u00e8 Parioli", "wheelchair": "yes"}}, {"type": "node", "id": 1996946746, "lat": 39.208505, "lon": 9.1331669, "tags": {"amenity": "restaurant", "cuisine": "italian", "name": "Pepe Rosa"}}, {"type": "node", "id": 1996965750, "lat": 39.2322616, "lon": 9.1283922, "tags": {"amenity": "restaurant", "cuisine": "pizza", "name": "Pizzeria \"Chiaro di luna\""}}, {"type": "node", "id": 1996967388, "lat": 39.2082071, "lon": 9.1363423, "tags": {"amenity": "restaurant", "cuisine": "ice_cream", "name": "Gelateria \"Ice Mu\""}}, {"type": "node", "id": 2001262808, "lat": 39.2213594, "lon": 9.1362552, "tags": {"amenity": "restaurant", "cuisine": "pizza", "name": "Il bamb\u00f9"}}, {"type": "node", "id": 2001269619, "lat": 39.2064632, "lon": 9.1238264, "tags": {"amenity": "restaurant", "cuisine": "seafood", "name": "Vendita ricci di mare"}}, {"type": "node", "id": 2001271488, "lat": 39.2050478, "lon": 9.1250495, "tags": {"addr:street": "Via Sebastiano Caboto", "amenity": "restaurant", "check_date": "2023-08-29", "cuisine": "pizza", "name": "Pizzeria RariNantes", "payment:cash": "yes", "payment:mastercard": "yes", "payment:visa": "yes", "payment:visa_debit": "yes", "wheelchair": "yes"}}, {"type": "node", "id": 2002906737, "lat": 39.282036, "lon": 9.0731183, "tags": {"amenity": "restaurant", "cuisine": "italian", "name": "Il Ghiottone"}}, {"type": "node", "id": 2049895667, "lat": 39.4586021, "lon": 9.0244712, "tags": {"addr:housenumber": "Km 1,800", "addr:postcode": "09024", "addr:street": "SP 33", "amenity": "restaurant", "cuisine": "regional", "name": "Garden", "website": "http://www.gardenhotelnuraminis.it"}}, {"type": "node", "id": 2095938580, "lat": 39.217045, "lon": 9.1085021, "tags": {"amenity": "cafe"}}, {"type": "node", "id": 2129469231, "lat": 39.4412233, "lon": 8.9158936, "tags": {"amenity": "restaurant", "name": "Sa Cunserviera"}}, {"type": "node", "id": 2144156823, "lat": 39.2321241, "lon": 9.1879909, "tags": {"amenity": "cafe", "name": "Robinson Caf\u00e8"}}, {"type": "node", "id": 2168129426, "lat": 39.2216582, "lon": 9.1046501, "tags": {"addr:housename": "Mediateca del Mediterraneo", "addr:housenumber": "164", "addr:postcode": "09123", "addr:street": "Via Goffredo Mameli", "amenity": "cafe", "amenity_1": "restaurant", "amenity_2": "pub", "bar": "yes", "cuisine": "pizza;italian;steak_house", "internet_access": "wlan", "name": "Sette Vizi s.r.l.;i sette vizi", "outdoor_seating": "yes", "smoking": "outside", "source": "survey", "wheelchair": "limited"}}, {"type": "node", "id": 2178122020, "lat": 39.2395681, "lon": 9.1781103, "tags": {"amenity": "cafe", "wheelchair": "yes"}}, {"type": "node", "id": 2178139800, "lat": 39.2369859, "lon": 9.1744877, "tags": {"amenity": "cafe", "name": "Laura Caff\u00e8", "wheelchair": "yes"}}, {"type": "node", "id": 2178286226, "lat": 39.2414256, "lon": 9.1760879, "tags": {"amenity": "cafe", "name": "Fruit Bar", "wheelchair": "no"}}, {"type": "node", "id": 2179701239, "lat": 39.2168374, "lon": 9.110547, "tags": {"addr:housenumber": "45", "addr:street": "Via Sassari", "amenity": "restaurant", "name": "Ristorante Flora"}}, {"type": "node", "id": 2201764504, "lat": 39.2896938, "lon": 9.0700872, "tags": {"amenity": "restaurant"}}, {"type": "node", "id": 2219334620, "lat": 39.4198134, "lon": 8.9236332, "tags": {"amenity": "cafe"}}, {"type": "node", "id": 2292397733, "lat": 39.2302534, "lon": 9.1149898, "tags": {"amenity": "cafe", "name": "Minibar", "source": "Yahoo imagery", "wifi": "no"}}, {"type": "node", "id": 2302254106, "lat": 39.2373115, "lon": 9.1813036, "tags": {"amenity": "cafe", "name": "Fango", "wheelchair": "yes"}}, {"type": "node", "id": 2310429934, "lat": 39.2535378, "lon": 9.0610051, "tags": {"amenity": "restaurant", "name": "Self Service Gusto", "wheelchair": "yes"}}, {"type": "node", "id": 2328813865, "lat": 39.2328677, "lon": 9.1261706, "tags": {"addr:city": "Cagliari", "addr:housenumber": "25", "addr:postcode": "09131", "addr:street": "Via Giuseppe Biasi", "amenity": "cafe", "name": "Bar Nobel", "wifi": "yes"}}, {"type": "node", "id": 2338536552, "lat": 39.2181926, "lon": 9.1137074, "tags": {"addr:city": "Cagliari", "addr:street": "Via Santa Margherita", "amenity": "cafe", "name": "Caff\u00e8 Pruner"}}, {"type": "node", "id": 2338536558, "lat": 39.2154063, "lon": 9.1111162, "tags": {"addr:city": "Cagliari", "addr:housenumber": "6", "addr:postcode": "09124", "addr:street": "Largo Carlo Felice", "amenity": "cafe", "name": "Caff\u00e8 Svizzero", "phone": "+39 070653784", "toilets:wheelchair": "no", "wheelchair": "no"}}, {"type": "node", "id": 2353788382, "lat": 39.1922395, "lon": 9.1617874, "tags": {"amenity": "restaurant", "wheelchair": "yes"}}, {"type": "node", "id": 2353788394, "lat": 39.2059936, "lon": 9.1648237, "tags": {"amenity": "cafe", "wheelchair": "yes"}}, {"type": "node", "id": 2362300175, "lat": 39.2844827, "lon": 9.0697308, "tags": {"amenity": "cafe", "name": "Il Mosaico"}}, {"type": "node", "id": 2378869485, "lat": 39.219597, "lon": 9.2720049}, {"type": "node", "id": 2378869486, "lat": 39.2194859, "lon": 9.271973}, {"type": "node", "id": 2385770625, "lat": 39.1943179, "lon": 9.1578341, "tags": {"amenity": "cafe", "wheelchair": "yes"}}, {"type": "node", "id": 2433590364, "lat": 39.2302154, "lon": 9.1165559, "tags": {"amenity": "cafe", "name": "Alex Bar", "source": "Conosco personalmente"}}, {"type": "node", "id": 2433601604, "lat": 39.2196064, "lon": 9.1226777, "tags": {"addr:city": "Cagliari", "addr:housenumber": "13", "addr:postcode": "09128", "addr:street": "Via Pasquale Paoli", "amenity": "restaurant", "cuisine": "italian", "name": "Bliss"}}, {"type": "node", "id": 2444677125, "lat": 39.2209146, "lon": 9.1128879, "tags": {"amenity": "restaurant", "cuisine": "pizza", "microbrewery": "no", "name": "Dar Burino", "opening_hours": "24/7"}}, {"type": "node", "id": 2455161204, "lat": 39.2185383, "lon": 9.1135289, "tags": {"addr:city": "Cagliari", "addr:housenumber": "10", "addr:street": "Via Santa Margherita", "amenity": "restaurant", "check_date": "2023-08-30", "cuisine": "kebab", "name": "La Kasbah", "outdoor_seating": "no"}}, {"type": "node", "id": 2455190712, "lat": 39.2183566, "lon": 9.1137484, "tags": {"amenity": "cafe"}}, {"type": "node", "id": 2461801781, "lat": 39.2185282, "lon": 9.1119895, "tags": {"addr:housenumber": "98", "addr:street": "Via Domenico Alberto Azuni", "amenity": "restaurant", "cuisine": "burger", "name": "Retro Burger", "opening_hours": "Mo-Su 20:00-01:00", "phone": "+39 388 8506085", "wheelchair": "limited"}}, {"type": "node", "id": 2468570745, "lat": 39.2176852, "lon": 9.1120395, "tags": {"addr:city": "Cagliari", "addr:housenumber": "44", "addr:street": "Corso Vittorio Emanuele II", "amenity": "restaurant", "cuisine": "irish", "name": "Old Square", "wheelchair": "yes"}}, {"type": "node", "id": 2503803711, "lat": 39.2161217, "lon": 9.1112105, "tags": {"addr:city": "Cagliari", "addr:housenumber": "25", "addr:street": "Via Giovanni Maria Angioy", "amenity": "restaurant", "cuisine": "indian", "name": "Tandoori", "phone": "+39 070 3110221", "toilets:wheelchair": "no", "website": "http://www.tandooricagliari.it/", "wheelchair": "no"}}, {"type": "node", "id": 2508491611, "lat": 39.2170584, "lon": 9.1107885, "tags": {"addr:city": "Cagliari", "addr:housenumber": "59", "addr:street": "Via Sassari", "amenity": "restaurant", "cuisine": "regional;pizza", "indoor_seating": "yes", "name": "Lo Zodiaco", "outdoor_seating": "no", "phone": "+39 070 670333", "website": "http://www.ristorantepizzerialozodiaco.com", "wheelchair": "no", "wheelchair:description": "Impossibile entrare,gradini da ogni parte,persino per arrivare nella sala esterna."}}, {"type": "node", "id": 2511555786, "lat": 39.2177587, "lon": 9.1112724, "tags": {"addr:city": "Cagliari", "addr:housenumber": "136", "addr:street": "Via Sassari", "amenity": "restaurant", "cuisine": "sardinian", "name": "MeC Puddu's", "website": "https://www.mecpuddus.it/"}}, {"type": "node", "id": 2512686467, "lat": 39.2174792, "lon": 9.1109452, "tags": {"addr:city": "Cagliari", "addr:street": "Via Sassari", "amenity": "cafe", "name": "Sax by Marcella"}}, {"type": "node", "id": 2512687184, "lat": 39.2176286, "lon": 9.1106958, "tags": {"addr:city": "Cagliari", "addr:housenumber": "41", "addr:street": "Via Goffredo Mameli", "amenity": "restaurant", "cuisine": "australian", "name": "Wallabys"}}, {"type": "node", "id": 2519763866, "lat": 39.2168376, "lon": 9.1102881, "tags": {"addr:city": "Cagliari", "addr:housenumber": "50", "addr:postcode": "09124", "addr:street": "Via Sassari", "amenity": "cafe", "name": "inu sardinian wine bar", "phone": "+39 070 6670414", "website": "https://www.facebook.com/InuSardinianWineBar"}}, {"type": "node", "id": 2519768564, "lat": 39.2169581, "lon": 9.1106529, "tags": {"addr:city": "Cagliari", "addr:housenumber": "51", "addr:street": "Via Sassari", "amenity": "restaurant", "cuisine": "traditional;regional;sardinian", "indoor_seating": "yes", "name": "Sa Domu Sarda", "opening_hours": "Mo-Sa 12:30-15:30,20:00-00:00; Su 12:30-15:30,20:00-24:00", "outdoor_seating": "no", "phone": "+39 070 653400", "website": "https://www.osteriasadomusarda.it/", "wheelchair": "limited"}}, {"type": "node", "id": 2523233742, "lat": 39.2180019, "lon": 9.1122077, "tags": {"addr:city": "Cagliari", "addr:street": "Via Porto Scalas", "amenity": "restaurant", "cuisine": "tapas", "name": "Tape Taperia"}}, {"type": "node", "id": 2524181594, "lat": 39.2173643, "lon": 9.1108808, "tags": {"addr:city": "Cagliari", "addr:housenumber": "86", "addr:street": "Via Sassari", "amenity": "restaurant", "cuisine": "italian", "indoor_seating": "yes", "name": "Bataclan", "outdoor_seating": "no", "phone": "+39 070 658513"}}, {"type": "node", "id": 2524303838, "lat": 39.2169393, "lon": 9.1119703, "tags": {"addr:city": "Cagliari", "addr:housenumber": "66", "addr:street": "Via Giovanni Maria Angioy", "amenity": "restaurant", "cuisine": "kebab", "name": "El Manar"}}, {"type": "node", "id": 2527947576, "lat": 39.2174819, "lon": 9.1078174, "tags": {"addr:city": "Cagliari", "addr:housenumber": "14", "addr:street": "Viale Trieste", "amenity": "restaurant", "cuisine": "german", "name": "Bierkeller", "phone": "+39 070 666980"}}, {"type": "node", "id": 2529085834, "lat": 39.3001547, "lon": 9.36539}, {"type": "node", "id": 2529085835, "lat": 39.3000692, "lon": 9.3653687}, {"type": "node", "id": 2529085836, "lat": 39.3001134, "lon": 9.3650727}, {"type": "node", "id": 2529085837, "lat": 39.3001989, "lon": 9.365094}, {"type": "node", "id": 2530449480, "lat": 39.2160019, "lon": 9.1097099, "tags": {"addr:city": "Cagliari", "addr:housenumber": "11", "addr:street": "Via Sassari", "amenity": "restaurant", "brand": "Rossopomodoro", "brand:wikidata": "Q16598843", "brand:wikipedia": "it:Rossopomodoro", "cuisine": "italian_pizza;italian", "indoor_seating": "yes", "name": "Rossopomodoro", "outdoor_seating": "no", "toilets:wheelchair": "no", "wheelchair": "no"}}, {"type": "node", "id": 2582347490, "lat": 39.2181282, "lon": 9.114119, "tags": {"amenity": "cafe", "name": "Caff\u00e8 dell'elfo"}}, {"type": "node", "id": 2582351083, "lat": 39.2182123, "lon": 9.114341, "tags": {"addr:city": "Cagliari", "amenity": "cafe", "name": "Mojito"}}, {"type": "node", "id": 2603347374, "lat": 39.4423621, "lon": 9.01207, "tags": {"amenity": "restaurant"}}, {"type": "node", "id": 2624681248, "lat": 39.2120916, "lon": 9.0912873}, {"type": "node", "id": 2624681253, "lat": 39.212137, "lon": 9.0914994}, {"type": "node", "id": 2624681263, "lat": 39.2123497, "lon": 9.092247}, {"type": "node", "id": 2624681268, "lat": 39.2123988, "lon": 9.092215}, {"type": "node", "id": 2684458914, "lat": 39.1653884, "lon": 9.408558, "tags": {"amenity": "restaurant", "cuisine": "regional", "name": "Agriturismo \"Sa Guardia\"", "phone": "+39 346 9478 610", "website": "http://www.agriturismosaguardia.it/"}}, {"type": "node", "id": 2715480742, "lat": 39.2134835, "lon": 9.122794, "tags": {"addr:city": "Cagliari", "addr:housenumber": "29", "addr:street": "Via Logudoro", "amenity": "cafe", "name": "Caff\u00e8 Genovese", "wheelchair": "limited"}}, {"type": "node", "id": 2721613071, "lat": 39.2156544, "lon": 9.1105769, "tags": {"amenity": "cafe", "name": "Delizia", "toilets:wheelchair": "no", "wheelchair": "no"}}, {"type": "node", "id": 2721614590, "lat": 39.2152523, "lon": 9.1115262, "tags": {"amenity": "cafe", "name": "City Bar", "wheelchair": "yes"}}, {"type": "node", "id": 2721614591, "lat": 39.2157546, "lon": 9.1137924, "tags": {"amenity": "cafe", "name": "Caff\u00e8 Dettori", "outdoor_seating": "yes", "wheelchair": "no"}}, {"type": "node", "id": 2721614593, "lat": 39.2166415, "lon": 9.1161507, "tags": {"addr:city": "Cagliari", "addr:housenumber": "3", "addr:postcode": "09124", "addr:street": "Via Mario De Candia", "amenity": "cafe", "bar": "yes", "check_date": "2023-09-02", "name": "Caf\u00e8 De Candia", "operator": "Makena s.r.l.", "outdoor_seating": "yes", "payment:bancomat": "yes", "payment:mastercard": "yes", "payment:visa": "yes", "payment:visa_debit": "yes", "toilets": "yes", "wheelchair": "limited"}}, {"type": "node", "id": 2726663881, "lat": 39.2148012, "lon": 9.1128597, "tags": {"addr:city": "Cagliari", "addr:housenumber": "38", "addr:street": "Via Napoli", "amenity": "restaurant", "cuisine": "italian;pizza", "indoor_seating": "yes", "name": "L'Oca Bianca", "opening_hours": "Mo-We 19:00-23:30; Th-Sa 19:00-00:00", "outdoor_seating": "no", "website": "http://www.locabiancacagliari.it", "wheelchair": "no"}}, {"type": "node", "id": 2726975489, "lat": 39.2143918, "lon": 9.1125824, "tags": {"addr:city": "Cagliari", "addr:housenumber": "13", "addr:postcode": "09124", "addr:street": "Via Napoli", "amenity": "restaurant", "check_date": "2023-09-08", "contact:mobile": "+39 331 2791570", "contact:phone": "+39 070 670712", "contact:website": "https://www.sucumbidu.com/", "cuisine": "regional;sardinian", "diet:vegetarian": "yes", "email": "sucumbidu@hotmail.it", "facebook": "https://www.facebook.com/su.cumbidu", "internet_access": "no", "name": "Su Cumbidu", "opening_hours": "Mo-Su 11:00-23:45", "operator": "Giovanni Dedoni e C.", "outdoor_seating": "pedestrian_zone", "payment:bancomat": "yes", "payment:mastercard": "yes", "payment:visa": "yes", "payment:visa_debit": "yes", "reservation": "required", "toilets": "yes", "wheelchair": "limited"}}, {"type": "node", "id": 2727000790, "lat": 39.2132159, "lon": 9.1152047, "tags": {"addr:city": "Cagliari", "addr:street": "Via Vittorio Porcile", "amenity": "restaurant", "cuisine": "italian", "name": "Luigi Pomata Bistrot", "website": "https://luigipomata.com/"}}, {"type": "node", "id": 2727014557, "lat": 39.2129228, "lon": 9.1153541, "tags": {"addr:city": "Cagliari", "addr:housenumber": "140", "addr:street": "Via Sardegna", "amenity": "restaurant", "cuisine": "regional", "name": "Stella di Marina di Montecristo"}}, {"type": "node", "id": 2727074583, "lat": 39.2160964, "lon": 9.1134955, "tags": {"addr:city": "Cagliari", "addr:street": "Piazza Savoia", "amenity": "cafe", "name": "Moka Domus", "wheelchair": "no"}}, {"type": "node", "id": 2739028654, "lat": 39.2284978, "lon": 9.1280083, "tags": {"addr:city": "Cagliari", "addr:country": "IT", "addr:housenumber": "60", "addr:postcode": "09131", "addr:street": "Via Baldassarre Castiglione", "amenity": "restaurant", "cuisine": "pizza,_italian,_bisteccheria", "name": "Angolo Giusti"}}, {"type": "node", "id": 2744533404, "lat": 39.2178081, "lon": 9.1139756, "tags": {"addr:city": "Cagliari", "addr:street": "Piazza Yenne", "amenity": "restaurant", "cuisine": "regional;pizza", "name": "Downtown", "outdoor_seating": "pedestrian_zone"}}, {"type": "node", "id": 2814812129, "lat": 39.2194283, "lon": 9.2723199}, {"type": "node", "id": 2814812348, "lat": 39.2195668, "lon": 9.2723429}, {"type": "node", "id": 2814986150, "lat": 39.2538872, "lon": 9.1928524}, {"type": "node", "id": 2814986181, "lat": 39.253952, "lon": 9.1929503}, {"type": "node", "id": 2814986245, "lat": 39.2541183, "lon": 9.1937429}, {"type": "node", "id": 2814986254, "lat": 39.2541698, "lon": 9.1925437}, {"type": "node", "id": 2814986257, "lat": 39.2541863, "lon": 9.1938604}, {"type": "node", "id": 2814986261, "lat": 39.254194, "lon": 9.1933437}, {"type": "node", "id": 2814986277, "lat": 39.2542314, "lon": 9.1932989}, {"type": "node", "id": 2814986279, "lat": 39.2542344, "lon": 9.1926409}, {"type": "node", "id": 2814986280, "lat": 39.2542345, "lon": 9.1935479}, {"type": "node", "id": 2814986292, "lat": 39.2542634, "lon": 9.1933473}, {"type": "node", "id": 2814986295, "lat": 39.25427, "lon": 9.193594}, {"type": "node", "id": 2814986302, "lat": 39.254287, "lon": 9.1933188}, {"type": "node", "id": 2814986305, "lat": 39.2542901, "lon": 9.1934852}, {"type": "node", "id": 2814986337, "lat": 39.2543515, "lon": 9.1934066}, {"type": "node", "id": 2814986339, "lat": 39.2543686, "lon": 9.1936748}, {"type": "node", "id": 2814986345, "lat": 39.2543863, "lon": 9.1933679}, {"type": "node", "id": 2814986349, "lat": 39.2543937, "lon": 9.1937195}, {"type": "node", "id": 2814986370, "lat": 39.2544574, "lon": 9.1936526}, {"type": "node", "id": 2814986373, "lat": 39.2544705, "lon": 9.1935686}, {"type": "node", "id": 2814986378, "lat": 39.2544772, "lon": 9.1934867}, {"type": "node", "id": 2814986382, "lat": 39.2544843, "lon": 9.193688}, {"type": "node", "id": 2814986389, "lat": 39.2544949, "lon": 9.1933715}, {"type": "node", "id": 2814986396, "lat": 39.2545259, "lon": 9.1936441}, {"type": "node", "id": 2814986401, "lat": 39.2545344, "lon": 9.1934267}, {"type": "node", "id": 2814986485, "lat": 39.2548308, "lon": 9.1928997}, {"type": "node", "id": 2814986509, "lat": 39.2549662, "lon": 9.1930573}, {"type": "node", "id": 2817119751, "lat": 39.1933103, "lon": 9.1598429}, {"type": "node", "id": 2817119756, "lat": 39.1933173, "lon": 9.1599721}, {"type": "node", "id": 2817119759, "lat": 39.1933285, "lon": 9.159962}, {"type": "node", "id": 2817119775, "lat": 39.1933546, "lon": 9.160016}, {"type": "node", "id": 2817119795, "lat": 39.1934073, "lon": 9.1598347}, {"type": "node", "id": 2817119812, "lat": 39.1934554, "lon": 9.1599351}, {"type": "node", "id": 2817125291, "lat": 39.2042157, "lon": 9.1322468}, {"type": "node", "id": 2817125294, "lat": 39.204224, "lon": 9.1324287}, {"type": "node", "id": 2817129336, "lat": 39.204123, "lon": 9.1323541}, {"type": "node", "id": 2817129344, "lat": 39.2041361, "lon": 9.1322548}, {"type": "node", "id": 2817129351, "lat": 39.2041448, "lon": 9.1321949}, {"type": "node", "id": 2817129353, "lat": 39.2041486, "lon": 9.1322552}, {"type": "node", "id": 2817129404, "lat": 39.2042376, "lon": 9.132184}, {"type": "node", "id": 2817129409, "lat": 39.2042408, "lon": 9.132244}, {"type": "node", "id": 2817129470, "lat": 39.2042883, "lon": 9.132366}, {"type": "node", "id": 2817140068, "lat": 39.2122282, "lon": 9.0914353}, {"type": "node", "id": 2817143226, "lat": 39.2120652, "lon": 9.0912246}, {"type": "node", "id": 2817143298, "lat": 39.2121239, "lon": 9.0911861}, {"type": "node", "id": 2817152066, "lat": 39.2154632, "lon": 9.179071}, {"type": "node", "id": 2817152454, "lat": 39.2156129, "lon": 9.1789338}, {"type": "node", "id": 2817152790, "lat": 39.2156823, "lon": 9.1794659}, {"type": "node", "id": 2817152820, "lat": 39.2156966, "lon": 9.1790846}, {"type": "node", "id": 2817152864, "lat": 39.2157179, "lon": 9.1794333}, {"type": "node", "id": 2817152966, "lat": 39.215764, "lon": 9.1791019}, {"type": "node", "id": 2817152989, "lat": 39.215772, "lon": 9.1795308}, {"type": "node", "id": 2817153058, "lat": 39.2157987, "lon": 9.1795063}, {"type": "node", "id": 2817153073, "lat": 39.2158057, "lon": 9.1792862}, {"type": "node", "id": 2817153096, "lat": 39.2158127, "lon": 9.1791857}, {"type": "node", "id": 2817153250, "lat": 39.2158434, "lon": 9.1795849}, {"type": "node", "id": 2817153523, "lat": 39.2158835, "lon": 9.1794263}, {"type": "node", "id": 2817153674, "lat": 39.2159463, "lon": 9.1793687}, {"type": "node", "id": 2817153792, "lat": 39.2159853, "lon": 9.1794399}, {"type": "node", "id": 2817178634, "lat": 39.2236347, "lon": 9.1151061}, {"type": "node", "id": 2817178736, "lat": 39.2236848, "lon": 9.1150769}, {"type": "node", "id": 2817178805, "lat": 39.2237129, "lon": 9.115157}, {"type": "node", "id": 2817195605, "lat": 39.230754, "lon": 9.1253139}, {"type": "node", "id": 2817195612, "lat": 39.2307592, "lon": 9.1252066}, {"type": "node", "id": 2817195653, "lat": 39.2307841, "lon": 9.1252086}, {"type": "node", "id": 2817195658, "lat": 39.2307861, "lon": 9.1251677}, {"type": "node", "id": 2817195723, "lat": 39.2308289, "lon": 9.125213}, {"type": "node", "id": 2817195726, "lat": 39.2308309, "lon": 9.1251713}, {"type": "node", "id": 2817195738, "lat": 39.2308392, "lon": 9.1253207}, {"type": "node", "id": 2817195750, "lat": 39.2308443, "lon": 9.1252142}, {"type": "node", "id": 2817213635, "lat": 39.2414441, "lon": 9.0974119}, {"type": "node", "id": 2817222782, "lat": 39.2411632, "lon": 9.0974132}, {"type": "node", "id": 2817232866, "lat": 39.2440033, "lon": 9.1105503}, {"type": "node", "id": 2817232888, "lat": 39.2440078, "lon": 9.1106644}, {"type": "node", "id": 2817233268, "lat": 39.2440612, "lon": 9.1105465}, {"type": "node", "id": 2817233274, "lat": 39.2440625, "lon": 9.1105804}, {"type": "node", "id": 2817233426, "lat": 39.2440843, "lon": 9.1105789}, {"type": "node", "id": 2817233434, "lat": 39.2440875, "lon": 9.1106593}, {"type": "node", "id": 2817242484, "lat": 39.2467286, "lon": 9.087753}, {"type": "node", "id": 2817242492, "lat": 39.2467314, "lon": 9.0878254}, {"type": "node", "id": 2817242770, "lat": 39.2469493, "lon": 9.0877394}, {"type": "node", "id": 2817242775, "lat": 39.2469509, "lon": 9.0877307}, {"type": "node", "id": 2817242934, "lat": 39.2468216, "lon": 9.0877446}, {"type": "node", "id": 2817242935, "lat": 39.2468216, "lon": 9.0877507}, {"type": "node", "id": 2817243414, "lat": 39.246968, "lon": 9.0877288}, {"type": "node", "id": 2817243422, "lat": 39.2469715, "lon": 9.0878004}, {"type": "node", "id": 2817243452, "lat": 39.2469831, "lon": 9.1397276, "tags": {"amenity": "restaurant"}}, {"type": "node", "id": 2817246201, "lat": 39.2481471, "lon": 9.1311726, "tags": {"amenity": "cafe"}}, {"type": "node", "id": 2817260894, "lat": 39.2543493, "lon": 9.1022137}, {"type": "node", "id": 2817261016, "lat": 39.2543578, "lon": 9.1023521}, {"type": "node", "id": 2817261254, "lat": 39.2544098, "lon": 9.1020838}, {"type": "node", "id": 2817261270, "lat": 39.2544166, "lon": 9.1022073}, {"type": "node", "id": 2817261273, "lat": 39.2544174, "lon": 9.1022137}, {"type": "node", "id": 2817261281, "lat": 39.2544218, "lon": 9.1022845}, {"type": "node", "id": 2817261290, "lat": 39.254427, "lon": 9.1020593}, {"type": "node", "id": 2817261294, "lat": 39.2544283, "lon": 9.1020818}, {"type": "node", "id": 2817261417, "lat": 39.2544424, "lon": 9.1020003}, {"type": "node", "id": 2817261422, "lat": 39.2544458, "lon": 9.1020569}, {"type": "node", "id": 2817261433, "lat": 39.2544541, "lon": 9.1022124}, {"type": "node", "id": 2817261442, "lat": 39.254458, "lon": 9.1022809}, {"type": "node", "id": 2817261629, "lat": 39.2544953, "lon": 9.1020217}, {"type": "node", "id": 2817261653, "lat": 39.2545048, "lon": 9.1019984}, {"type": "node", "id": 2817261657, "lat": 39.2545057, "lon": 9.1021932}, {"type": "node", "id": 2817261669, "lat": 39.2545111, "lon": 9.1022865}, {"type": "node", "id": 2817261835, "lat": 39.2545485, "lon": 9.1020259}, {"type": "node", "id": 2817261838, "lat": 39.2545505, "lon": 9.102059}, {"type": "node", "id": 2817261978, "lat": 39.2546306, "lon": 9.1017503}, {"type": "node", "id": 2817261996, "lat": 39.2546386, "lon": 9.1018442}, {"type": "node", "id": 2817262045, "lat": 39.2546697, "lon": 9.1021521}, {"type": "node", "id": 2817262047, "lat": 39.2546705, "lon": 9.1021811}, {"type": "node", "id": 2817262078, "lat": 39.2546873, "lon": 9.1017616}, {"type": "node", "id": 2817262085, "lat": 39.2546901, "lon": 9.1022704}, {"type": "node", "id": 2817262087, "lat": 39.254691, "lon": 9.1021788}, {"type": "node", "id": 2817262096, "lat": 39.2546983, "lon": 9.1016934}, {"type": "node", "id": 2817262278, "lat": 39.254758, "lon": 9.1020075}, {"type": "node", "id": 2817262282, "lat": 39.2547608, "lon": 9.1019728}, {"type": "node", "id": 2817262303, "lat": 39.2547777, "lon": 9.1020124}, {"type": "node", "id": 2817262310, "lat": 39.2547818, "lon": 9.1018752}, {"type": "node", "id": 2817262312, "lat": 39.2547826, "lon": 9.1019764}, {"type": "node", "id": 2817262490, "lat": 39.2549391, "lon": 9.1018175}, {"type": "node", "id": 2817262502, "lat": 39.2549494, "lon": 9.1017478}, {"type": "node", "id": 2817262516, "lat": 39.2549596, "lon": 9.1022988}, {"type": "node", "id": 2817262545, "lat": 39.2549813, "lon": 9.1022861}, {"type": "node", "id": 2817262682, "lat": 39.2550917, "lon": 9.1018541}, {"type": "node", "id": 2822872424, "lat": 39.2669842, "lon": 9.1413408}, {"type": "node", "id": 2822872426, "lat": 39.2670199, "lon": 9.1414139}, {"type": "node", "id": 2822872440, "lat": 39.2671192, "lon": 9.1413336}, {"type": "node", "id": 2822872451, "lat": 39.2671897, "lon": 9.1414779}, {"type": "node", "id": 2822872454, "lat": 39.2672007, "lon": 9.1411089}, {"type": "node", "id": 2822872459, "lat": 39.2672206, "lon": 9.1411499}, {"type": "node", "id": 2822872471, "lat": 39.2673537, "lon": 9.1411495}, {"type": "node", "id": 2822872472, "lat": 39.267354, "lon": 9.1410459}, {"type": "node", "id": 2822872478, "lat": 39.2673743, "lon": 9.1409688}, {"type": "node", "id": 2822872483, "lat": 39.2673902, "lon": 9.14112}, {"type": "node", "id": 2822872485, "lat": 39.2673955, "lon": 9.1410124}, {"type": "node", "id": 2822872488, "lat": 39.2674215, "lon": 9.1412882}, {"type": "node", "id": 2827001714, "lat": 39.2526016, "lon": 9.150762}, {"type": "node", "id": 2827001723, "lat": 39.2526057, "lon": 9.1508229}, {"type": "node", "id": 2827001792, "lat": 39.2526406, "lon": 9.1508179}, {"type": "node", "id": 2827002017, "lat": 39.2526564, "lon": 9.1510438}, {"type": "node", "id": 2827002206, "lat": 39.252712, "lon": 9.1510172}, {"type": "node", "id": 2827002208, "lat": 39.2527125, "lon": 9.1510425}, {"type": "node", "id": 2827002250, "lat": 39.2527392, "lon": 9.1507449}, {"type": "node", "id": 2827002274, "lat": 39.2527488, "lon": 9.1509483}, {"type": "node", "id": 2827002291, "lat": 39.2527573, "lon": 9.1509491}, {"type": "node", "id": 2827002297, "lat": 39.2527613, "lon": 9.1510119}, {"type": "node", "id": 2835924880, "lat": 39.2158423, "lon": 9.1208662, "tags": {"addr:city": "Cagliari", "addr:housenumber": "8", "addr:street": "Via Grazia Deledda", "amenity": "restaurant", "cuisine": "regional", "name": "Piadine & Co", "wheelchair": "limited"}}, {"type": "node", "id": 2849936763, "lat": 39.2268064, "lon": 9.1332023, "tags": {"addr:city": "Cagliari", "addr:housenumber": "20", "addr:street": "Via Zagabria", "amenity": "restaurant", "cuisine": "pizza", "name": "Pizzagabria", "phone": "+39 070 3110608"}}, {"type": "node", "id": 2849970389, "lat": 39.219129, "lon": 9.1095838, "tags": {"addr:city": "Cagliari", "addr:housenumber": "210", "addr:postcode": "09123", "addr:street": "Corso Vittorio Emanuele II", "amenity": "restaurant", "cuisine": "italian", "diet:vegan": "only", "diet:vegetarian": "yes", "indoor_seating": "yes", "name": "Gintilla", "opening_hours": "Mo-Su 12:30-15:00,20:00-23:00", "outdoor_seating": "pedestrian_zone", "phone": "+39 070 680665", "website": "https://gintilla.com", "wheelchair": "limited"}}, {"type": "node", "id": 2853850883, "lat": 39.2655075, "lon": 9.0485704}, {"type": "node", "id": 2853851002, "lat": 39.2655264, "lon": 9.0486046}, {"type": "node", "id": 2853851012, "lat": 39.2655361, "lon": 9.0486204}, {"type": "node", "id": 2853851014, "lat": 39.2655375, "lon": 9.0485437}, {"type": "node", "id": 2853851028, "lat": 39.265545, "lon": 9.0486087}, {"type": "node", "id": 2853851032, "lat": 39.2655488, "lon": 9.0485341}, {"type": "node", "id": 2853851033, "lat": 39.2655488, "lon": 9.0485983}, {"type": "node", "id": 2853851036, "lat": 39.2655518, "lon": 9.0485514}, {"type": "node", "id": 2853851037, "lat": 39.2655518, "lon": 9.0485855}, {"type": "node", "id": 2853851040, "lat": 39.2655529, "lon": 9.0485696}, {"type": "node", "id": 2854054592, "lat": 39.284096, "lon": 9.0109149}, {"type": "node", "id": 2854054840, "lat": 39.2841159, "lon": 9.0108784}, {"type": "node", "id": 2854054844, "lat": 39.2841168, "lon": 9.0110304}, {"type": "node", "id": 2854054848, "lat": 39.2841175, "lon": 9.0108072}, {"type": "node", "id": 2854054853, "lat": 39.2841208, "lon": 9.0109139}, {"type": "node", "id": 2854054874, "lat": 39.2841328, "lon": 9.0108915}, {"type": "node", "id": 2854054893, "lat": 39.2841415, "lon": 9.0108312}, {"type": "node", "id": 2854055019, "lat": 39.2841544, "lon": 9.0110198}, {"type": "node", "id": 2854055039, "lat": 39.2841613, "lon": 9.0110382}, {"type": "node", "id": 2854055094, "lat": 39.2841859, "lon": 9.0109362}, {"type": "node", "id": 2854055100, "lat": 39.2841881, "lon": 9.0110586}, {"type": "node", "id": 2854055218, "lat": 39.2842009, "lon": 9.0110164}, {"type": "node", "id": 2854055224, "lat": 39.2842037, "lon": 9.0110301}, {"type": "node", "id": 2854055226, "lat": 39.2842048, "lon": 9.0106363}, {"type": "node", "id": 2854055233, "lat": 39.2842073, "lon": 9.0108865}, {"type": "node", "id": 2854055249, "lat": 39.2842165, "lon": 9.0108941}, {"type": "node", "id": 2854055262, "lat": 39.284222, "lon": 9.0109708}, {"type": "node", "id": 2854055484, "lat": 39.284306, "lon": 9.0107201}, {"type": "node", "id": 2854114962, "lat": 39.2953676, "lon": 9.012243}, {"type": "node", "id": 2854115004, "lat": 39.2954, "lon": 9.0123883}, {"type": "node", "id": 2854115036, "lat": 39.2954376, "lon": 9.0123169}, {"type": "node", "id": 2854115058, "lat": 39.2954474, "lon": 9.0123302}, {"type": "node", "id": 2854115130, "lat": 39.2953702, "lon": 9.0118415}, {"type": "node", "id": 2854115170, "lat": 39.2955376, "lon": 9.0121947}, {"type": "node", "id": 2854125113, "lat": 39.3009147, "lon": 8.9790796}, {"type": "node", "id": 2854125171, "lat": 39.3009947, "lon": 8.9789488}, {"type": "node", "id": 2854125174, "lat": 39.3009984, "lon": 8.9789529}, {"type": "node", "id": 2854125197, "lat": 39.3010292, "lon": 8.9792058}, {"type": "node", "id": 2854125199, "lat": 39.3010303, "lon": 8.978895}, {"type": "node", "id": 2854125249, "lat": 39.3010976, "lon": 8.9789692}, {"type": "node", "id": 2854125404, "lat": 39.3011484, "lon": 8.9790253}, {"type": "node", "id": 2875198209, "lat": 39.1480234, "lon": 8.9762722}, {"type": "node", "id": 2875198227, "lat": 39.1480468, "lon": 8.9764123}, {"type": "node", "id": 2875198915, "lat": 39.1482378, "lon": 8.9761553}, {"type": "node", "id": 2875198920, "lat": 39.1482468, "lon": 8.9762097}, {"type": "node", "id": 2875198952, "lat": 39.1482883, "lon": 8.9763161}, {"type": "node", "id": 2875198955, "lat": 39.1482919, "lon": 8.9763427}, {"type": "node", "id": 2875199107, "lat": 39.1483387, "lon": 8.9761275}, {"type": "node", "id": 2875199117, "lat": 39.1483459, "lon": 8.9761715}, {"type": "node", "id": 2875199648, "lat": 39.1485604, "lon": 8.976242}, {"type": "node", "id": 2875199658, "lat": 39.1485676, "lon": 8.9762848}, {"type": "node", "id": 2875199877, "lat": 39.1486171, "lon": 8.976095}, {"type": "node", "id": 2875200117, "lat": 39.148646, "lon": 8.9762628}, {"type": "node", "id": 2924599450, "lat": 39.2156748, "lon": 9.1164178, "tags": {"addr:city": "Cagliari", "amenity": "cafe", "name": "Caf\u00e8 Saint Remy", "wheelchair": "no"}}, {"type": "node", "id": 2988618716, "lat": 39.3449961, "lon": 8.9475054, "tags": {"amenity": "restaurant"}}, {"type": "node", "id": 2990038448, "lat": 39.2899203, "lon": 8.9560905}, {"type": "node", "id": 2990038736, "lat": 39.2899739, "lon": 8.9561297}, {"type": "node", "id": 2990038752, "lat": 39.2899975, "lon": 8.9561531}, {"type": "node", "id": 2990038784, "lat": 39.2899524, "lon": 8.956003}, {"type": "node", "id": 2990038831, "lat": 39.2900513, "lon": 8.9562562}, {"type": "node", "id": 2990039139, "lat": 39.2901205, "lon": 8.9561234}, {"type": "node", "id": 2990040062, "lat": 39.2904987, "lon": 8.9550333}, {"type": "node", "id": 2990040333, "lat": 39.2906222, "lon": 8.9550476}, {"type": "node", "id": 2990040343, "lat": 39.2906283, "lon": 8.9552188}, {"type": "node", "id": 2990040385, "lat": 39.2906627, "lon": 8.9549977}, {"type": "node", "id": 2990040416, "lat": 39.2906805, "lon": 8.9548214}, {"type": "node", "id": 2990040430, "lat": 39.2906868, "lon": 8.9551515}, {"type": "node", "id": 2990040494, "lat": 39.2907277, "lon": 8.9550977}, {"type": "node", "id": 2990040808, "lat": 39.2908047, "lon": 8.955007}, {"type": "node", "id": 2990041506, "lat": 39.2909393, "lon": 8.9545338}, {"type": "node", "id": 2990042092, "lat": 39.291038, "lon": 8.9546705}, {"type": "node", "id": 2990042094, "lat": 39.2910387, "lon": 8.9544343}, {"type": "node", "id": 2990042132, "lat": 39.2910614, "lon": 8.9546368}, {"type": "node", "id": 2990042354, "lat": 39.2910787, "lon": 8.9546551}, {"type": "node", "id": 2990042746, "lat": 39.2911368, "lon": 8.9545888}, {"type": "node", "id": 2990049832, "lat": 39.2930129, "lon": 8.9584147}, {"type": "node", "id": 2990049952, "lat": 39.292968, "lon": 8.958678}, {"type": "node", "id": 2990050382, "lat": 39.2930506, "lon": 8.9586973}, {"type": "node", "id": 2990050393, "lat": 39.2930656, "lon": 8.9586321}, {"type": "node", "id": 2990050749, "lat": 39.2931294, "lon": 8.9586538}, {"type": "node", "id": 2990050783, "lat": 39.293165, "lon": 8.9584484}, {"type": "node", "id": 2990068320, "lat": 39.3094648, "lon": 8.966741}, {"type": "node", "id": 2990068323, "lat": 39.3094658, "lon": 8.9668626}, {"type": "node", "id": 2990068980, "lat": 39.3091453, "lon": 8.9701286}, {"type": "node", "id": 2990068988, "lat": 39.3091554, "lon": 8.9699997}, {"type": "node", "id": 2990069898, "lat": 39.3092933, "lon": 8.9701481}, {"type": "node", "id": 2990069913, "lat": 39.3093034, "lon": 8.9700192}, {"type": "node", "id": 2990070181, "lat": 39.3093443, "lon": 8.9668584}, {"type": "node", "id": 2990070531, "lat": 39.3094407, "lon": 8.9669048}, {"type": "node", "id": 2990071034, "lat": 39.3094712, "lon": 8.9666231}, {"type": "node", "id": 2990071069, "lat": 39.3094958, "lon": 8.9667546}, {"type": "node", "id": 2990071079, "lat": 39.3095016, "lon": 8.9666467}, {"type": "node", "id": 2990101468, "lat": 39.3140833, "lon": 8.9554754}, {"type": "node", "id": 2990101502, "lat": 39.3140987, "lon": 8.9552838}, {"type": "node", "id": 2990101785, "lat": 39.3141612, "lon": 8.9553471}, {"type": "node", "id": 2990102084, "lat": 39.3141305, "lon": 8.9555233}, {"type": "node", "id": 2990102100, "lat": 39.3141366, "lon": 8.9549369}, {"type": "node", "id": 2990102715, "lat": 39.3142134, "lon": 8.955095}, {"type": "node", "id": 2990103218, "lat": 39.3142579, "lon": 8.9549121}, {"type": "node", "id": 2990103499, "lat": 39.3143034, "lon": 8.9550077}, {"type": "node", "id": 2990103517, "lat": 39.3143106, "lon": 8.9549963}, {"type": "node", "id": 2990103710, "lat": 39.3143533, "lon": 8.955069}, {"type": "node", "id": 2990104308, "lat": 39.3143852, "lon": 8.9550164}, {"type": "node", "id": 2990104805, "lat": 39.314418, "lon": 8.9550497}, {"type": "node", "id": 2992520434, "lat": 39.2777922, "lon": 9.3212262}, {"type": "node", "id": 2992520456, "lat": 39.2778546, "lon": 9.3213574}, {"type": "node", "id": 2992520459, "lat": 39.2778666, "lon": 9.3211671}, {"type": "node", "id": 2992520473, "lat": 39.2779291, "lon": 9.3212983}, {"type": "node", "id": 2992529303, "lat": 39.2857614, "lon": 9.2250332}, {"type": "node", "id": 2992529344, "lat": 39.2857237, "lon": 9.2249108}, {"type": "node", "id": 2992529346, "lat": 39.285777, "lon": 9.2250796}, {"type": "node", "id": 2992529371, "lat": 39.2857476, "lon": 9.2247353}, {"type": "node", "id": 2992529386, "lat": 39.285686, "lon": 9.2247684}, {"type": "node", "id": 2992529411, "lat": 39.2857544, "lon": 9.2247571}, {"type": "node", "id": 2992529426, "lat": 39.285821, "lon": 9.225186}, {"type": "node", "id": 2992529481, "lat": 39.2858482, "lon": 9.2249428}, {"type": "node", "id": 2992529504, "lat": 39.2858613, "lon": 9.2249782}, {"type": "node", "id": 2992529515, "lat": 39.2858643, "lon": 9.2248478}, {"type": "node", "id": 2992529542, "lat": 39.2858746, "lon": 9.2253027}, {"type": "node", "id": 2992529583, "lat": 39.2858998, "lon": 9.2249128}, {"type": "node", "id": 2992529589, "lat": 39.2859026, "lon": 9.2253465}, {"type": "node", "id": 2992529665, "lat": 39.285947, "lon": 9.2251224}, {"type": "node", "id": 2992529673, "lat": 39.2859506, "lon": 9.2249798}, {"type": "node", "id": 2992529679, "lat": 39.2859517, "lon": 9.2246393}, {"type": "node", "id": 2992529707, "lat": 39.2859749, "lon": 9.2253142}, {"type": "node", "id": 2992529725, "lat": 39.2859884, "lon": 9.2252462}, {"type": "node", "id": 2992529733, "lat": 39.2859934, "lon": 9.2247735}, {"type": "node", "id": 2992529734, "lat": 39.2859953, "lon": 9.225101}, {"type": "node", "id": 2992529745, "lat": 39.2860018, "lon": 9.2247916}, {"type": "node", "id": 2992529762, "lat": 39.2860095, "lon": 9.2247609}, {"type": "node", "id": 2992529775, "lat": 39.2860187, "lon": 9.2247786}, {"type": "node", "id": 2992529792, "lat": 39.2860311, "lon": 9.2250823}, {"type": "node", "id": 2992529886, "lat": 39.2860894, "lon": 9.2251975}, {"type": "node", "id": 2992529887, "lat": 39.2860894, "lon": 9.2253631}, {"type": "node", "id": 2992529903, "lat": 39.2861003, "lon": 9.22523}, {"type": "node", "id": 2992529905, "lat": 39.2861017, "lon": 9.2254007}, {"type": "node", "id": 2992529970, "lat": 39.2861351, "lon": 9.2253825}, {"type": "node", "id": 2992529985, "lat": 39.2861437, "lon": 9.2253192}, {"type": "node", "id": 2992529986, "lat": 39.2861461, "lon": 9.2254122}, {"type": "node", "id": 2992530003, "lat": 39.2861587, "lon": 9.2257328}, {"type": "node", "id": 2992530153, "lat": 39.2861876, "lon": 9.2253869}, {"type": "node", "id": 2992530157, "lat": 39.2862653, "lon": 9.2254439}, {"type": "node", "id": 2992530211, "lat": 39.2862181, "lon": 9.225833}, {"type": "node", "id": 2992530335, "lat": 39.2862295, "lon": 9.2256162}, {"type": "node", "id": 2992530367, "lat": 39.2862518, "lon": 9.2256574}, {"type": "node", "id": 2992530371, "lat": 39.2862548, "lon": 9.22587}, {"type": "node", "id": 2992530387, "lat": 39.2863329, "lon": 9.2254022}, {"type": "node", "id": 2992530404, "lat": 39.2862739, "lon": 9.2258198}, {"type": "node", "id": 2992530423, "lat": 39.2862846, "lon": 9.2258596}, {"type": "node", "id": 2992530428, "lat": 39.2862872, "lon": 9.22545}, {"type": "node", "id": 2992530455, "lat": 39.2863006, "lon": 9.2257683}, {"type": "node", "id": 2992530469, "lat": 39.2863107, "lon": 9.2257875}, {"type": "node", "id": 2992530480, "lat": 39.2863167, "lon": 9.2257546}, {"type": "node", "id": 2992530485, "lat": 39.2863207, "lon": 9.2254234}, {"type": "node", "id": 2992530523, "lat": 39.2863422, "lon": 9.2258042}, {"type": "node", "id": 2992530714, "lat": 39.2864501, "lon": 9.2256945}, {"type": "node", "id": 2992618941, "lat": 39.1422427, "lon": 9.4324886, "tags": {"amenity": "restaurant", "cuisine": "italian", "name": "Ristorante da Barbara"}}, {"type": "node", "id": 2993251486, "lat": 39.3995264, "lon": 9.0559758}, {"type": "node", "id": 2993251488, "lat": 39.3995451, "lon": 9.0564307}, {"type": "node", "id": 2993251491, "lat": 39.3995735, "lon": 9.0564308}, {"type": "node", "id": 2993251492, "lat": 39.3995788, "lon": 9.0565366}, {"type": "node", "id": 2993251494, "lat": 39.3996259, "lon": 9.0559728}, {"type": "node", "id": 2993251495, "lat": 39.3996282, "lon": 9.0559209}, {"type": "node", "id": 2993251500, "lat": 39.399721, "lon": 9.056433}, {"type": "node", "id": 2993251501, "lat": 39.3997228, "lon": 9.0565321}, {"type": "node", "id": 2993251503, "lat": 39.3997609, "lon": 9.0559118}, {"type": "node", "id": 2993251504, "lat": 39.3997773, "lon": 9.0564309}, {"type": "node", "id": 2993339187, "lat": 39.2960032, "lon": 9.0998975}, {"type": "node", "id": 2993339346, "lat": 39.296023, "lon": 9.0998595}, {"type": "node", "id": 2993339413, "lat": 39.2960348, "lon": 9.1001654}, {"type": "node", "id": 2993339683, "lat": 39.2960964, "lon": 9.0999231}, {"type": "node", "id": 2993339701, "lat": 39.2961048, "lon": 9.1002262}, {"type": "node", "id": 2993339705, "lat": 39.2961209, "lon": 9.0999996}, {"type": "node", "id": 2993339849, "lat": 39.2961374, "lon": 9.0998441}, {"type": "node", "id": 2993339900, "lat": 39.2961686, "lon": 9.1001034}, {"type": "node", "id": 2993339914, "lat": 39.2961613, "lon": 9.0999431}, {"type": "node", "id": 2993340166, "lat": 39.2961893, "lon": 9.0998891}, {"type": "node", "id": 2993340176, "lat": 39.2961798, "lon": 9.1000279}, {"type": "node", "id": 2993340194, "lat": 39.2962208, "lon": 9.1001487}, {"type": "node", "id": 2993340198, "lat": 39.2962044, "lon": 9.0999805}, {"type": "node", "id": 2993340211, "lat": 39.2962362, "lon": 9.1000768}, {"type": "node", "id": 2993340228, "lat": 39.2962427, "lon": 9.1001066}, {"type": "node", "id": 2993340979, "lat": 39.2964064, "lon": 9.1002486}, {"type": "node", "id": 2993340997, "lat": 39.2964199, "lon": 9.1002224}, {"type": "node", "id": 2993341192, "lat": 39.2964989, "lon": 9.0995706}, {"type": "node", "id": 2993341213, "lat": 39.2964964, "lon": 9.1002887}, {"type": "node", "id": 2993341351, "lat": 39.2965936, "lon": 9.0996527}, {"type": "node", "id": 2993341409, "lat": 39.296634, "lon": 9.0995749}, {"type": "node", "id": 2993341475, "lat": 39.2966687, "lon": 9.0999569}, {"type": "node", "id": 2993341494, "lat": 39.2966935, "lon": 9.0996265}, {"type": "node", "id": 2993341547, "lat": 39.2967185, "lon": 9.1000001}, {"type": "node", "id": 2993341590, "lat": 39.2967593, "lon": 9.0994998}, {"type": "node", "id": 2993341713, "lat": 39.2968508, "lon": 9.0997453}, {"type": "node", "id": 2993341749, "lat": 39.2968742, "lon": 9.0997656}, {"type": "node", "id": 2993341860, "lat": 39.2969337, "lon": 9.0996509}, {"type": "node", "id": 2994542027, "lat": 39.397271, "lon": 9.1477858}, {"type": "node", "id": 2994542029, "lat": 39.3972993, "lon": 9.1477205}, {"type": "node", "id": 2994542030, "lat": 39.3972994, "lon": 9.147597}, {"type": "node", "id": 2994542033, "lat": 39.3973165, "lon": 9.1475026}, {"type": "node", "id": 2994542036, "lat": 39.3973275, "lon": 9.147706}, {"type": "node", "id": 2994542039, "lat": 39.3973556, "lon": 9.1477424}, {"type": "node", "id": 2994542042, "lat": 39.3974233, "lon": 9.1476844}, {"type": "node", "id": 2994542043, "lat": 39.3974403, "lon": 9.1476409}, {"type": "node", "id": 2994542044, "lat": 39.3974457, "lon": 9.1478734}, {"type": "node", "id": 2994542046, "lat": 39.3974909, "lon": 9.147779}, {"type": "node", "id": 2994542047, "lat": 39.397491, "lon": 9.1477064}, {"type": "node", "id": 2994542048, "lat": 39.3974966, "lon": 9.1476846}, {"type": "node", "id": 2994542049, "lat": 39.3976543, "lon": 9.1478084}, {"type": "node", "id": 2994542050, "lat": 39.3976657, "lon": 9.1477067}, {"type": "node", "id": 2994543394, "lat": 39.4330756, "lon": 9.1963772}, {"type": "node", "id": 2994543395, "lat": 39.4331671, "lon": 9.1965897}, {"type": "node", "id": 2994543396, "lat": 39.4331747, "lon": 9.1963057}, {"type": "node", "id": 2994543397, "lat": 39.4332198, "lon": 9.1964106}, {"type": "node", "id": 2994543398, "lat": 39.4332467, "lon": 9.196479}, {"type": "node", "id": 2994543399, "lat": 39.4332642, "lon": 9.1965196}, {"type": "node", "id": 2994543400, "lat": 39.4332814, "lon": 9.1963662}, {"type": "node", "id": 2994543401, "lat": 39.4333102, "lon": 9.1964332}, {"type": "node", "id": 2995797658, "lat": 39.1399974, "lon": 9.4284254, "tags": {"addr:city": "Solanas", "addr:housenumber": "2", "addr:postcode": "09048", "addr:state": "88", "addr:street": "Via al Mare", "amenity": "restaurant", "bar": "no", "contact:phone": "+39 070 750758", "contact:website": "https://www.ilvelierosolanas.it", "cuisine": "italian;pizza", "highchair": "yes", "kids_area": "yes", "level": "0", "microbrewery": "no", "name": "Ristorante Il Veliero", "outdoor_seating": "yes", "reservation": "yes", "self_service": "no", "smoking": "outside", "takeaway": "yes", "toilets": "yes", "toilets:access": "customers", "website": "https://www.ilvelierosolanas.it", "website:menu": "https://web-menu.cassanova.com/dcb97b09-73f2-4050-b24b-d8f8e1e030ac/21923/categories", "wheelchair": "no"}}, {"type": "node", "id": 2995797659, "lat": 39.1726901, "lon": 9.4518919, "tags": {"amenity": "restaurant", "cuisine": "regional;italian;pizza", "name": "Santa Barbara"}}, {"type": "node", "id": 2996602580, "lat": 39.4928951, "lon": 9.3918586, "tags": {"amenity": "restaurant"}}, {"type": "node", "id": 3001874074, "lat": 39.0421368, "lon": 8.9740234}, {"type": "node", "id": 3001874075, "lat": 39.0421237, "lon": 8.9739861}, {"type": "node", "id": 3001874076, "lat": 39.0419966, "lon": 8.9740603}, {"type": "node", "id": 3001874078, "lat": 39.0421983, "lon": 8.9739875}, {"type": "node", "id": 3001874079, "lat": 39.0421812, "lon": 8.9741589}, {"type": "node", "id": 3001874083, "lat": 39.0422455, "lon": 8.9741214}, {"type": "node", "id": 3003087353, "lat": 39.2176762, "lon": 9.1111877, "tags": {"addr:city": "Cagliari", "addr:housenumber": "120", "addr:postcode": "09124", "addr:street": "Via Sassari", "amenity": "restaurant", "cuisine": "regional;sardinian", "email": "andreagraziella@yahoo.it", "facebook": "https://www.facebook.com/Ristorante-Ammentos-384215218425205/", "name": "Ristorante Ammentos", "opening_hours": "Mo-Sa 13:00-15:00,20:00-00:00; Tu off; Su 13:00-15:00,20:00-24:00", "phone": "+39 070 651075"}}, {"type": "node", "id": 3024349679, "lat": 39.2164863, "lon": 9.1244521, "tags": {"addr:housenumber": "76", "addr:street": "Via Grazia Deledda", "amenity": "cafe", "comment": "good for breakfast", "name": "Caffe Europa", "phone": "+39 070 682391", "wheelchair": "yes"}}, {"type": "node", "id": 3025020909, "lat": 39.2174132, "lon": 9.1137478, "tags": {"addr:city": "Cagliari", "addr:street": "Piazza Yenne", "amenity": "restaurant", "check_date": "2023-09-06", "name": "Incognito", "outdoor_seating": "pedestrian_zone"}}, {"type": "node", "id": 3026224484, "lat": 39.2157331, "lon": 9.1170204, "tags": {"addr:city": "Cagliari", "addr:housenumber": "10", "addr:postcode": "09124", "addr:street": "Piazza Costituzione", "amenity": "restaurant", "contact:website": "http://www.anticocaffe1855.it/", "cuisine": "regional", "indoor_seating": "yes", "name": "Antico Caffe dal 1855", "outdoor_seating": "yes", "toilets:wheelchair": "no", "wheelchair": "no"}}, {"type": "node", "id": 3058874025, "lat": 39.2168735, "lon": 9.1103329, "tags": {"addr:city": "Cagliari", "addr:housenumber": "52", "addr:postcode": "09124", "addr:street": "Via Sassari", "amenity": "restaurant", "capacity": "25", "cuisine": "fish", "name": "Fif\u00f2", "phone": "+39 070 665649", "website": "http://www.fifofish.it", "wheelchair": "yes"}}, {"type": "node", "id": 3093280826, "lat": 39.2155091, "lon": 9.114153, "tags": {"addr:city": "Cagliari", "amenity": "cafe", "check_date": "2023-09-10", "name": "Caff\u00e8 Barcellona", "outdoor_seating": "street", "toilets:wheelchair": "no", "wheelchair": "no"}}, {"type": "node", "id": 3093280827, "lat": 39.2174486, "lon": 9.1129251, "tags": {"addr:city": "Cagliari", "addr:street": "Corso Vittorio Emanuele II", "amenity": "restaurant", "name": "Corso Dodici"}}, {"type": "node", "id": 3093285329, "lat": 39.2163077, "lon": 9.1142787, "tags": {"addr:city": "Cagliari", "addr:housenumber": "6", "addr:street": "Portico di Sant'Antonio", "amenity": "cafe", "check_date": "2023-09-12", "cuisine": "italian", "name": "Al caff\u00e8 di Vale & Ale", "outdoor_seating": "yes", "outdoor_seating:comfort": "weather_protection", "payment:cash": "yes", "wheelchair": "no"}}, {"type": "node", "id": 3093285330, "lat": 39.2166753, "lon": 9.1136264, "tags": {"amenity": "cafe", "name": "Tiffany", "outdoor_seating": "yes"}}, {"type": "node", "id": 3095429849, "lat": 39.1311877, "lon": 9.0099158, "tags": {"amenity": "cafe", "cuisine": "pizza"}}, {"type": "node", "id": 3139863456, "lat": 39.2205963, "lon": 9.1072794, "tags": {"addr:housenumber": "387", "addr:street": "Corso Vittorio Emanuele II", "amenity": "cafe", "name": "Ecuador", "wheelchair": "no"}}, {"type": "node", "id": 3240945602, "lat": 39.2218167, "lon": 9.106178, "tags": {"addr:city": "Cagliari", "addr:housenumber": "2", "addr:postcode": "09123", "addr:street": "Viale Trento", "amenity": "cafe", "name": "Caffetteria Trento"}}, {"type": "node", "id": 3260236155, "lat": 39.2482394, "lon": 9.1329994, "tags": {"amenity": "cafe"}}, {"type": "node", "id": 3279378861, "lat": 39.2828791, "lon": 9.013284, "tags": {"addr:city": "Assemini", "addr:housenumber": "172a", "addr:postcode": "09032", "addr:street": "Via Carmine", "amenity": "restaurant", "cuisine": "pizza", "name": "Pizzeria Buonasera", "phone": "+393299285551"}}, {"type": "node", "id": 3319195229, "lat": 39.2180414, "lon": 9.1191723, "tags": {"addr:city": "Cagliari", "addr:housenumber": "35", "addr:street": "Via San Giacomo", "amenity": "restaurant", "name": "Dr. Ampex", "source": "Note 68509", "source_1": "Note 68509"}}, {"type": "node", "id": 3349964893, "lat": 39.1468027, "lon": 9.40387, "tags": {"addr:housenumber": "42", "addr:street": "Via Sagittario", "amenity": "restaurant", "check_date": "2025-06-01", "cuisine": "regional;pizza", "name": "Pizzeria Ristorante Da Palmira", "note": "In estate \u00e8 aperto tutta la settimana, in inverno meglio chiamare prima.", "phone": "+39 070 786241", "smoking": "no", "takeaway": "yes"}}, {"type": "node", "id": 3349974355, "lat": 39.1519456, "lon": 9.402407}, {"type": "node", "id": 3349974356, "lat": 39.1519112, "lon": 9.4025915}, {"type": "node", "id": 3349974357, "lat": 39.151732, "lon": 9.4025238}, {"type": "node", "id": 3349974358, "lat": 39.1517537, "lon": 9.4023883}, {"type": "node", "id": 3350014191, "lat": 39.1448823, "lon": 9.4049949}, {"type": "node", "id": 3350014192, "lat": 39.1448689, "lon": 9.4051646}, {"type": "node", "id": 3350015193, "lat": 39.1448256, "lon": 9.4049898}, {"type": "node", "id": 3350015194, "lat": 39.1448886, "lon": 9.4055955}, {"type": "node", "id": 3350015195, "lat": 39.1448705, "lon": 9.405622}, {"type": "node", "id": 3350015196, "lat": 39.1448177, "lon": 9.4055793}, {"type": "node", "id": 3350015197, "lat": 39.1448327, "lon": 9.4055437}, {"type": "node", "id": 3350015202, "lat": 39.1553883, "lon": 9.3952306, "tags": {"amenity": "cafe"}}, {"type": "node", "id": 3350015203, "lat": 39.1564875, "lon": 9.3940437, "tags": {"amenity": "cafe"}}, {"type": "node", "id": 3350178343, "lat": 39.1546442, "lon": 9.4018508, "tags": {"amenity": "restaurant"}}, {"type": "node", "id": 3354763462, "lat": 39.2394396, "lon": 9.1128351, "tags": {"amenity": "cafe", "name": "Bar Lobina"}}, {"type": "node", "id": 3366448933, "lat": 39.2256844, "lon": 9.2045883}, {"type": "node", "id": 3366448934, "lat": 39.2257898, "lon": 9.2049315}, {"type": "node", "id": 3366448939, "lat": 39.2258943, "lon": 9.2044809}, {"type": "node", "id": 3375194094, "lat": 39.2264611, "lon": 9.2065125, "tags": {"amenity": "cafe", "name": "Five O"}}, {"type": "node", "id": 3375194095, "lat": 39.2259997, "lon": 9.2048241}, {"type": "node", "id": 3375236371, "lat": 39.2184481, "lon": 9.1124557, "tags": {"addr:city": "Cagliari", "addr:housenumber": "31", "addr:postcode": "09124", "addr:street": "Via Domenico Alberto Azuni", "amenity": "restaurant", "cuisine": "brazilian", "delivery": "no", "name": "Picanhito", "smoking": "outside", "takeaway": "no"}}, {"type": "node", "id": 3521668639, "lat": 39.3838746, "lon": 9.0437667, "tags": {"amenity": "cafe", "name": "Ulive's"}}, {"type": "node", "id": 3609597385, "lat": 39.1721017, "lon": 9.379283, "tags": {"amenity": "cafe", "name": "Cala E moru"}}, {"type": "node", "id": 3610676648, "lat": 39.1435044, "lon": 9.4346193, "tags": {"amenity": "cafe", "internet_access": "no", "tobacco": "yes"}}, {"type": "node", "id": 3633960948, "lat": 39.3472561, "lon": 9.1781902, "tags": {"addr:city": "Soleminis", "addr:housenumber": "13", "addr:postcode": "09040", "addr:street": "Via quattro novembre", "amenity": "cafe", "name": "Bar Sport", "source": "Regione Autonoma della Sardegna", "wheelchair": "limited"}}, {"type": "node", "id": 3664672935, "lat": 39.1357048, "lon": 9.4253933}, {"type": "node", "id": 3664672936, "lat": 39.13575, "lon": 9.4252718}, {"type": "node", "id": 3664672937, "lat": 39.1357793, "lon": 9.4254394}, {"type": "node", "id": 3664672938, "lat": 39.1358245, "lon": 9.4253178}, {"type": "node", "id": 3671615628, "lat": 39.2525297, "lon": 9.137006, "tags": {"addr:city": "Monserrato", "addr:housenumber": "4", "addr:postcode": "09042", "addr:street": "Via Cesare Cabras", "amenity": "restaurant", "cuisine": "pizza", "name": "Time Out"}}, {"type": "node", "id": 3749473734, "lat": 39.2188532, "lon": 9.1161716, "tags": {"addr:housenumber": "1", "addr:street": "Piazza Carlo Alberto", "amenity": "cafe", "name": "Caf\u00e9 Plazuela"}}, {"type": "node", "id": 3753835372, "lat": 39.2188816, "lon": 9.1151827, "tags": {"amenity": "cafe", "shop": "ice_cream", "wheelchair": "no"}}, {"type": "node", "id": 3755443624, "lat": 39.145212, "lon": 9.5022113, "tags": {"addr:city": "Villasimius", "addr:housenumber": "97", "addr:postcode": "09049", "addr:street": "Via Cagliari", "amenity": "restaurant", "cuisine": "pizza", "name": "Da Max", "source": "Regione Autonoma della Sardegna"}}, {"type": "node", "id": 3755453704, "lat": 39.143283, "lon": 9.4950718, "tags": {"addr:city": "Villasimius", "addr:country": "IT", "addr:housenumber": "31", "addr:postcode": "09049", "addr:street": "Via Cagliari", "amenity": "restaurant", "cuisine": "pizza", "name": "S. Maria", "outdoor_seating": "yes", "phone": "+39 070 790205", "website": "https://ristorantepizzeriasantamaria.net/"}}, {"type": "node", "id": 3759509045, "lat": 39.2165798, "lon": 9.1176738, "tags": {"addr:city": "Cagliari", "addr:country": "IT", "addr:street": "Via Vincenzo Sulis", "amenity": "restaurant", "name": "Villanova Caf\u00e9 Bistrot"}}, {"type": "node", "id": 3759515457, "lat": 39.2173256, "lon": 9.118537, "tags": {"amenity": "restaurant", "cuisine": "pizza"}}, {"type": "node", "id": 3759536115, "lat": 39.2184187, "lon": 9.119472, "tags": {"addr:city": "Cagliari", "addr:country": "IT", "addr:housenumber": "90", "addr:street": "Via San Domenico", "amenity": "cafe", "indoor_seating": "yes", "name": "Bar Florio", "outdoor_seating": "yes", "phone": "+39 035 27460921"}}, {"type": "node", "id": 3785787442, "lat": 39.2154674, "lon": 9.1129311, "tags": {"amenity": "restaurant", "cuisine": "pizza", "name": "Dulcis Pasticceria", "wheelchair": "no"}}, {"type": "node", "id": 3799051799, "lat": 39.2156373, "lon": 9.1113282, "tags": {"amenity": "cafe", "cuisine": "italian", "name": "Originis", "wheelchair": "no"}}, {"type": "node", "id": 3805643379, "lat": 39.2195938, "lon": 9.1118686, "tags": {"addr:city": "Cagliari", "addr:housenumber": "20", "addr:street": "Via Ospedale", "amenity": "restaurant", "cuisine": "pizza", "delivery": "yes", "name": "Da Massimo", "phone": "+39 070 3111130", "takeaway": "yes"}}, {"type": "node", "id": 3818550144, "lat": 39.2706292, "lon": 9.124156, "tags": {"amenity": "cafe"}}, {"type": "node", "id": 3824509668, "lat": 39.2187849, "lon": 9.107858, "tags": {"addr:city": "Cagliari", "addr:housenumber": "14", "addr:postcode": "09123", "addr:street": "Via Caprera", "amenity": "restaurant", "name": "Slot"}}, {"type": "node", "id": 3875818729, "lat": 39.1388244, "lon": 9.4865131, "tags": {"addr:city": "Villasimius", "addr:housenumber": "30", "addr:postcode": "09049", "addr:street": "Via Cagliari", "amenity": "restaurant", "cuisine": "italian", "name": "Su Giganti", "source": "Regione Autonoma della Sardegna"}}, {"type": "node", "id": 3875818731, "lat": 39.1360304, "lon": 9.4842108, "tags": {"amenity": "restaurant", "name": "Il Miraggio"}}, {"type": "node", "id": 3957217768, "lat": 39.2257018, "lon": 9.1250673, "tags": {"amenity": "cafe", "name": "Siddharta Bar Caffetteria"}}, {"type": "node", "id": 3957217770, "lat": 39.2266546, "lon": 9.1303476, "tags": {"addr:housenumber": "56", "addr:street": "Via Guglielmo Marconi", "amenity": "cafe", "name": "Pasticceria Deidda"}}, {"type": "node", "id": 3957252683, "lat": 39.2184136, "lon": 9.1197889, "tags": {"addr:housenumber": "77", "addr:street": "Via San Domenico", "amenity": "restaurant", "name": "Il Fantasma 2"}}, {"type": "node", "id": 3959616709, "lat": 39.2165681, "lon": 9.1117677, "tags": {"addr:housenumber": "54", "addr:street": "Via Giovanni Maria Angioy", "amenity": "restaurant", "name": "La Contra"}}, {"type": "node", "id": 3959628691, "lat": 39.2148565, "lon": 9.1135125, "tags": {"addr:city": "Cagliari", "addr:housenumber": "63", "addr:street": "Via Barcellona", "amenity": "restaurant", "check_date": "2023-08-31", "name": "Namast\u00e8", "outdoor_seating": "yes", "toilets:wheelchair": "no", "wheelchair": "limited"}}, {"type": "node", "id": 4027722428, "lat": 39.2148396, "lon": 9.1123383, "tags": {"amenity": "cafe", "cuisine": "dessert", "name": "Dulcis", "wheelchair": "no"}}, {"type": "node", "id": 4028006691, "lat": 39.21355, "lon": 9.1191454, "tags": {"addr:housenumber": "77", "addr:street": "Via Lanusei", "amenity": "cafe", "internet_access": "no", "name": "Caffetteria Alina", "opening_hours": "Mo-Su", "toilets:wheelchair": "no", "wheelchair": "limited"}}, {"type": "node", "id": 4028007321, "lat": 39.2118641, "lon": 9.1172379, "tags": {"amenity": "cafe", "name": "Ic kone"}}, {"type": "node", "id": 4028059589, "lat": 39.2113054, "lon": 9.1189433, "tags": {"amenity": "cafe"}}, {"type": "node", "id": 4028060108, "lat": 39.2112842, "lon": 9.1191428, "tags": {"amenity": "restaurant", "cuisine": "asian", "name": "Mi Asian", "takeaway": "yes", "wheelchair": "no"}}, {"type": "node", "id": 4036184660, "lat": 39.2199478, "lon": 9.106537, "tags": {"addr:city": "Cagliari", "addr:housenumber": "124", "addr:street": "Via Goffredo Mameli", "amenity": "restaurant", "check_date": "2023-06-23", "cuisine": "mexican", "diet:vegan": "yes", "diet:vegetarian": "yes", "name": "Taqueria Mexicana El Burrito", "payment:mastercard": "yes", "payment:visa": "yes", "smoking": "outside", "takeaway": "yes"}}, {"type": "node", "id": 4036528315, "lat": 39.2198929, "lon": 9.1058227, "tags": {"addr:city": "Cagliari", "addr:housenumber": "76", "addr:street": "Via Carloforte", "amenity": "restaurant", "cuisine": "italian", "name": "Jazzino", "smoking": "outside", "takeaway": "no"}}, {"type": "node", "id": 4053992846, "lat": 39.2119668, "lon": 9.1145686, "tags": {"amenity": "restaurant", "check_date": "2023-09-07", "name": "Hublot", "outdoor_seating": "yes", "seamark:small_craft_facility:category": "restaurant", "seamark:type": "small_craft_facility", "wheelchair": "yes"}}, {"type": "node", "id": 4053992863, "lat": 39.2118712, "lon": 9.1139463, "tags": {"amenity": "restaurant", "name": "Trattoria del Porto", "seamark:small_craft_facility:category": "restaurant", "seamark:type": "small_craft_facility"}}, {"type": "node", "id": 4054004903, "lat": 39.218123, "lon": 9.1168848, "tags": {"amenity": "cafe", "name": "Caffe delle Arti", "outdoor_seating": "yes", "wheelchair": "no"}}, {"type": "node", "id": 4054004906, "lat": 39.2188918, "lon": 9.1149878, "tags": {"amenity": "cafe", "outdoor_seating": "yes", "wheelchair": "no"}}, {"type": "node", "id": 4054004914, "lat": 39.2285996, "lon": 9.216215, "tags": {"amenity": "cafe", "name": "Zen", "wheelchair": "yes"}}, {"type": "node", "id": 4059513673, "lat": 39.2127075, "lon": 9.1153529, "tags": {"addr:city": "Cagliari", "addr:housenumber": "8", "addr:street": "Viale Regina Margherita", "amenity": "restaurant", "check_date": "2023-09-12", "indoor_seating": "yes", "name": "Civico 8", "outdoor_seating": "yes"}}, {"type": "node", "id": 4107055950, "lat": 39.2555382, "lon": 9.1656567, "tags": {"addr:city": "Selargius", "addr:housenumber": "21a", "addr:postcode": "09047", "addr:street": "Via Milazzo", "amenity": "restaurant", "cuisine": "pizza", "name": "L'elfo", "phone": "+39 070 8607049", "takeaway": "yes"}}, {"type": "node", "id": 4121634284, "lat": 39.2063151, "lon": 9.1655414, "tags": {"amenity": "cafe", "name": "Twist", "toilets:wheelchair": "yes", "wheelchair": "yes"}}, {"type": "node", "id": 4121664990, "lat": 39.1979447, "lon": 9.1595563, "tags": {"addr:city": "Casteddu/Cagliari", "addr:housenumber": "170", "addr:street": "Viale Poetto", "amenity": "restaurant", "cuisine": "mexican", "name": "Insomnia Caf\u00e8", "wheelchair": "yes"}}, {"type": "node", "id": 4139163082, "lat": 39.2172739, "lon": 9.1182683, "tags": {"addr:city": "Cagliari", "addr:country": "IT", "addr:housenumber": "12", "addr:postcode": "09127", "addr:province": "Cagliari", "addr:street": "Via Antonio Giovanni Piccioni", "addr:suburb": "Villanova", "amenity": "cafe", "name": "Le Streghe", "opening_hours": "Tu-Sa 12:00-24:00, Su 19:00-24:00"}}, {"type": "node", "id": 4139163083, "lat": 39.2171571, "lon": 9.1182209, "tags": {"amenity": "restaurant", "cuisine": "italian", "name": "Royal Trattoria Toscana"}}, {"type": "node", "id": 4228863349, "lat": 39.2373395, "lon": 9.1058273, "tags": {"addr:city": "Cagliari", "addr:housenumber": "1", "addr:street": "Via Fontana Raminosa", "amenity": "cafe", "name": "Moka Domns Cafe", "source": "Regione Autonoma della Sardegna (www.sardegnageoportale.it)"}}, {"type": "node", "id": 4228879586, "lat": 39.2360459, "lon": 9.1084654, "tags": {"addr:city": "Cagliari", "addr:housenumber": "103c", "addr:street": "Via Is Mirrionis", "amenity": "cafe", "name": "Caffe Colombia", "opening_hours": "Mo-Su 05:00-20:00", "source": "Regione Autonoma della Sardegna (www.sardegnageoportale.it)"}}, {"type": "node", "id": 4228895547, "lat": 39.2372423, "lon": 9.1048372, "tags": {"addr:city": "Cagliari", "addr:housenumber": "104", "addr:street": "Via Is Mirrionis", "amenity": "restaurant", "cuisine": "hot_dog", "name": "Mordi: storie di carne", "source": "Regione Autonoma della Sardegna (www.sardegnageoportale.it)"}}, {"type": "node", "id": 4228895579, "lat": 39.2363898, "lon": 9.1115839, "tags": {"addr:city": "Cagliari", "addr:housenumber": "10a", "addr:street": "Via del Seminario", "amenity": "restaurant", "name": "Il picolo Drago", "source": "Regione Autonoma della Sardegna (www.sardegnageoportale.it)"}}, {"type": "node", "id": 4228905898, "lat": 39.21275, "lon": 9.115382, "tags": {"addr:city": "Cagliari", "addr:housenumber": "10", "addr:street": "Viale Regina Margherita", "amenity": "restaurant", "check_date": "2023-09-12", "contact:facebook": "https://www.facebook.com/PITHSmokehouse/", "contact:phone": "070 640 7654", "cuisine": "barbecue", "indoor_seating": "yes", "name": "PITH Smokehouse", "opening_hours": "Mo-Su 12:00-15:00,19:00-23:00; Fr,Sa 12:00-15:00,19:00-23:30", "outdoor_seating": "yes", "source": "Regione Autonoma della Sardegna (www.sardegnageoportale.it)"}}, {"type": "node", "id": 4228917345, "lat": 39.2109252, "lon": 9.1167906, "tags": {"addr:city": "Cagliari", "addr:housenumber": "12;5", "addr:postcode": "09125", "addr:street": "Via Campidano;Via Emilio Pirastu", "amenity": "cafe", "internet_access": "yes", "internet_access:fee": "customers", "name": "Bar sotto il mare", "outdoor_seating": "no", "source": "Regione Autonoma della Sardegna (www.sardegnageoportale.it)"}}, {"type": "node", "id": 4228923351, "lat": 39.2182347, "lon": 9.1108199, "tags": {"addr:city": "Cagliari", "addr:housenumber": "106", "addr:street": "Corso Vittorio Emanuele Secondo", "amenity": "restaurant", "cuisine": "ramen", "fixme": "add bar tag in ID", "name": "Tao Ramen Bar"}}, {"type": "node", "id": 4228932505, "lat": 39.2312824, "lon": 9.0945547, "tags": {"addr:city": "Cagliari", "addr:housenumber": "123", "addr:street": "Via Santa Gilla", "amenity": "restaurant", "cuisine": "seafood", "name": "La Balena", "phone": "+39 070 288415", "source": "Regione Autonoma della Sardegna (www.sardegnageoportale.it)", "toilets": "yes", "toilets:access": "customers", "toilets:wheelchair": "yes", "website": "https://www.facebook.com/La-Balena-165034936843731/", "wheelchair": "yes"}}, {"type": "node", "id": 4228935802, "lat": 39.2189741, "lon": 9.1063075, "tags": {"addr:city": "Cagliari", "addr:housenumber": "12", "addr:street": "Via 29 Novembre 1847", "amenity": "restaurant", "cuisine": "burger;american", "name": "Shout american diner", "phone": "+39 070 733 5997", "source": "Regione Autonoma della Sardegna (www.sardegnageoportale.it);survey", "website": "https://shoutamericandiner.business.site/?m=true"}}, {"type": "node", "id": 4228937640, "lat": 39.2254037, "lon": 9.1016758, "tags": {"addr:city": "Cagliari", "addr:housenumber": "110", "addr:street": "Viale Trento", "amenity": "restaurant", "cuisine": "pizza", "name": "Re Art\u00f9", "source": "Regione Autonoma della Sardegna (www.sardegnageoportale.it)", "website": "070 73 31 917"}}, {"type": "node", "id": 4228944510, "lat": 39.2085935, "lon": 9.1680261, "tags": {"addr:city": "Cagliari", "addr:housenumber": "115", "addr:street": "Viale Poetto", "amenity": "cafe", "name": "Il miraggio", "source": "Regione Autonoma della Sardegna (www.sardegnageoportale.it)", "toilets:wheelchair": "yes", "wheelchair": "yes"}}, {"type": "node", "id": 4228950167, "lat": 39.2376692, "lon": 9.1069756, "tags": {"addr:city": "Cagliari", "addr:housenumber": "12", "addr:street": "Via Buggerru", "amenity": "cafe", "name": "Moka Domns", "source": "Regione Autonoma della Sardegna (www.sardegnageoportale.it)"}}, {"type": "node", "id": 4228955162, "lat": 39.2412479, "lon": 9.1210693, "tags": {"addr:city": "Cagliari", "addr:housenumber": "140", "addr:street": "Via Santa Maria Chiara", "amenity": "cafe", "cuisine": "breakfast;coffee_shop;sandwich", "name": "IQOS PREMIUM PARTNER CAGLIARI", "opening_hours": "Mo-Sa 05:30-20:30", "phone": "070 505608", "source": "Regione Autonoma della Sardegna (www.sardegnageoportale.it)", "website": "https://it.iqos.com/it"}}, {"type": "node", "id": 4228971771, "lat": 39.2152079, "lon": 9.116183, "tags": {"addr:city": "Cagliari", "addr:housenumber": "13", "addr:postcode": "09124", "addr:street": "Via Torino", "amenity": "cafe", "cuisine": "tapas;italian", "name": "diSiGio Winebar", "source": "Regione Autonoma della Sardegna (www.sardegnageoportale.it)"}}, {"type": "node", "id": 4228972832, "lat": 39.2158332, "lon": 9.1187471, "tags": {"addr:city": "Cagliari", "addr:housenumber": "13", "addr:street": "Via Iglesias", "amenity": "restaurant", "cuisine": "kebab", "indoor_seating": "yes", "name": "Inshalla  Kebabberia", "outdoor_seating": "no", "payment:credit_cards": "yes", "payment:debit_cards": "yes", "source": "survey", "wheelchair": "no"}}, {"type": "node", "id": 4228977913, "lat": 39.2151342, "lon": 9.1266185, "tags": {"addr:city": "Cagliari", "addr:housenumber": "14", "addr:street": "Via Enrico Gianturco", "amenity": "restaurant", "cuisine": "japanese", "name": "Bent\u014d", "source": "Regione Autonoma della Sardegna (www.sardegnageoportale.it)", "takeaway": "yes"}}, {"type": "node", "id": 4228978590, "lat": 39.2376747, "lon": 9.1031792, "tags": {"addr:city": "Cagliari", "addr:housenumber": "136", "addr:street": "Via Is Mirrionis", "amenity": "cafe", "name": "Mam\u00f9", "source": "Regione Autonoma della Sardegna (www.sardegnageoportale.it)"}}, {"type": "node", "id": 4228979569, "lat": 39.2156001, "lon": 9.1098226, "tags": {"addr:city": "Cagliari", "addr:housenumber": "153", "addr:street": "Via Roma", "amenity": "cafe", "name": "Capitol", "source": "Regione Autonoma della Sardegna (www.sardegnageoportale.it)", "wheelchair": "no"}}, {"type": "node", "id": 4228981993, "lat": 39.2129072, "lon": 9.115524, "tags": {"addr:city": "Cagliari", "addr:housenumber": "14", "addr:street": "Viale Regina Margherita", "amenity": "restaurant", "contact:facebook": "https://www.facebook.com/nextfoodandlounge/", "contact:phone": "+39 070 654 464", "cuisine": "italian", "name": "Next Food Lounge", "opening_hours": "Mo-Sa 12:00-15:00,16:00-23:00", "payment:cash": "yes", "payment:mastercard": "yes", "payment:visa": "yes", "source": "Regione Autonoma della Sardegna (www.sardegnageoportale.it)"}}, {"type": "node", "id": 4228989968, "lat": 39.2364089, "lon": 9.107614, "tags": {"addr:city": "Cagliari", "addr:housenumber": "147", "addr:street": "Via Is Mirrionis", "amenity": "cafe", "name": "Il Dolce Risvegilo", "source": "Regione Autonoma della Sardegna (www.sardegnageoportale.it)"}}, {"type": "node", "id": 4229004036, "lat": 39.2377554, "lon": 9.1023081, "tags": {"addr:city": "Cagliari", "addr:housenumber": "152a", "addr:street": "Via Is Mirrionis", "amenity": "cafe", "name": "ZeroNove", "source": "Regione Autonoma della Sardegna (www.sardegnageoportale.it)"}}, {"type": "node", "id": 4229019489, "lat": 39.215836, "lon": 9.1092798, "tags": {"addr:city": "Cagliari", "addr:housenumber": "163", "addr:postcode": "09124", "addr:street": "Via Roma", "amenity": "cafe", "indoor_seating": "yes", "name": "Central Station lounge bar", "outdoor_seating": "no", "source": "Regione Autonoma della Sardegna (www.sardegnageoportale.it)", "wheelchair": "yes"}}, {"type": "node", "id": 4229024417, "lat": 39.2184033, "lon": 9.1151423, "tags": {"addr:city": "Cagliari", "addr:housenumber": "17", "addr:street": "Via Santa Croce", "amenity": "restaurant", "name": "Osteria Su Tzilleri 'e su Doge", "name:it": "Osteria Su Tzilleri 'e su Doge di Claudio Ara", "source": "Regione Autonoma della Sardegna (www.sardegnageoportale.it)"}}, {"type": "node", "id": 4229026813, "lat": 39.2375539, "lon": 9.1009898, "tags": {"addr:city": "Cagliari", "addr:housenumber": "178", "addr:street": "Via Is Mirrionis", "amenity": "cafe", "name": "Caffetteria Ruiu", "source": "Regione Autonoma della Sardegna (www.sardegnageoportale.it)"}}, {"type": "node", "id": 4229028794, "lat": 39.2239315, "lon": 9.1250096, "tags": {"addr:city": "Cagliari", "addr:housenumber": "176", "addr:street": "Via Dante Alighieri", "amenity": "restaurant", "cuisine": "kebab", "source": "Regione Autonoma della Sardegna (www.sardegnageoportale.it)"}}, {"type": "node", "id": 4229032904, "lat": 39.2130102, "lon": 9.1156008, "tags": {"addr:city": "Cagliari", "addr:housenumber": "18", "addr:street": "Viale Regina Margherita", "amenity": "restaurant", "contact:email": "info@luigipomata.com", "contact:phone": "+39 070 672 058", "contact:website": "http://www.luigipomata.com", "name": "Luigi Pomata", "opening_hours": "Mo-Sa 13:00-15:00,20:00-23:15", "source": "Regione Autonoma della Sardegna (www.sardegnageoportale.it)"}}, {"type": "node", "id": 4229034558, "lat": 39.2349971, "lon": 9.1042375, "tags": {"addr:city": "Cagliari", "addr:housenumber": "19", "addr:street": "Via Timavo", "amenity": "restaurant", "cuisine": "pizza", "name": "La boutique della Pizza", "source": "Regione Autonoma della Sardegna (www.sardegnageoportale.it)"}}, {"type": "node", "id": 4229048109, "lat": 39.215202, "lon": 9.1177661, "tags": {"addr:city": "Cagliari", "addr:housenumber": "20", "addr:street": "Via Costituzione", "amenity": "restaurant", "cuisine": "regional;sardinian;pizza", "facebook": "https://www.facebook.com/Pizzeria-SA-TRACCA-165812735195/", "name": "Pizzeria Ristorante Sa Tracca", "opening_hours": "Tu-Fr 12:30-15:00,20:00-23:30; Sa,Su 20:00-23:30", "phone": "+39 070 658027", "source": "Regione Autonoma della Sardegna (www.sardegnageoportale.it)", "takeaway": "yes", "wheelchair": "limited"}}, {"type": "node", "id": 4229055796, "lat": 39.2119955, "lon": 9.1140988, "tags": {"addr:city": "Cagliari", "addr:housenumber": "2", "addr:postcode": "09123", "addr:street": "Via Roma", "amenity": "cafe", "name": "Hublot", "seamark:small_craft_facility:category": "restaurant", "seamark:type": "small_craft_facility", "source": "Regione Autonoma della Sardegna (www.sardegnageoportale.it)", "wheelchair": "yes"}}, {"type": "node", "id": 4229065898, "lat": 39.2332868, "lon": 9.1122235, "tags": {"addr:city": "Cagliari", "addr:housenumber": "20b", "addr:street": "Via Campania", "amenity": "cafe", "name": "Bar Giardino", "source": "Regione Autonoma della Sardegna (www.sardegnageoportale.it)"}}, {"type": "node", "id": 4229071019, "lat": 39.219356, "lon": 9.1094588, "tags": {"addr:city": "Cagliari", "addr:housenumber": "219", "addr:postcode": "09124", "addr:street": "Corso Vittorio Emanuele II", "amenity": "restaurant", "indoor_seating": "yes", "name": "ZioTom", "opening_hours": "Mo-Tu, Th 12:00-15:00, 19:00-22:30; Fr-Sa 12:00-15:00, 19:00-23:30; Su 12:00-15:00", "outdoor_seating": "yes", "source": "Regione Autonoma della Sardegna (www.sardegnageoportale.it)", "website": "http://ziotompasta.com"}}, {"type": "node", "id": 4229074583, "lat": 39.2188099, "lon": 9.122657, "tags": {"addr:city": "Cagliari", "addr:housenumber": "22", "addr:postcode": "09127", "addr:street": "Via Salvatore Farina", "amenity": "restaurant", "capacity": "20", "cuisine": "italian", "indoor_seating": "yes", "name": "Zupposofia", "note": "Luned\u00ec (solo a cena) al Sabato", "outdoor_seating": "no", "phone": "+39 380 2634150", "source": "Regione Autonoma della Sardegna (www.sardegnageoportale.it)", "takeaway": "yes", "website": "http://www.zupposofia.it/"}}, {"type": "node", "id": 4229075825, "lat": 39.2134223, "lon": 9.1159145, "tags": {"addr:city": "Cagliari", "addr:housenumber": "28", "addr:street": "Viale Regina Margherita", "amenity": "restaurant", "contact:email": "dalcorsaro@tiscali.it", "contact:facebook": "https://www.facebook.com/Ristorante-Dal-Corsaro-297630203614168/", "contact:phone": "070 664 318", "contact:website": "https://www.stefanodeidda.it", "cuisine": "italian", "name": "Dal Corsaro", "note": "Due ristoranti in sale separate, all'interno del medeismo locale", "opening_hours": "Tu-Su 19:45-23:15", "payment:american_express": "yes", "payment:cash": "yes", "payment:mastercard": "yes", "payment:visa": "yes", "source": "Regione Autonoma della Sardegna (www.sardegnageoportale.it)", "start_date": "2011-12-27"}}, {"type": "node", "id": 4229079624, "lat": 39.2132026, "lon": 9.1157496, "tags": {"addr:city": "Cagliari", "addr:housenumber": "22", "addr:street": "Viale Regina Margherita", "amenity": "restaurant", "contact:email": "lapiratacagliari@gmail.com", "contact:facebook": "https://www.facebook.com/La-Pirata-829234357204025/", "contact:phone": "+39 070 658474", "cuisine": "italian;fish", "name": "La Pirata", "source": "Regione Autonoma della Sardegna (www.sardegnageoportale.it)"}}, {"type": "node", "id": 4229080091, "lat": 39.2187675, "lon": 9.1135878, "tags": {"addr:city": "Cagliari", "addr:housenumber": "22", "addr:postcode": "09124", "addr:street": "Via Santa Margherita", "amenity": "restaurant", "cuisine": "italian", "name": "Semino", "source": "Regione Autonoma della Sardegna (www.sardegnageoportale.it)"}}, {"type": "node", "id": 4229080111, "lat": 39.2204155, "lon": 9.11892, "tags": {"addr:city": "Cagliari", "addr:housenumber": "222", "addr:street": "Via San Giovanni", "amenity": "restaurant", "name": "Le Notre R\u00eave", "name:it": "Le Notre R\u00eave", "source": "Regione Autonoma della Sardegna (www.sardegnageoportale.it)"}}, {"type": "node", "id": 4229083489, "lat": 39.2151331, "lon": 9.1169753, "tags": {"addr:city": "Cagliari", "addr:housenumber": "23", "addr:street": "Piazza Costituzione", "amenity": "restaurant", "indoor_seating": "yes", "name": "Pizza & Grill", "outdoor_seating": "yes"}}, {"type": "node", "id": 4229085853, "lat": 39.2127472, "lon": 9.1160355, "tags": {"addr:city": "Cagliari", "addr:housenumber": "29", "addr:street": "Viale Regina Margherita", "amenity": "restaurant", "indoor_seating": "yes", "name": "Fritto Mania", "opening_hours": "12:00-15:00, 19:00-23:00", "outdoor_seating": "no", "phone": "+39 338 8373158", "source": "Regione Autonoma della Sardegna (www.sardegnageoportale.it)"}}, {"type": "node", "id": 4229089478, "lat": 39.2261328, "lon": 9.1250991, "tags": {"addr:city": "Cagliari", "addr:housenumber": "240", "addr:street": "Via Dante Alighieri", "amenity": "restaurant", "cuisine": "asian", "name": "Ginza", "phone": "070 451 5045", "source": "Regione Autonoma della Sardegna (www.sardegnageoportale.it)", "takeaway": "yes", "wheelchair": "no"}}, {"type": "node", "id": 4229094999, "lat": 39.2256354, "lon": 9.127685, "tags": {"addr:city": "Cagliari", "addr:housenumber": "35", "addr:street": "Via Pietro Cavaro", "amenity": "restaurant", "cuisine": "pizza;italian", "name": "My Flower", "opening_hours": "Mo-Su 19:30-23:30; Tu off", "source": "Regione Autonoma della Sardegna (www.sardegnageoportale.it)"}}, {"type": "node", "id": 4229095790, "lat": 39.2163135, "lon": 9.113547, "tags": {"addr:city": "Cagliari", "addr:housenumber": "26", "addr:street": "Via Giovanni Maria Dettori", "amenity": "restaurant", "cuisine": "poke;sushi_burrito", "name": "Makito Casteddu", "opening_hours": "Mo-Su 12:00-15:00, 18:00-23:00", "phone": "+390706497860", "source": "Regione Autonoma della Sardegna (www.sardegnageoportale.it);local knowledge", "website": "https://makito.io/"}}, {"type": "node", "id": 4229095974, "lat": 39.2257092, "lon": 9.1239947, "tags": {"addr:city": "Cagliari", "addr:housenumber": "33", "addr:street": "Via Francesco Salaris", "amenity": "cafe", "name": "Verde Bilardo", "opening_hours": "Mo-We 13:00-03:00, Th 14:00-03:00, Fr 13:00-03:00, Sa 14:00-04:00, Su 15:00-02:00", "source": "Regione Autonoma della Sardegna (www.sardegnageoportale.it)", "sport": "billiards"}}, {"type": "node", "id": 4229097855, "lat": 39.2188161, "lon": 9.1139631, "tags": {"addr:city": "Cagliari", "addr:housenumber": "3", "addr:street": "Vico Santa Margherita", "amenity": "restaurant", "cuisine": "regional;sardinian", "email": "sapiolaristorante@gmail.com", "facebook": "https://www.facebook.com/RistoranteSaPiola", "name": "Ristorante Sa Piola", "opening_hours": "Mo-Sa 12:00-16:00,19:00-00:00; Su 12:00-16:00,19:00-24:00", "phone": "+39 070 666714", "source": "Regione Autonoma della Sardegna (www.sardegnageoportale.it)"}}, {"type": "node", "id": 4229101106, "lat": 39.240714, "lon": 9.1029905, "tags": {"addr:city": "Cagliari", "addr:housenumber": "27b", "addr:street": "Via Mandrolisai", "amenity": "restaurant", "cuisine": "pizza", "name": "Pizzeria Evolution 2", "source": "Regione Autonoma della Sardegna (www.sardegnageoportale.it)"}}, {"type": "node", "id": 4229105889, "lat": 39.2283139, "lon": 9.1177218, "tags": {"addr:city": "Cagliari", "addr:housenumber": "2", "addr:postcode": "09127", "addr:street": "Via Molise", "amenity": "restaurant", "cuisine": "pizza", "name": "Pizzria Nicolino", "phone": "070 402084", "source": "Regione Autonoma della Sardegna (www.sardegnageoportale.it)"}}, {"type": "node", "id": 4229116506, "lat": 39.2158513, "lon": 9.117, "tags": {"addr:city": "Cagliari", "addr:housenumber": "3", "addr:street": "Viale Regina Elena", "amenity": "restaurant", "cuisine": "italian", "internet_access": "wlan", "name": "IL Bastione", "name:ru": "IL Bastione", "opening_hours": "Mo-Su 07:00-23:00", "phone": "070660372", "source": "Regione Autonoma della Sardegna (www.sardegnageoportale.it)"}}, {"type": "node", "id": 4229119521, "lat": 39.2344966, "lon": 9.1107999, "tags": {"addr:city": "Cagliari", "addr:housenumber": "31", "addr:street": "Via Is Mirrionis", "amenity": "restaurant", "cuisine": "pokebowl, burritos, tacos", "description": "powered by GlustoGusto", "diet:vegan": "yes", "diet:vegetarian": "yes", "name": "Pockettino", "opening_hours": "Mo-Su 11:45-14:45, 18:45-22:45", "source": "Regione Autonoma della Sardegna (www.sardegnageoportale.it)"}}, {"type": "node", "id": 4229119981, "lat": 39.2208927, "lon": 9.1082257, "tags": {"addr:city": "Cagliari", "addr:housenumber": "32", "addr:street": "Via Tigellio", "amenity": "restaurant", "cuisine": "italian", "name": "Ricercato", "phone": "346 602 5808", "source": "Regione Autonoma della Sardegna (www.sardegnageoportale.it)"}}, {"type": "node", "id": 4229127914, "lat": 39.2194013, "lon": 9.1118659, "tags": {"addr:city": "Cagliari", "addr:housenumber": "33b", "addr:street": "Via Ospedale", "amenity": "restaurant", "name": "Pizzeria Cerere", "source": "Regione Autonoma della Sardegna (www.sardegnageoportale.it)"}}, {"type": "node", "id": 4229140963, "lat": 39.215051, "lon": 9.1125564, "tags": {"addr:city": "Cagliari", "addr:housenumber": "39", "addr:street": "Via Lodovico Baylle", "amenity": "restaurant", "contact:mobile": "+39 342 8354776", "cuisine": "regional;sardinian", "facebook": "https://www.facebook.com/ristorantesaschironada/", "internet_access": "wlan", "name": "Sa Schironada", "opening_hours": "Mo-Su 11:00-23:00", "phone": "+39 070 680570", "source": "Regione Autonoma della Sardegna (www.sardegnageoportale.it)", "website": "https://www.saschironada.it/", "wheelchair": "yes"}}, {"type": "node", "id": 4229452491, "lat": 39.2159635, "lon": 9.1133814, "tags": {"addr:city": "Cagliari", "addr:housenumber": "4", "addr:street": "Via Savoia", "amenity": "restaurant", "cuisine": "regional,_pizza,_italian", "name": "Impasto", "source": "Regione Autonoma della Sardegna (www.sardegnageoportale.it);local knowledge", "wheelchair": "no"}}, {"type": "node", "id": 4229476692, "lat": 39.2158427, "lon": 9.1182181, "tags": {"addr:city": "Cagliari", "addr:housenumber": "3a", "addr:postcode": "09127", "addr:street": "Via Iglesias", "amenity": "cafe", "brewery": "Guinness", "name": "Grineat", "opening_hours": "Mo-Sa 10:00-20:00", "phone": "340 665 0854", "source": "Regione Autonoma della Sardegna (www.sardegnageoportale.it)"}}, {"type": "node", "id": 4229489757, "lat": 39.225437, "lon": 9.1279245, "tags": {"addr:city": "Cagliari", "addr:housenumber": "40", "addr:postcode": "09131", "addr:street": "Via Pietro Cavaro", "amenity": "restaurant", "cuisine": "pizza", "name": "Pizzeria Roma", "opening_hours": "We-Su 18:00-22:45", "source": "Regione Autonoma della Sardegna (www.sardegnageoportale.it)"}}, {"type": "node", "id": 4229501323, "lat": 39.2236628, "lon": 9.1151863}, {"type": "node", "id": 4229503283, "lat": 39.2192911, "lon": 9.1148661, "tags": {"addr:city": "Cagliari", "addr:housenumber": "51", "addr:postcode": "09124", "addr:street": "Via Santa Croce", "amenity": "restaurant", "name": "Ristorante Pani e Casu Cagliari", "opening_hours": "Tu-Su 13:00-15:00, 20:30-23:00", "source": "Regione Autonoma della Sardegna (www.sardegnageoportale.it)"}}, {"type": "node", "id": 4229514603, "lat": 39.2379898, "lon": 9.1081794, "tags": {"addr:city": "Cagliari", "addr:housenumber": "41", "addr:street": "Via La Nurra", "amenity": "restaurant", "cuisine": "pizza", "name": "Pizzeria da Gianni", "source": "Regione Autonoma della Sardegna (www.sardegnageoportale.it)", "takeaway": "yes"}}, {"type": "node", "id": 4229515898, "lat": 39.2147022, "lon": 9.1124524, "tags": {"addr:city": "Cagliari", "addr:housenumber": "43", "addr:street": "Via Sardegna", "amenity": "restaurant", "cuisine": "italian", "name": "Ci pensa Cannas", "source": "Regione Autonoma della Sardegna (www.sardegnageoportale.it)"}}, {"type": "node", "id": 4229518625, "lat": 39.2370401, "lon": 9.1026212, "tags": {"addr:city": "Cagliari", "addr:housenumber": "42", "addr:street": "Via Trincea delle Frasche", "amenity": "cafe", "name": "il Mito", "source": "Regione Autonoma della Sardegna (www.sardegnageoportale.it)"}}, {"type": "node", "id": 4229531605, "lat": 39.2193514, "lon": 9.1297864, "tags": {"addr:city": "Cagliari", "addr:housenumber": "45", "addr:street": "Via Giovanni Battista Tuveri", "amenity": "cafe", "name": "Il Baronetto", "source": "Regione Autonoma della Sardegna (www.sardegnageoportale.it)"}}, {"type": "node", "id": 4229535991, "lat": 39.233461, "lon": 9.1124271, "tags": {"addr:city": "Cagliari", "addr:housenumber": "45a", "addr:street": "Via Campania", "amenity": "restaurant", "bar": "yes", "cuisine": "local;pasta;seafood", "diet:meat": "yes", "diet:mediterranean": "yes", "diet:non-vegetarian": "yes", "diet:seafood": "yes", "diet:vegetarian": "yes", "loc_name:pl": "Restauracja Pana Dresa", "microbrewery": "no", "name": "Porta Portese", "payment:cash": "yes", "payment:contactless": "yes", "payment:credit_cards": "yes", "payment:debit_cards": "yes", "source": "Regione Autonoma della Sardegna (www.sardegnageoportale.it)", "toilets": "yes"}}, {"type": "node", "id": 4229537802, "lat": 39.2360577, "lon": 9.1037234, "tags": {"addr:city": "Cagliari", "addr:housenumber": "50", "addr:street": "Via Monte Santo", "amenity": "restaurant", "cuisine": "pizza", "name": "XL", "source": "Regione Autonoma della Sardegna (www.sardegnageoportale.it)"}}, {"type": "node", "id": 4229551600, "lat": 39.2372045, "lon": 9.1030677, "tags": {"addr:city": "Cagliari", "addr:housenumber": "53", "addr:street": "Via Trincea delle Frasche", "amenity": "cafe", "name": "Dolce e Salato", "source": "Regione Autonoma della Sardegna (www.sardegnageoportale.it)"}}, {"type": "node", "id": 4229570698, "lat": 39.216151, "lon": 9.1154073, "tags": {"addr:city": "Cagliari", "addr:housenumber": "5", "addr:street": "Via Gaetano Cima", "amenity": "cafe", "name": "Choco & Tea", "source": "Regione Autonoma della Sardegna (www.sardegnageoportale.it)", "wheelchair": "no"}}, {"type": "node", "id": 4229588036, "lat": 39.2335704, "lon": 9.1122703, "tags": {"addr:city": "Cagliari", "addr:housenumber": "53", "addr:street": "Via Campania", "amenity": "cafe", "name": "Al Baretto", "opening_hours": "Mo-Sa 06:00-21:00; Su 06:00-14:00, 16:00-21:00", "source": "Regione Autonoma della Sardegna (www.sardegnageoportale.it)"}}, {"type": "node", "id": 4229592101, "lat": 39.2153576, "lon": 9.1134376, "tags": {"addr:city": "Cagliari", "addr:housenumber": "55", "addr:street": "Via Napoli", "amenity": "restaurant", "cuisine": "kyrgyz", "name": "Nasip", "source": "Regione Autonoma della Sardegna (www.sardegnageoportale.it)"}}, {"type": "node", "id": 4229592162, "lat": 39.2335844, "lon": 9.1121777, "tags": {"addr:city": "Cagliari", "addr:housenumber": "57", "addr:street": "Via Campania", "amenity": "cafe", "name": "Cin Cin Blues Cafe", "phone": "333 133 6678", "source": "Regione Autonoma della Sardegna (www.sardegnageoportale.it)"}}, {"type": "node", "id": 4229594112, "lat": 39.2182445, "lon": 9.1277638, "tags": {"addr:city": "Cagliari", "addr:housenumber": "56a", "addr:street": "Via Giovanni Battista Tuveri", "amenity": "cafe", "name": "Nuestro bar", "source": "Regione Autonoma della Sardegna (www.sardegnageoportale.it)"}}, {"type": "node", "id": 4229597720, "lat": 39.2141064, "lon": 9.1220636, "tags": {"addr:city": "Cagliari", "addr:housenumber": "6", "addr:postcode": "09127", "addr:street": "Piazza San Cosimo", "amenity": "cafe", "contact:instagram": "micibocatcafecagliari", "cuisine": "breakfast;cake;pancake;tea", "facebook": "https://www.facebook.com/micibocatcafecagliari", "name": "Micibo Cat Caf\u00e8", "name:en": "Micibo Cat Cafe", "opening_hours": "Mo-Sa 16:00-21:00", "phone": "338 568 7971", "source": "Survey", "theme": "cat"}}, {"type": "node", "id": 4229607705, "lat": 39.2142111, "lon": 9.1134264, "tags": {"addr:city": "Cagliari", "addr:housenumber": "60c", "addr:street": "Via Sardegna", "amenity": "restaurant", "check_date": "2023-09-10", "contact:email": "trattoriagennargentu@tiscali.it", "contact:facebook": "https://www.facebook.com/Trattoria-Gennargentu-1064390823632589/", "contact:phone": "+39 373 865 9682", "cuisine": "regional;sardinian", "name": "Trattoria Gennargentu", "opening_hours": "Mo-Sa 12:30-15:00,20:00-23:00; We off; Su 12:30-16:00", "outdoor_seating": "street", "payment:american_express": "yes", "payment:cash": "yes", "payment:mastercard": "yes", "payment:visa": "yes", "source": "Regione Autonoma della Sardegna (www.sardegnageoportale.it)"}}, {"type": "node", "id": 4229619898, "lat": 39.2358296, "lon": 9.1023172, "tags": {"addr:city": "Cagliari", "addr:housenumber": "66", "addr:street": "Via Redipuglia", "amenity": "cafe", "name": "Maya", "source": "Regione Autonoma della Sardegna (www.sardegnageoportale.it)"}}, {"type": "node", "id": 4229623216, "lat": 39.2363237, "lon": 9.1114352, "tags": {"addr:city": "Cagliari", "addr:housenumber": "6b", "addr:street": "Via del Seminario", "amenity": "cafe", "name": "Da Aimone", "source": "Regione Autonoma della Sardegna (www.sardegnageoportale.it)"}}, {"type": "node", "id": 4229623422, "lat": 39.2348136, "lon": 9.1120252, "tags": {"addr:city": "Cagliari", "addr:housenumber": "7", "addr:street": "Via Diego Gregorio Cadello", "amenity": "restaurant", "cuisine": "kebab", "name": "Ali baba n\u00b01", "source": "Regione Autonoma della Sardegna (www.sardegnageoportale.it)"}},