{"version": 0.6, "generator": "Overpass API 0.7.62.7 375dc00a", "osm3s": {"timestamp_osm_base": "2025-06-14T13:14:00Z", "copyright": "The data included in this document is from www.openstreetmap.org. The data is made available under ODbL."}, "elements": [{"type": "node", "id": 268971761, "lat": 4.8227373, "lon": 7.0397722, "tags": {"amenity": "restaurant", "created_by": "JOSM", "name": "La Chinan"}}, {"type": "node", "id": 501402596, "lat": 4.7106698, "lon": 7.1548961, "tags": {"GNS:dsg_code": "PPL", "GNS:dsg_string": "populated place", "GNS:id": "-2006227", "amenity": "restaurant", "is_in:country": "Nigeria", "name": "OPMC Restaurant", "source": "GNS"}}, {"type": "node", "id": 4136197112, "lat": 4.8134376, "lon": 6.9836067, "tags": {"amenity": "restaurant", "name": "Kilmongare Restaurant"}}, {"type": "node", "id": 4209434459, "lat": 4.7948943, "lon": 7.0430043, "tags": {"addr:city": "Port Harcourt", "addr:housenumber": "2", "addr:postcode": "500211", "addr:street": "Somitel Close", "amenity": "restaurant", "cuisine": "regional", "name": "Somitel Hotel & Resorts Limited", "smoking": "separated"}}, {"type": "node", "id": 5026094044, "lat": 4.7947366, "lon": 7.0292233}, {"type": "node", "id": 5026094045, "lat": 4.7947499, "lon": 7.0293949}, {"type": "node", "id": 5026094046, "lat": 4.7945976, "lon": 7.029403}, {"type": "node", "id": 5026094047, "lat": 4.7945949, "lon": 7.029234}, {"type": "node", "id": 5285911994, "lat": 4.8296986, "lon": 6.9759766}, {"type": "node", "id": 5285911995, "lat": 4.8297336, "lon": 6.9761521}, {"type": "node", "id": 5285911996, "lat": 4.8295215, "lon": 6.9761872}, {"type": "node", "id": 5285911997, "lat": 4.8295029, "lon": 6.9760139}, {"type": "node", "id": 5288578958, "lat": 4.805658, "lon": 6.9308045}, {"type": "node", "id": 5288578959, "lat": 4.805677, "lon": 6.9308495}, {"type": "node", "id": 5288578960, "lat": 4.8057208, "lon": 6.9308507}, {"type": "node", "id": 5288578961, "lat": 4.8057657, "lon": 6.9309566}, {"type": "node", "id": 5288578962, "lat": 4.8056916, "lon": 6.9310027}, {"type": "node", "id": 5288578963, "lat": 4.8056265, "lon": 6.9308991}, {"type": "node", "id": 5288578964, "lat": 4.8056153, "lon": 6.9308067}, {"type": "node", "id": 5593776122, "lat": 4.836004, "lon": 7.0253963, "tags": {"addr:housenumber": "31", "addr:street": "Old Aba Road", "amenity": "restaurant", "name": "De Giant Expressway"}}, {"type": "node", "id": 7134000985, "lat": 4.7113655, "lon": 7.1542667, "tags": {"addr:street": "OPMC", "amenity": "restaurant", "name": "OPMC Restaurant", "name:sr": "Onne Restoran", "opening_hours": "Mo-Su 06:00-22:00"}}, {"type": "node", "id": 7956225590, "lat": 4.8380834, "lon": 7.0704009, "tags": {"amenity": "restaurant", "name": "Ellsworth Event Center"}}, {"type": "node", "id": 10997481291, "lat": 4.8344939, "lon": 7.0333105}, {"type": "node", "id": 10997481292, "lat": 4.8345043, "lon": 7.0336127}, {"type": "node", "id": 10997481293, "lat": 4.8343547, "lon": 7.0336356}, {"type": "node", "id": 10997481294, "lat": 4.8343111, "lon": 7.033323}, {"type": "node", "id": 11351358280, "lat": 4.8228055, "lon": 7.0397182}, {"type": "node", "id": 11351358281, "lat": 4.8227067, "lon": 7.0397281}, {"type": "node", "id": 11351358282, "lat": 4.8227191, "lon": 7.0398525}, {"type": "node", "id": 11351358283, "lat": 4.8228179, "lon": 7.0398425}, {"type": "way", "id": 514465271, "nodes": [5026094044, 5026094045, 5026094046, 5026094047, 5026094044], "tags": {"addr:city": "Port Harcourt", "amenity": "restaurant", "building": "yes", "cuisine": "regional;african;portuguese", "name": "Nado's"}}, {"type": "way", "id": 547049024, "nodes": [5285911994, 5285911995, 5285911996, 5285911997, 5285911994], "tags": {"addr:street": "Ada George Road", "amenity": "restaurant", "building": "yes", "name": "Pepperoni"}}, {"type": "way", "id": 547339647, "nodes": [5288578958, 5288578959, 5288578960, 5288578961, 5288578962, 5288578963, 5288578964, 5288578958], "tags": {"amenity": "restaurant", "building": "yes", "name": "Chews  Restaurant Ignatius Ajuru University of Education"}}, {"type": "way", "id": 1184236617, "nodes": [10997481291, 10997481292, 10997481293, 10997481294, 10997481291], "tags": {"amenity": "restaurant", "building": "yes"}}, {"type": "way", "id": 1223813796, "nodes": [11351358280, 11351358281, 11351358282, 11351358283, 11351358280], "tags": {"amenity": "restaurant", "building": "yes"}}]}