{"version": 0.6, "generator": "Overpass API 0.7.62.7 375dc00a", "osm3s": {"timestamp_osm_base": "2025-06-14T15:02:46Z", "copyright": "The data included in this document is from www.openstreetmap.org. The data is made available under ODbL."}, "elements": [{"type": "node", "id": 1826854387, "lat": 37.0003817, "lon": 30.2959693, "tags": {"amenity": "restaurant", "check_date": "2023-02-26"}}, {"type": "node", "id": 3088956506, "lat": 36.6422691, "lon": 29.884842, "tags": {"amenity": "cafe", "name:tr": "Bayralar K\u00f6y Kahvesi"}}, {"type": "node", "id": 4385269995, "lat": 37.0473819, "lon": 29.8422144, "tags": {"amenity": "restaurant"}}, {"type": "node", "id": 4385270070, "lat": 37.0174033, "lon": 30.3672832, "tags": {"amenity": "restaurant", "check_date": "2023-02-26", "drinking_water": "yes", "name": "Pamukkale Restaurant"}}, {"type": "node", "id": 4385270805, "lat": 37.0451765, "lon": 29.840994, "tags": {"amenity": "restaurant"}}, {"type": "node", "id": 4385273136, "lat": 37.0172044, "lon": 30.3679215, "tags": {"amenity": "restaurant", "check_date": "2023-02-26", "drinking_water": "yes", "name": "Birtat Restaurant", "toilets": "yes"}}, {"type": "node", "id": 7596302845, "lat": 36.8381537, "lon": 30.3339133, "tags": {"amenity": "cafe", "name": "Taurus Caffee & Tea Hause"}}, {"type": "node", "id": 9285895658, "lat": 37.0329085, "lon": 30.2564782, "tags": {"amenity": "restaurant", "cuisine": "Mushrooms", "name": "Mantar Evi", "opening_hours": "Mo-Su 08:00-23:00"}}, {"type": "node", "id": 9465234917, "lat": 37.0411723, "lon": 30.0843503, "tags": {"amenity": "cafe"}}, {"type": "node", "id": 10211328922, "lat": 36.7343509, "lon": 29.9217637, "tags": {"amenity": "restaurant", "cuisine": "pide", "name": "I\u015fik Pide", "outdoor_seating": "yes"}}, {"type": "node", "id": 10694556510, "lat": 37.039354, "lon": 30.2514116, "tags": {"amenity": "cafe", "check_date": "2023-02-26"}}, {"type": "node", "id": 11367917399, "lat": 36.739809, "lon": 29.917236, "tags": {"amenity": "restaurant", "cuisine": "regional", "email": "ismailpikaf@hotmail.com", "internet_access": "no", "name": "Elmal\u0131 Sultan Sofras\u0131", "phone": "0242 618 64 64", "website": "https://www.sultansofrasi.net/", "wheelchair": "yes"}}, {"type": "node", "id": 12063546351, "lat": 36.7362508, "lon": 29.9270335}, {"type": "node", "id": 12063546352, "lat": 36.7360097, "lon": 29.9270579}, {"type": "node", "id": 12063546353, "lat": 36.7360195, "lon": 29.9272002}, {"type": "node", "id": 12063546354, "lat": 36.7362573, "lon": 29.9271596}, {"type": "node", "id": 12315792362, "lat": 36.7308138, "lon": 29.8778315, "tags": {"amenity": "restaurant", "name": "Wiyana Wanda"}}, {"type": "way", "id": 1302549220, "nodes": [12063546351, 12063546352, 12063546353, 12063546354, 12063546351], "tags": {"amenity": "restaurant", "building": "yes", "cuisine": "seafood", "name": "\u00c7aml\u0131k Park"}}]}