{"version": 0.6, "generator": "Overpass API 0.7.62.7 375dc00a", "osm3s": {"timestamp_osm_base": "2025-06-14T13:11:54Z", "copyright": "The data included in this document is from www.openstreetmap.org. The data is made available under ODbL."}, "elements": [{"type": "node", "id": 5767961649, "lat": 35.0252207, "lon": 3.6301833}, {"type": "node", "id": 5767961650, "lat": 35.0252257, "lon": 3.6302951}, {"type": "node", "id": 5767961651, "lat": 35.0251741, "lon": 3.6302992}, {"type": "node", "id": 5767961652, "lat": 35.0251741, "lon": 3.6303642}, {"type": "node", "id": 5767964153, "lat": 35.0250509, "lon": 3.6303622}, {"type": "node", "id": 5767964154, "lat": 35.0250526, "lon": 3.6302565}, {"type": "node", "id": 5767964155, "lat": 35.0251158, "lon": 3.6302504}, {"type": "node", "id": 5767964156, "lat": 35.0251142, "lon": 3.6301894}, {"type": "way", "id": 608910599, "nodes": [5767961649, 5767961650, 5767961651, 5767961652, 5767964153, 5767964154, 5767964155, 5767964156, 5767961649], "tags": {"addr:city": "Medjedel", "addr:postcode": "28016", "addr:street": "\u0627\u0644\u0639\u064a\u0646 \u0627\u0644\u0643\u062d\u0644\u0629", "amenity": "restaurant", "building": "yes", "name": "\u0645\u0637\u0639\u0645 \u0645\u062f\u0631\u0633\u0629 \u0644\u0642\u062f\u064a \u0627\u0631\u0628\u0648\u062d", "name:ar": "\u0645\u0637\u0639\u0645 \u0645\u062f\u0631\u0633\u064a", "name:ber": "Tneccit n u\u0263erbaz", "name:en": "school canteen", "name:fr": "Cantine scolaire"}}]}