{"version": 0.6, "generator": "Overpass API 0.7.62.7 375dc00a", "osm3s": {"timestamp_osm_base": "2025-06-14T15:05:53Z", "copyright": "The data included in this document is from www.openstreetmap.org. The data is made available under ODbL."}, "elements": [{"type": "node", "id": 9998426366, "lat": 37.7994531, "lon": 31.0664989, "tags": {"air_conditioning": "no", "amenity": "cafe", "bar": "no", "cuisine": "turkish;ice_cream", "opening_hours": "Mo-Su 10:00-22:00", "outdoor_seating": "yes"}}, {"type": "node", "id": 10777544076, "lat": 37.8004929, "lon": 31.0722916, "tags": {"amenity": "restaurant", "name": "Aksu Pide"}}, {"type": "node", "id": 10777583553, "lat": 37.707073, "lon": 31.3870543, "tags": {"amenity": "restaurant", "description": "Soup, Yemek, sarma", "name": "Dedeg\u00f6l Aile Lokantasi"}}, {"type": "node", "id": 11819469773, "lat": 37.4305012, "lon": 31.107176, "tags": {"amenity": "cafe", "name": "Kahvehane"}}, {"type": "node", "id": 11829578969, "lat": 37.7088217, "lon": 31.3894612, "tags": {"amenity": "restaurant", "name": "Cafe & Fastfood", "name:en": "Ata Cafe & Fastfood", "name:tr": "Ata Cafe & Fastfood"}}, {"type": "node", "id": 12802712581, "lat": 37.3958957, "lon": 31.5060951, "tags": {"amenity": "cafe"}}, {"type": "node", "id": 12802736916, "lat": 37.6319248, "lon": 31.547234, "tags": {"amenity": "cafe"}}]}