{"version": 0.6, "generator": "Overpass API 0.7.62.7 375dc00a", "osm3s": {"timestamp_osm_base": "2025-06-14T13:20:59Z", "copyright": "The data included in this document is from www.openstreetmap.org. The data is made available under ODbL."}, "elements": [{"type": "node", "id": 1990947992, "lat": 33.870183, "lon": 7.8841721, "tags": {"amenity": "cafe"}}, {"type": "node", "id": 3316254141, "lat": 33.9219986, "lon": 8.137616, "tags": {"amenity": "cafe", "name": "Hoch El Abbes"}}, {"type": "node", "id": 4589886196, "lat": 33.9150339, "lon": 8.119774, "tags": {"addr:postcode": "2210", "addr:street": "zone Touristique", "amenity": "cafe", "cuisine": "coffee_shop", "email": "ghaouar.t@gmail.com", "internet_access": "wlan", "name": "caf\u00e9 Eljerid", "phone": "+216 55 454 406"}}, {"type": "node", "id": 5249763413, "lat": 33.9210467, "lon": 8.1203159, "tags": {"amenity": "restaurant", "name": "Tozeriana Restaurant"}}, {"type": "node", "id": 6073777285, "lat": 33.8727976, "lon": 7.8874171, "tags": {"amenity": "restaurant", "name": "La Source", "name:fr": "La Source"}}, {"type": "node", "id": 6073777586, "lat": 33.921355, "lon": 8.1303399, "tags": {"amenity": "restaurant", "name": "Restaurant Ouled El Haj"}}, {"type": "node", "id": 6351007864, "lat": 33.9200023, "lon": 8.1103126, "tags": {"amenity": "cafe", "name": "Royal Mirage"}}, {"type": "node", "id": 6351007865, "lat": 33.9190285, "lon": 8.1116854, "tags": {"amenity": "cafe", "name": "Cafe Elissa"}}, {"type": "node", "id": 6351007866, "lat": 33.9208607, "lon": 8.1197458, "tags": {"amenity": "restaurant", "name": "Aquarium Restaurant Pizzeria"}}, {"type": "node", "id": 6351007867, "lat": 33.9207562, "lon": 8.1193197, "tags": {"amenity": "cafe", "name": "Caf\u00e9 Elkhalil"}}, {"type": "node", "id": 6351007876, "lat": 33.9138864, "lon": 8.1208202, "tags": {"amenity": "restaurant", "name": "La Fontaine"}}, {"type": "node", "id": 7004091743, "lat": 33.9210789, "lon": 8.1201218}, {"type": "node", "id": 7004091744, "lat": 33.9210853, "lon": 8.1202558}, {"type": "node", "id": 7004091745, "lat": 33.9210188, "lon": 8.1202558}, {"type": "node", "id": 7004091746, "lat": 33.9210125, "lon": 8.1201264}, {"type": "node", "id": 7004091747, "lat": 33.9215094, "lon": 8.1257143, "tags": {"amenity": "cafe", "internet_access": "yes", "name": "Cafe Sport", "outdoor_seating": "yes"}}, {"type": "node", "id": 7006076768, "lat": 33.9269701, "lon": 8.1315138, "tags": {"amenity": "cafe", "name": "Cafe Nejema"}}, {"type": "node", "id": 7007498307, "lat": 33.9215844, "lon": 8.1286335, "tags": {"addr:city": "\u062a\u0648\u0632\u0631", "air_conditioning": "yes", "amenity": "cafe", "cuisine": "coffee_shop", "internet_access": "wlan", "internet_access:fee": "no", "name": "\u0645\u0642\u0647\u0649 \u0628\u0627\u0631\u064a\u0633", "name:ar": "\u0645\u0642\u0647\u0649 \u0628\u0627\u0631\u064a\u0633", "name:en": "Cafe Paris", "name:fr": "Caf\u00e9 Paris", "outdoor_seating": "yes", "smoking": "yes"}}, {"type": "node", "id": 7012415889, "lat": 33.9132241, "lon": 8.1209483}, {"type": "node", "id": 7012415890, "lat": 33.9132667, "lon": 8.1210704}, {"type": "node", "id": 7012415891, "lat": 33.913186, "lon": 8.1211253}, {"type": "node", "id": 7012415892, "lat": 33.9131346, "lon": 8.1210102}, {"type": "node", "id": 9760062700, "lat": 33.9211116, "lon": 8.1201154}, {"type": "node", "id": 9760062701, "lat": 33.9209892, "lon": 8.1201958}, {"type": "node", "id": 9760062702, "lat": 33.9210048, "lon": 8.1204748}, {"type": "node", "id": 9760062703, "lat": 33.9211227, "lon": 8.1204587}, {"type": "node", "id": 10209053688, "lat": 33.9142899, "lon": 8.1277614, "tags": {"amenity": "cafe", "name": "Caf\u00e9 T\u00e9rasse"}}, {"type": "node", "id": 10291567709, "lat": 33.9233621, "lon": 8.1358244, "tags": {"amenity": "restaurant", "name:en": "Restaurant Le Medina"}}, {"type": "node", "id": 10292997510, "lat": 33.87244, "lon": 7.8842874, "tags": {"amenity": "cafe", "internet_access": "wlan", "name": "Caf\u00e9 Mohamed", "name:fr": "Caf\u00e9 Mohamed"}}, {"type": "node", "id": 10293583009, "lat": 33.9207279, "lon": 8.1361593, "tags": {"amenity": "cafe", "internet_access": "wlan", "name:en": "STB cafe"}}, {"type": "node", "id": 10293933209, "lat": 33.9212587, "lon": 8.1280672, "tags": {"addr:street": "\u0646\u0647\u062c 2 \u0645\u0627\u0631\u0633 1934", "amenity": "restaurant", "contact:facebook": "100064693836455", "name": "La Grotte", "opening_hours": "24/7", "phone": "+216 50 191 091"}}, {"type": "node", "id": 10294890810, "lat": 33.917904, "lon": 8.1342868, "tags": {"amenity": "restaurant", "name": "Le Soleil"}}, {"type": "node", "id": 10537458221, "lat": 33.9164108, "lon": 8.1116724, "tags": {"addr:city": "Tozeur", "addr:postcode": "2200", "addr:street": "Rte Touristique, Tozeur", "amenity": "cafe", "internet_access": "yes", "internet_access:fee": "no", "name": "90 Degr\u00e9s - Salon de th\u00e9", "outdoor_seating": "yes", "phone": "+216 90 960 900", "website": "https://www.facebook.com/profile.php?id=100088395055551&mibextid=ZbWKwL"}}, {"type": "node", "id": 11607766469, "lat": 33.920804, "lon": 8.1304187, "tags": {"amenity": "restaurant", "name": "\u0647\u0631\u064a\u0633\u0629 \u0648 \u0644\u0628\u0644\u0627\u0628\u064a", "name:en": "Harissa & Lablebi"}}, {"type": "node", "id": 11607769469, "lat": 33.9205847, "lon": 8.1300177, "tags": {"amenity": "cafe", "cuisine": "coffee_shop", "name": "My Story \u0645\u0642\u0647\u0649", "name:en": "My Story Caf\u00e9", "name:fr": "My Story Caf\u00e9"}}, {"type": "node", "id": 11607769569, "lat": 33.9251866, "lon": 8.1176845, "tags": {"amenity": "cafe", "cuisine": "coffee_shop", "name": "\u0645\u0642\u0647\u0649 \u062d\u064a \u0627\u0644\u0645\u0637\u0627\u0631", "name:en": "Hay El Matar Caf\u00e9", "name:fr": "Caf\u00e9 Hay El Matar", "opening_hours": "Mo-Su 06:00-00:00", "phone": "+216 53 586 150"}}, {"type": "node", "id": 11694772680, "lat": 33.9226893, "lon": 8.1340964, "tags": {"amenity": "cafe", "description": "Coffee and resto", "name": "Friends"}}, {"type": "node", "id": 11981055469, "lat": 33.9265071, "lon": 8.1167542, "tags": {"amenity": "cafe", "cuisine": "cake;coffee_shop", "name:en": "Stopover Caf\u00e9", "name:fr": "Cafeteria l'Escale"}}, {"type": "way", "id": 748972140, "nodes": [7004091743, 7004091744, 7004091745, 7004091746, 7004091743], "tags": {"amenity": "cafe", "building": "yes", "cuisine": "pizza;kebab;french", "internet_access": "wlan", "internet_access:fee": "no", "name": "Cafe Tozeriana", "outdoor_seating": "yes"}}, {"type": "way", "id": 749914580, "nodes": [7012415889, 7012415890, 7012415891, 7012415892, 7012415889], "tags": {"air_conditioning": "yes", "amenity": "cafe", "building": "yes", "internet_access": "wlan", "internet_access:fee": "no", "name": "Cafe Assil", "outdoor_seating": "yes"}}, {"type": "way", "id": 1062398508, "nodes": [9760062700, 7004091746, 9760062701, 9760062702, 9760062703, 9760062700], "tags": {"addr:city": "Tozeur", "addr:postcode": "2200", "addr:street": "\u0634\u0627\u0631\u0639 \u0641\u0631\u062d\u0627\u062a \u062d\u0634\u0627\u062f", "amenity": "restaurant", "building": "yes", "cuisine": "pizza;chicken;coffee_shop;sandwich;seafood;kebab", "diet:halal": "yes", "internet_access": "wlan", "name": "Tozeriana Restaurant - caf\u00e9", "opening_hours": "08:00-00:00", "phone": "+216 58 852 652", "website": "https://www.facebook.com/tozeriana"}}]}