{"version": 0.6, "generator": "Overpass API 0.7.62.7 375dc00a", "osm3s": {"timestamp_osm_base": "2025-06-14T14:53:30Z", "copyright": "The data included in this document is from www.openstreetmap.org. The data is made available under ODbL."}, "elements": [{"type": "node", "id": 300876662, "lat": 37.9376405, "lon": 27.3641871, "tags": {"amenity": "restaurant", "name": "Sultan"}}, {"type": "node", "id": 730469494, "lat": 37.9435993, "lon": 27.3553652, "tags": {"amenity": "restaurant"}}, {"type": "node", "id": 730469614, "lat": 37.9441255, "lon": 27.3414147, "tags": {"amenity": "cafe", "check_date": "2023-04-15", "description": "Restaurant & cafe", "name": "Efes"}}, {"type": "node", "id": 808250908, "lat": 37.7966173, "lon": 27.2698382, "tags": {"amenity": "restaurant", "name": "Yuvam Restaurant"}}, {"type": "node", "id": 875614130, "lat": 37.9437701, "lon": 27.4320555, "tags": {"amenity": "restaurant", "description": "Kebap, Turkish Pancakes, Village breakfast", "name": "Dimitros"}}, {"type": "node", "id": 918339849, "lat": 37.9487407, "lon": 27.3680905, "tags": {"amenity": "cafe", "check_date": "2022-09-05", "name": "Ferahl\u0131 Cafe", "name:tr": "Ferahl\u0131 Kafe"}}, {"type": "node", "id": 921642747, "lat": 37.8612506, "lon": 27.2544974, "tags": {"amenity": "restaurant", "name": "Ferah Fresh Fish"}}, {"type": "node", "id": 1412521994, "lat": 37.9621739, "lon": 27.3733717, "tags": {"amenity": "restaurant", "cuisine": "turkish", "name": "Yand\u0131m \u00c7avu\u015f", "website": "http://www.yandimcavus.com.tr"}}, {"type": "node", "id": 1536429561, "lat": 37.9399352, "lon": 27.2758565, "tags": {"amenity": "restaurant", "check_date": "2023-09-08", "name": "Dereli Restaurant", "name:tr": "Dereli Restoran", "payment:mastercard": "yes", "payment:visa": "yes"}}, {"type": "node", "id": 1666715096, "lat": 37.8711946, "lon": 27.2639199, "tags": {"amenity": "cafe", "cuisine": "turkish", "name": "Orient Cafe & Bar"}}, {"type": "node", "id": 2511413226, "lat": 37.9489212, "lon": 27.3705841, "tags": {"amenity": "restaurant", "cuisine": "regional", "name": "\u015e\u0130\u015e'KO D\u00fcr\u00fcm"}}, {"type": "node", "id": 2511413233, "lat": 37.9496046, "lon": 27.3713248, "tags": {"amenity": "restaurant", "cuisine": "regional", "name": "Donerci Kenan"}}, {"type": "node", "id": 2515719030, "lat": 37.95032, "lon": 27.370959, "tags": {"addr:housenumber": "1/A", "addr:street": "Atat\u00fcrk Mah. 1005 SK.", "amenity": "restaurant", "name": "Old House", "phone": "+90 232 892 93 57"}}, {"type": "node", "id": 2958192389, "lat": 37.9094043, "lon": 27.2621966}, {"type": "node", "id": 2958192390, "lat": 37.9094648, "lon": 27.2620731}, {"type": "node", "id": 2958192391, "lat": 37.9094959, "lon": 27.2622688}, {"type": "node", "id": 2958192392, "lat": 37.9095565, "lon": 27.2621453}, {"type": "node", "id": 2958192403, "lat": 37.9125281, "lon": 27.2637293, "tags": {"amenity": "cafe"}}, {"type": "node", "id": 3050699916, "lat": 37.9482253, "lon": 27.3681347, "tags": {"amenity": "restaurant", "name": "Petek \u00c7\u00f6p\u015fi\u015f"}}, {"type": "node", "id": 3156598515, "lat": 37.8639515, "lon": 27.2622982, "tags": {"amenity": "cafe", "internet_access": "yes", "name": "Cafe & Cafe"}}, {"type": "node", "id": 3561812726, "lat": 37.862983, "lon": 27.2608228, "tags": {"amenity": "cafe", "name": "Candan Bistro Cafe"}}, {"type": "node", "id": 3614460937, "lat": 37.7062543, "lon": 27.3841831, "tags": {"addr:city": "Ortaklar", "addr:housenumber": "29", "addr:street": "D525", "amenity": "restaurant", "cuisine": "regional", "name": "Efsane \u00c7\u00f6p \u015ei\u015f Necati Baba", "phone": "+90 256 518 26 62", "website": "http://www.ortaklarcopsisefsanenecatibaba.com/home.html"}}, {"type": "node", "id": 3632692334, "lat": 37.8829601, "lon": 27.50646, "tags": {"addr:street": "\u0130zmir-Ayd\u0131n yolu", "amenity": "restaurant", "cuisine": "regional", "delivery": "yes", "name": "Necatinin Yeri - \u00c7\u00f6p \u015ei\u015f", "smoking": "outside"}}, {"type": "node", "id": 3639116964, "lat": 37.9055198, "lon": 27.2712759, "tags": {"amenity": "restaurant", "name": "Outdoor-Restaurant"}}, {"type": "node", "id": 4002484816, "lat": 37.9481959, "lon": 27.3679382, "tags": {"amenity": "restaurant", "name": "Agora"}}, {"type": "node", "id": 4002484818, "lat": 37.9482955, "lon": 27.3700653, "tags": {"amenity": "restaurant"}}, {"type": "node", "id": 4002484824, "lat": 37.949389, "lon": 27.3706563, "tags": {"amenity": "restaurant", "name": "Ac\u0131kt\u0131m"}}, {"type": "node", "id": 4002504033, "lat": 37.9611352, "lon": 27.3720058, "tags": {"amenity": "restaurant"}}, {"type": "node", "id": 4011221092, "lat": 37.9621414, "lon": 27.3724593, "tags": {"amenity": "restaurant", "cuisine": "turkish"}}, {"type": "node", "id": 4011221093, "lat": 37.9633848, "lon": 27.3729313, "tags": {"amenity": "restaurant", "cuisine": "turkish"}}, {"type": "node", "id": 4012821014, "lat": 37.9625219, "lon": 27.3723864}, {"type": "node", "id": 4012821015, "lat": 37.9626227, "lon": 27.3725549}, {"type": "node", "id": 4012821016, "lat": 37.9624096, "lon": 27.3724944}, {"type": "node", "id": 4012821017, "lat": 37.9625104, "lon": 27.372663}, {"type": "node", "id": 4013410676, "lat": 37.860902, "lon": 27.2564057, "tags": {"amenity": "restaurant"}}, {"type": "node", "id": 4174614991, "lat": 37.8740092, "lon": 27.2645815, "tags": {"amenity": "restaurant", "name": "Sultan Bah\u00e7esi Et Restoran"}}, {"type": "node", "id": 4174659090, "lat": 37.8742053, "lon": 27.2646582, "tags": {"amenity": "restaurant", "name": "."}}, {"type": "node", "id": 4181689891, "lat": 37.860568, "lon": 27.2601669, "tags": {"amenity": "restaurant", "name": "carpediem"}}, {"type": "node", "id": 4181894790, "lat": 37.8742956, "lon": 27.264282, "tags": {"amenity": "restaurant", "name": "\u00e7\u0131nar restorant"}}, {"type": "node", "id": 4181894791, "lat": 37.8605866, "lon": 27.2536984, "tags": {"addr:neighbourhood": "hac", "amenity": "restaurant", "check_date": "2024-05-18", "name": "Kule Seafood Restaurant", "opening_hours": "Mo-Su 09:00-23:30", "phone": "+90 256 612 0090"}}, {"type": "node", "id": 4200417922, "lat": 37.7689865, "lon": 27.2655297, "tags": {"amenity": "restaurant", "name": "Ankara Gozleme"}}, {"type": "node", "id": 4200422293, "lat": 37.7683467, "lon": 27.2649155, "tags": {"amenity": "restaurant", "name": "Istiklar Restaurant"}}, {"type": "node", "id": 4200456689, "lat": 37.9650167, "lon": 27.3740551, "tags": {"addr:street": "\u0130zmir-Ayd\u0131n yolu", "amenity": "restaurant", "name": "\u00d6mur \u00e7\u00f6p \u015fi\u015f & kahvalt\u0131"}}, {"type": "node", "id": 4204390887, "lat": 37.8836175, "lon": 27.5077468, "tags": {"amenity": "restaurant", "name": "saray \u00e7\u00f6p \u015fi\u015f"}}, {"type": "node", "id": 4204447474, "lat": 37.8541814, "lon": 27.2820545, "tags": {"amenity": "restaurant", "name": "Bolu \u00c7\u0131ra\u011fan Restaurant"}}, {"type": "node", "id": 4204459427, "lat": 37.85799, "lon": 27.264435, "tags": {"amenity": "restaurant", "name": "alo 24", "website": "https://www.alo24.com.tr/Kusadasi.html"}}, {"type": "node", "id": 4204459428, "lat": 37.8543585, "lon": 27.2954711, "tags": {"amenity": "restaurant", "name": "And\u0131z Restaurant"}}, {"type": "node", "id": 4204471691, "lat": 37.8711333, "lon": 27.602153, "tags": {"amenity": "restaurant", "name": "k\u00fc\u00e7\u00fck ev yemekleri"}}, {"type": "node", "id": 4229537789, "lat": 37.8573457, "lon": 27.2451202, "tags": {"amenity": "restaurant", "name": "jade beach club"}}, {"type": "node", "id": 4231879791, "lat": 37.8691551, "lon": 27.2644021, "tags": {"amenity": "restaurant", "name": "can pide"}}, {"type": "node", "id": 4239268819, "lat": 37.8701387, "lon": 27.2747295, "tags": {"amenity": "restaurant", "name": "moil restorant"}}, {"type": "node", "id": 4239269432, "lat": 37.8606376, "lon": 27.2532975, "tags": {"amenity": "restaurant", "cuisine": "fish", "name": "Mavi Bal\u0131k"}}, {"type": "node", "id": 4279004589, "lat": 37.8533389, "lon": 27.2543859, "tags": {"amenity": "cafe", "name": "\u015eehit aileleri ve gaziler derne\u011fi"}}, {"type": "node", "id": 4279839190, "lat": 37.8097416, "lon": 27.2805795, "tags": {"amenity": "restaurant", "name": "christines cafe"}}, {"type": "node", "id": 4279886091, "lat": 37.7983638, "lon": 27.2690697, "tags": {"amenity": "restaurant", "name": "artemis beach club"}}, {"type": "node", "id": 4279900489, "lat": 37.7624209, "lon": 27.3733003, "tags": {"amenity": "restaurant", "name": "poyraz et"}}, {"type": "node", "id": 4280694125, "lat": 37.8651923, "lon": 27.2627004, "tags": {"amenity": "cafe", "name": "Flower Cafe"}}, {"type": "node", "id": 4297024589, "lat": 37.9604448, "lon": 27.4002918, "tags": {"amenity": "restaurant", "name": "Tandirci deniz"}}, {"type": "node", "id": 4322086971, "lat": 37.873924, "lon": 27.2645876, "tags": {"amenity": "restaurant", "name": "\u00c7at\u0131"}}, {"type": "node", "id": 4322116842, "lat": 37.8612054, "lon": 27.2556771, "tags": {"amenity": "restaurant", "name": "Toros"}}, {"type": "node", "id": 4394409238, "lat": 37.950599, "lon": 27.3714352, "tags": {"amenity": "restaurant", "name": "Efes K\u00f6ftecisi"}}, {"type": "node", "id": 4435114589, "lat": 37.761598, "lon": 27.3814166, "tags": {"addr:postcode": "09200", "addr:street": "Yenikent mahallesi", "amenity": "restaurant", "internet_access": "wlan", "name": "S\u00f6keli Adak\u00e7\u0131", "name:tr": "S\u00f6keli Adak\u00e7\u0131", "opening_hours": "Mo-Su 10:00-22:00"}}, {"type": "node", "id": 4436949189, "lat": 37.7611594, "lon": 27.3811911, "tags": {"addr:postcode": "09200", "addr:street": "Yenikent mahallesi", "amenity": "restaurant", "name": "S\u00f6keli Adak\u00e7\u0131", "name:tr": "S\u00f6keli Adak\u00e7\u0131", "opening_hours": "Mo-Su 10:00-22:00", "phone": "05436834532"}}, {"type": "node", "id": 4537586789, "lat": 37.759453, "lon": 27.4111454, "tags": {"addr:city": "S\u00f6ke", "addr:postcode": "09200", "addr:street": "AYDIN CADDES\u0130", "amenity": "restaurant", "cuisine": "kebab;meatball;beef_liver;soup", "name": "KERVAN LOKANTASI", "name:en": "KERVAN RESTAURANT", "opening_hours": "Mo-Sa 08:00-20:00", "opening_hours:covid19": "Mo-Fr 10:00-19:00", "smoking": "no", "takeaway": "yes", "wheelchair": "yes"}}, {"type": "node", "id": 4564898437, "lat": 37.9871713, "lon": 27.1777693, "tags": {"amenity": "restaurant", "name": "Yakamoz Bal\u0131k"}}, {"type": "node", "id": 4602610489, "lat": 37.8652966, "lon": 27.2629893, "tags": {"addr:street": "Atat\u00fcrk Bulvar\u0131", "amenity": "cafe", "internet_access": "wlan", "name": "\u00dcsk\u00fcdar \u00c7ayc\u0131s\u0131", "name:tr": "\u00dcsk\u00fcdar \u00c7ayc\u0131s\u0131", "opening_hours": "24/7"}}, {"type": "node", "id": 4688831189, "lat": 37.8288829, "lon": 27.2520023, "tags": {"amenity": "cafe", "name": "Can Can", "outdoor_seating": "yes", "smoking": "yes"}}, {"type": "node", "id": 4688853054, "lat": 37.8567743, "lon": 27.2635789, "tags": {"amenity": "restaurant", "cuisine": "turkish", "smoking": "yes", "wheelchair": "limited"}}, {"type": "node", "id": 4963970798, "lat": 37.8249751, "lon": 27.258024}, {"type": "node", "id": 4963970799, "lat": 37.8247039, "lon": 27.2584882}, {"type": "node", "id": 4963970800, "lat": 37.8247813, "lon": 27.258558}, {"type": "node", "id": 4963970801, "lat": 37.8247495, "lon": 27.258625}, {"type": "node", "id": 4963970802, "lat": 37.8248109, "lon": 27.2586545}, {"type": "node", "id": 4963970803, "lat": 37.8249042, "lon": 27.2586572}, {"type": "node", "id": 4963970804, "lat": 37.824972, "lon": 27.2586197}, {"type": "node", "id": 4963970805, "lat": 37.8250281, "lon": 27.2585633}, {"type": "node", "id": 4963970806, "lat": 37.8250808, "lon": 27.2585078}, {"type": "node", "id": 4963994106, "lat": 37.8251234, "lon": 27.2581583}, {"type": "node", "id": 4963994107, "lat": 37.8249815, "lon": 27.2583984}, {"type": "node", "id": 4996586126, "lat": 37.8710501, "lon": 27.2647441, "tags": {"amenity": "restaurant", "name": "GIO Restaurant & Lounge Bar", "name:tr": "GIO Restaurant & Lounge Bar"}}, {"type": "node", "id": 4999920821, "lat": 37.9431075, "lon": 27.4324685, "tags": {"amenity": "restaurant", "name": "\u015eirince Kilise \u015earap Mahzeni", "name:tr": "\u015eirince Kilise \u015earap Mahzeni"}}, {"type": "node", "id": 5077849454, "lat": 37.8110278, "lon": 27.2786686, "tags": {"amenity": "restaurant", "name": "K\u00f6fteci Yusuf"}}, {"type": "node", "id": 5110704122, "lat": 37.8855618, "lon": 27.3808327, "tags": {"addr:city": "Sel\u00e7uk / \u0130zmir", "addr:district": "\u00c7aml\u0131k", "addr:housenumber": "13", "addr:neighbourhood": "\u00c7aml\u0131k", "addr:postcode": "35920", "addr:street": "Atat\u00fcrk Cad.", "amenity": "restaurant", "cuisine": "turkish", "email": "info@aziziyerestaurant.net", "name": "Aziziye Restaurant", "name:en": "Aziziye", "opening_hours": "Mo-Su 08:30-17:30", "phone": "+902328948118", "website": "http://aziziyerestaurant.net/"}}, {"type": "node", "id": 5126179524, "lat": 37.8549035, "lon": 27.2551068, "tags": {"amenity": "cafe", "cuisine": "pizza", "name": "\u00d6zlem Pide", "name:ru": "\u0422\u0443\u0440\u0435\u0446\u043a\u0430\u044f \u043f\u0438\u0446\u0446\u0430", "phone": "02566122949"}}, {"type": "node", "id": 5131509240, "lat": 37.8911917, "lon": 27.5907697, "tags": {"amenity": "cafe", "name": "Ionia Guest House cafe"}}, {"type": "node", "id": 5131648414, "lat": 37.8282738, "lon": 27.3341357, "tags": {"amenity": "restaurant"}}, {"type": "node", "id": 5196491830, "lat": 37.9475593, "lon": 27.3703072, "tags": {"amenity": "restaurant", "name": "Kasap K\u00f6fteci Ahmet", "name:en": "Ahmet's Grilled Meatball", "name:tr": "Kasap K\u00f6fteci Ahmet"}}, {"type": "node", "id": 5196555631, "lat": 37.9472605, "lon": 27.3717697, "tags": {"amenity": "restaurant", "name": "Havuz Restaurant"}}, {"type": "node", "id": 5257657117, "lat": 37.7783213, "lon": 27.3235359, "tags": {"amenity": "restaurant", "name": "G\u00fcls\u00fcm Han\u0131m Kahvalt\u0131 evi"}}, {"type": "node", "id": 5257657222, "lat": 37.7781744, "lon": 27.3235514, "tags": {"amenity": "restaurant", "name": "Kasap Osman'\u0131n Yeri"}}, {"type": "node", "id": 5257657227, "lat": 37.7780642, "lon": 27.3235965, "tags": {"amenity": "restaurant", "name": "Yaylak\u00f6y K\u00f6yevi Kahvalt\u0131"}}, {"type": "node", "id": 5329450494, "lat": 37.8560809, "lon": 27.2631135, "tags": {"amenity": "restaurant"}}, {"type": "node", "id": 5334808622, "lat": 37.8560483, "lon": 27.2615452, "tags": {"amenity": "restaurant"}}, {"type": "node", "id": 5334822923, "lat": 37.8561023, "lon": 27.2618448, "tags": {"amenity": "restaurant"}}, {"type": "node", "id": 5334822924, "lat": 37.8561216, "lon": 27.2619735, "tags": {"amenity": "restaurant"}}, {"type": "node", "id": 5334822928, "lat": 37.8562488, "lon": 27.26072, "tags": {"amenity": "restaurant"}}, {"type": "node", "id": 5334822929, "lat": 37.8567904, "lon": 27.2613796, "tags": {"amenity": "restaurant"}}, {"type": "node", "id": 5334822932, "lat": 37.8577388, "lon": 27.2622934, "tags": {"amenity": "restaurant"}}, {"type": "node", "id": 5334822935, "lat": 37.8577624, "lon": 27.2616238, "tags": {"amenity": "restaurant"}}, {"type": "node", "id": 5334831355, "lat": 37.864069, "lon": 27.2623914, "tags": {"amenity": "cafe"}}, {"type": "node", "id": 5334831356, "lat": 37.864211, "lon": 27.2624983, "tags": {"amenity": "cafe"}}, {"type": "node", "id": 5334831357, "lat": 37.8643645, "lon": 27.2626199, "tags": {"amenity": "cafe"}}, {"type": "node", "id": 5334831358, "lat": 37.864518, "lon": 27.2627511, "tags": {"amenity": "cafe"}}, {"type": "node", "id": 5334831359, "lat": 37.8647165, "lon": 27.2628617, "tags": {"amenity": "cafe"}}, {"type": "node", "id": 5334831360, "lat": 37.8649256, "lon": 27.2629592, "tags": {"amenity": "cafe"}}, {"type": "node", "id": 5448179422, "lat": 37.9491642, "lon": 27.3682085, "tags": {"amenity": "restaurant", "name": "Ali Baba & Mehmet"}}, {"type": "node", "id": 5469290395, "lat": 37.8629058, "lon": 27.2614199, "tags": {"amenity": "cafe", "brand": "Starbucks", "brand:wikidata": "Q37158", "brand:wikipedia": "en:Starbucks", "cuisine": "coffee_shop", "name": "Starbucks", "name:en": "Starbucks", "official_name": "Starbucks Coffee", "takeaway": "yes"}}, {"type": "node", "id": 5469290397, "lat": 37.8631892, "lon": 27.2618274, "tags": {"addr:city": "Ayd\u0131n", "addr:district": "Ku\u015fadas\u0131", "addr:neighbourhood": "T\u00fcrkmen Mahallesi", "addr:postcode": "09400", "addr:street": "\u00dcnl\u00fc Sk.", "amenity": "cafe", "cuisine": "pizza;burger;coffee_shop;sandwich;chicken;ice_cream;turkish;steak_house", "name": "Kahve Soka\u011f\u0131 Ku\u015fadas\u0131", "outdoor_seating": "yes"}}, {"type": "node", "id": 5540644696, "lat": 37.8608284, "lon": 27.2578159, "tags": {"amenity": "restaurant", "cuisine": "turkish", "name": "Avlu Restaurant"}}, {"type": "node", "id": 5550954384, "lat": 37.8291925, "lon": 27.3649556}, {"type": "node", "id": 5550954385, "lat": 37.8292627, "lon": 27.3646151}, {"type": "node", "id": 5550954386, "lat": 37.8294831, "lon": 27.3646879}, {"type": "node", "id": 5550956747, "lat": 37.8294371, "lon": 27.3698599}, {"type": "node", "id": 5550956748, "lat": 37.8294551, "lon": 27.3699833}, {"type": "node", "id": 5550956749, "lat": 37.8295534, "lon": 27.3699603}, {"type": "node", "id": 5550956750, "lat": 37.8295354, "lon": 27.3698369}, {"type": "node", "id": 5628321404, "lat": 37.8637098, "lon": 27.2640062}, {"type": "node", "id": 5628321405, "lat": 37.8637963, "lon": 27.2641405}, {"type": "node", "id": 5628321406, "lat": 37.863713, "lon": 27.2642266}, {"type": "node", "id": 5628321407, "lat": 37.8636265, "lon": 27.2640923}, {"type": "node", "id": 5772812353, "lat": 37.8481766, "lon": 27.2451599, "tags": {"amenity": "restaurant", "name:ru": "\u0422\u0443\u0440\u0435\u0446\u043a\u0438\u0439 \u0441\u0435\u043c\u0435\u0439\u043d\u044b\u0439 \u0440\u0435\u0441\u0442\u043e\u0440\u0430\u043d"}}, {"type": "node", "id": 5833076761, "lat": 37.8105977, "lon": 27.2698635}, {"type": "node", "id": 5833076762, "lat": 37.8104748, "lon": 27.270188}, {"type": "node", "id": 5833076763, "lat": 37.8102629, "lon": 27.2706065}, {"type": "node", "id": 5833076764, "lat": 37.810192, "lon": 27.2702194}, {"type": "node", "id": 5833076765, "lat": 37.8100946, "lon": 27.2699146}, {"type": "node", "id": 5833076766, "lat": 37.8106008, "lon": 27.2698402}, {"type": "node", "id": 5841576087, "lat": 37.9437933, "lon": 27.4327686, "tags": {"amenity": "restaurant", "name": "\u015eirincem Cafe & Restaurant"}}, {"type": "node", "id": 5841586195, "lat": 37.9418412, "lon": 27.4329156, "tags": {"amenity": "restaurant", "name": "Sedir"}}, {"type": "node", "id": 5868488672, "lat": 37.8676091, "lon": 27.263607, "tags": {"addr:city": "Ayd\u0131n", "addr:district": "Ku\u015fadas\u0131", "addr:neighbourhood": "T\u00fcrkmen Mah.", "addr:street": "Atat\u00fcrk Bulvar\u0131", "amenity": "restaurant", "cuisine": "steak_house", "name": "Tranche"}}, {"type": "node", "id": 5904004752, "lat": 37.749235, "lon": 27.2540498}, {"type": "node", "id": 5904004753, "lat": 37.7490548, "lon": 27.2539667}, {"type": "node", "id": 5904004754, "lat": 37.7490363, "lon": 27.254031}, {"type": "node", "id": 5904004755, "lat": 37.7489948, "lon": 27.2540119}, {"type": "node", "id": 5904004756, "lat": 37.7489552, "lon": 27.2541493}, {"type": "node", "id": 5904004757, "lat": 37.7489914, "lon": 27.2541659}, {"type": "node", "id": 5904004758, "lat": 37.7489526, "lon": 27.2543005}, {"type": "node", "id": 5904004759, "lat": 37.7490603, "lon": 27.2543502}, {"type": "node", "id": 5904004760, "lat": 37.7491392, "lon": 27.2540764}, {"type": "node", "id": 5904004761, "lat": 37.749217, "lon": 27.2541123}, {"type": "node", "id": 5912334785, "lat": 37.8582187, "lon": 27.2579499, "tags": {"amenity": "restaurant", "cuisine": "turkish", "name": "Z\u00fcmr\u00fct Pide"}}, {"type": "node", "id": 5927640886, "lat": 37.9503546, "lon": 27.3718581, "tags": {"amenity": "restaurant", "name": "Ejder"}}, {"type": "node", "id": 5927644586, "lat": 37.9602632, "lon": 27.3999424, "tags": {"amenity": "restaurant", "name": "Bizim Ev Hanimeli"}}, {"type": "node", "id": 6151452489, "lat": 37.950642, "lon": 27.3701305, "tags": {"amenity": "cafe", "name": "Kahve Hatirasi"}}, {"type": "node", "id": 6151496785, "lat": 37.9496103, "lon": 27.3686718, "tags": {"amenity": "restaurant", "name": "Selcuk Pidecisi"}}, {"type": "node", "id": 6156085691, "lat": 37.9498429, "lon": 27.3712241, "tags": {"amenity": "restaurant", "check_date": "2023-04-15", "name": "Donerci Ugur"}}, {"type": "node", "id": 6279068385, "lat": 37.8591786, "lon": 27.2604481, "tags": {"amenity": "restaurant", "name": "Metin Usta"}}, {"type": "node", "id": 6369662869, "lat": 37.8606059, "lon": 27.2535003, "tags": {"amenity": "restaurant", "check_date": "2024-05-18", "name": "S\u00f6zl\u00fcm Et & Bal\u0131k"}}, {"type": "node", "id": 6369663249, "lat": 37.8605595, "lon": 27.2538228, "tags": {"amenity": "restaurant", "check_date": "2024-05-18", "name": "G\u00f6n\u00fcl meyhanesi"}}, {"type": "node", "id": 6416064245, "lat": 37.9443929, "lon": 27.432818}, {"type": "node", "id": 6416064246, "lat": 37.9447068, "lon": 27.4330709}, {"type": "node", "id": 6416064247, "lat": 37.9446727, "lon": 27.4331388}, {"type": "node", "id": 6416064249, "lat": 37.9443589, "lon": 27.4328859}, {"type": "node", "id": 6571736265, "lat": 37.948942, "lon": 27.3714834, "tags": {"amenity": "cafe", "name": "Bizim Bozekci"}}, {"type": "node", "id": 6677437086, "lat": 37.9474334, "lon": 27.3708128, "tags": {"amenity": "restaurant", "cuisine": "turkish", "name": "Sel\u00e7uk K\u00f6ftecesi"}}, {"type": "node", "id": 6699423985, "lat": 37.9495805, "lon": 27.3709745, "tags": {"amenity": "restaurant", "name": "Croq&Crep House"}}, {"type": "node", "id": 6758714386, "lat": 37.9419228, "lon": 27.4325141, "tags": {"amenity": "cafe", "cuisine": "coffee_shop", "name": "\u00dcz\u00fcme", "name:en": "Uzum cafe", "name:fr": "Uzum caf\u00e9", "name:tr": "\u00dcz\u00fcm cafe"}}, {"type": "node", "id": 6920485086, "lat": 37.8591544, "lon": 27.2626469, "tags": {"amenity": "restaurant", "name:en": "casablanca"}}, {"type": "node", "id": 7030743017, "lat": 37.9499702, "lon": 27.3709861, "tags": {"amenity": "restaurant", "internet_access": "wlan", "name": "Gurme tarhan chef restaurant"}}, {"type": "node", "id": 7673533652, "lat": 37.9427628, "lon": 27.431628, "tags": {"amenity": "cafe", "name": "Manzara Coffee"}}, {"type": "node", "id": 7698573685, "lat": 37.8429073, "lon": 27.2422124}, {"type": "node", "id": 7707190285, "lat": 37.8612806, "lon": 27.2561449, "tags": {"amenity": "restaurant", "cuisine": "fish", "name": "Toros", "name:ru": "\u0422\u043e\u0440\u043e\u0441", "name:tr": "Toros"}}, {"type": "node", "id": 7860424653, "lat": 37.8726359, "lon": 27.596635}, {"type": "node", "id": 7860424654, "lat": 37.8725619, "lon": 27.5966297}, {"type": "node", "id": 7860424655, "lat": 37.8725619, "lon": 27.5966722}, {"type": "node", "id": 7860424656, "lat": 37.8722965, "lon": 27.5966616}, {"type": "node", "id": 7860424657, "lat": 37.8722951, "lon": 27.5968367}, {"type": "node", "id": 7860424658, "lat": 37.8725409, "lon": 27.5968509}, {"type": "node", "id": 7860424659, "lat": 37.8725437, "lon": 27.5967624}, {"type": "node", "id": 7860424660, "lat": 37.8726511, "lon": 27.59676}, {"type": "node", "id": 7860424661, "lat": 37.8726532, "lon": 27.5967283}, {"type": "node", "id": 7976950345, "lat": 37.8770447, "lon": 27.380949, "tags": {"addr:city": "Sel\u00e7uk/\u0130zmir", "addr:district": "G\u00f6k\u00e7ealan K\u00f6y\u00fc", "addr:neighbourhood": "D\u00f6ltenalt\u0131 Mevkii", "addr:postcode": "35920", "amenity": "restaurant", "email": "info@ciy.com.tr", "fax": "+90 232 894 82 71", "name": "\u00c7iy Restaurant", "phone": "+905496400401", "website": "https://ciy.com.tr/"}}, {"type": "node", "id": 7988079235, "lat": 37.885804, "lon": 27.3818316, "tags": {"addr:city": "\u0130zmir", "addr:district": "Sel\u00e7uk", "addr:housenumber": "53", "addr:neighbourhood": "\u00c7aml\u0131k", "addr:postcode": "35920", "addr:street": "\u0130zmir-Ayd\u0131n yolu", "amenity": "cafe", "name": "Hasan Babanin Yeri"}}, {"type": "node", "id": 8010909185, "lat": 37.9504258, "lon": 27.3713759, "tags": {"amenity": "restaurant", "name:en": "Koylum restraunt"}}, {"type": "node", "id": 8120863917, "lat": 37.7587187, "lon": 27.2894073, "tags": {"addr:city": "Ayd\u0131n", "addr:district": "Ku\u015fadas\u0131", "addr:neighbourhood": "Davutlar", "addr:postcode": "09400", "addr:street": "Ku\u015fadas\u0131 - Davutlar Yolu", "amenity": "restaurant", "name": "Tarihi \u00c7\u0131naralt\u0131 Et Lokantas\u0131", "phone": "+905547131905"}}, {"type": "node", "id": 8120863975, "lat": 37.7596175, "lon": 27.2910924, "tags": {"addr:city": "Ayd\u0131n", "addr:district": "Ku\u015fadas\u0131", "addr:neighbourhood": "Davutlar", "addr:postcode": "09400", "amenity": "cafe", "name": "G\u00f6l ba\u015f\u0131 kahvalt\u0131 g\u00f6zleme evi"}}, {"type": "node", "id": 8120863986, "lat": 37.7572194, "lon": 27.2908559, "tags": {"addr:city": "Ayd\u0131n", "addr:district": "Ku\u015fadas\u0131", "addr:housenumber": "122", "addr:neighbourhood": "Davutlar", "addr:postcode": "09400", "addr:street": "Ku\u015fadas\u0131 - Davutlar Yolu", "amenity": "restaurant", "name": "Saraydam\u0131 G\u00f6zleme Kahvalti Ve Ev Yemekleri", "opening_hours": "Mo-Fr 08:00-22:00", "phone": "+905447139722"}}, {"type": "node", "id": 8173114317, "lat": 37.8574344, "lon": 27.2611519, "tags": {"amenity": "cafe", "cuisine": "turkish", "name": "antepli hakan usta", "name:ru": "\u043a\u044e\u043d\u0435\u0444\u0435 \u0438 \u043f\u0430\u0445\u043b\u0430\u0432\u0430", "opening_hours": "Mo-Su 09:00-00:00"}}, {"type": "node", "id": 8715972885, "lat": 37.869692, "lon": 27.2639003, "tags": {"addr:city": "Kusadasi", "addr:district": "ku\u015fadas\u0131", "addr:neighbourhood": "T\u00fcrkmen Mahallesi", "addr:street": "\u0130n\u00f6n\u00fc Bulvar\u0131", "amenity": "cafe", "internet_access": "yes", "internet_access:fee": "no", "name": "Liman Cafe", "outdoor_seating": "yes"}}, {"type": "node", "id": 8898271738, "lat": 37.7117041, "lon": 27.216219, "tags": {"amenity": "cafe"}}, {"type": "node", "id": 8909994300, "lat": 37.7307541, "lon": 27.2422086, "tags": {"amenity": "cafe", "name": "Teti Beach Cafe"}}, {"type": "node", "id": 8909994301, "lat": 37.7309418, "lon": 27.2421965, "tags": {"amenity": "cafe", "name": "Sirena Beach Cafe", "outdoor_seating": "yes", "phone": "+90 256 646 11 20"}}, {"type": "node", "id": 8926673796, "lat": 37.861021, "lon": 27.2593226, "tags": {"addr:city": "Ayd\u0131n", "addr:district": "Ku\u015fadas\u0131", "addr:housenumber": "5/A", "addr:neighbourhood": "Camikebir Mahallesi", "addr:postcode": "09400", "addr:street": "Sevgi Soka\u011f\u0131", "amenity": "cafe", "cuisine": "\u0131slakhamburger;limonata;milkshake;kahve;ice_coffe;yengen;sandvi\u00e7", "internet_access": "yes", "name": "Suadiye Marmaris", "outdoor_seating": "yes"}}, {"type": "node", "id": 8926967749, "lat": 38.0472507, "lon": 27.6229057, "tags": {"addr:city": "\u0130zmir", "amenity": "restaurant", "name": "De\u011firmen \u015eelale Restaurant", "phone": "+90232 529 02 77"}}, {"type": "node", "id": 8942319707, "lat": 37.8100841, "lon": 27.2791026, "tags": {"amenity": "cafe", "brand": "Mado", "brand:wikidata": "Q17116336", "cuisine": "coffee_shop", "name": "Mado", "takeaway": "yes"}}, {"type": "node", "id": 8942332101, "lat": 37.8109224, "lon": 27.2788251, "tags": {"amenity": "restaurant", "name": "Bereket D\u00f6ner"}}, {"type": "node", "id": 8945454864, "lat": 37.8674031, "lon": 27.2649348, "tags": {"addr:district": "Ku\u015fadas\u0131", "addr:housenumber": "2A", "addr:neighbourhood": "T\u00fcrkmen Mah.", "addr:postcode": "09400", "addr:street": "303 sk", "amenity": "restaurant", "cuisine": "uyghur", "diet:halal": "yes", "name": "Nas\u0131rettin Hoca Uygur Mutfa\u011f\u0131", "opening_hours": "Mo-Su 10:00-23:00", "outdoor_seating": "yes", "phone": "+905376090845", "takeaway": "yes"}}, {"type": "node", "id": 8948702866, "lat": 37.8615732, "lon": 27.2571838, "tags": {"amenity": "cafe", "name": "Kutes Cafe Bar"}}, {"type": "node", "id": 8948719176, "lat": 37.8611799, "lon": 27.2561159, "tags": {"amenity": "restaurant", "name": "Birrada"}}, {"type": "node", "id": 8948719387, "lat": 37.861156, "lon": 27.2565029, "tags": {"amenity": "restaurant", "name": "Naz Bal\u0131k"}}, {"type": "node", "id": 8948719388, "lat": 37.8611236, "lon": 27.2559548}, {"type": "node", "id": 8948732235, "lat": 37.8610337, "lon": 27.2566925, "tags": {"amenity": "restaurant", "name": "Macit"}}, {"type": "node", "id": 8948732432, "lat": 37.8612398, "lon": 27.2560623, "tags": {"amenity": "restaurant", "name": "G\u00fcverte"}}, {"type": "node", "id": 8948735273, "lat": 37.8614577, "lon": 27.2568782, "tags": {"amenity": "restaurant", "name": "Ali baba"}}, {"type": "node", "id": 8948738108, "lat": 37.8612335, "lon": 27.2566727, "tags": {"amenity": "restaurant", "name": "Yiyin gari bal\u0131k ekmek"}}, {"type": "node", "id": 8948741039, "lat": 37.861281, "lon": 27.2567669, "tags": {"amenity": "restaurant", "name": "Kuzey Bal\u0131k"}}, {"type": "node", "id": 8948746827, "lat": 37.8612068, "lon": 27.2563574, "tags": {"amenity": "cafe", "brand": "Mado", "brand:wikidata": "Q17116336", "cuisine": "coffee_shop", "name": "Mado", "takeaway": "yes"}}, {"type": "node", "id": 8948746921, "lat": 37.8612943, "lon": 27.2560833, "tags": {"amenity": "restaurant", "name": "\u0130stank\u00f6y"}}, {"type": "node", "id": 9273163143, "lat": 37.9527769, "lon": 27.4305444}, {"type": "node", "id": 9273163144, "lat": 37.9528112, "lon": 27.4306231}, {"type": "node", "id": 9273163145, "lat": 37.9526853, "lon": 27.4307114}, {"type": "node", "id": 9273163146, "lat": 37.952651, "lon": 27.4306326}, {"type": "node", "id": 9273163147, "lat": 37.9526243, "lon": 27.4306432}, {"type": "node", "id": 9273163148, "lat": 37.9526696, "lon": 27.4307442}, {"type": "node", "id": 9273163149, "lat": 37.9524452, "lon": 27.4309058}, {"type": "node", "id": 9273163150, "lat": 37.9523999, "lon": 27.4308048}, {"type": "node", "id": 9453193017, "lat": 37.9514991, "lon": 27.3706165, "tags": {"amenity": "restaurant", "name": "Lahmacun"}}, {"type": "node", "id": 9685908480, "lat": 37.7738399, "lon": 27.2792283, "tags": {"addr:neighbourhood": "So\u011fucak mahsllesi Yuvam\u0131kur sitesi", "addr:street": "Atat\u00fcrk Cadde", "amenity": "cafe", "name": "D\u00dcNYA'NIN EN \u0130Y\u0130 S\u0130TES\u0130"}}, {"type": "node", "id": 9943141416, "lat": 37.9511859, "lon": 27.366052, "tags": {"addr:housenumber": "36", "addr:street": "Kallinger Caddesi", "amenity": "cafe", "name": "Amazon Cafe"}}, {"type": "node", "id": 9943156699, "lat": 37.9478111, "lon": 27.3658969, "tags": {"amenity": "restaurant", "cuisine": "korean", "name": "Efes Villa"}}, {"type": "node", "id": 9982062875, "lat": 37.7391544, "lon": 27.3418529, "tags": {"amenity": "cafe"}}, {"type": "node", "id": 9999731502, "lat": 38.0701899, "lon": 27.41023, "tags": {"amenity": "restaurant"}}, {"type": "node", "id": 9999731503, "lat": 38.0703771, "lon": 27.4121656, "tags": {"amenity": "restaurant"}}, {"type": "node", "id": 9999731504, "lat": 38.0703157, "lon": 27.4101705, "tags": {"amenity": "cafe"}}, {"type": "node", "id": 9999731505, "lat": 38.0702982, "lon": 27.4122176, "tags": {"amenity": "cafe"}}, {"type": "node", "id": 10027836842, "lat": 37.9345516, "lon": 27.3628023, "tags": {"air_conditioning": "yes", "amenity": "restaurant", "check_date": "2022-09-15", "cuisine": "turkish", "name": "Cerithan Restaurant", "outdoor_seating": "yes", "payment:bancomat": "yes", "payment:maestro": "yes", "payment:mastercard": "yes", "payment:visa": "yes", "payment:visa_debit": "yes", "payment:visa_electron": "yes", "toilets": "yes", "wheelchair": "limited"}}, {"type": "node", "id": 10027843144, "lat": 37.9123424, "lon": 27.3327859, "tags": {"amenity": "cafe", "check_date": "2022-09-15", "cuisine": "regional", "name": "Cafe Turko", "outdoor_seating": "yes", "payment:bancomat": "yes", "payment:maestro": "yes", "payment:mastercard": "yes", "payment:visa": "yes", "payment:visa_debit": "yes", "payment:visa_electron": "yes", "wheelchair": "no"}}, {"type": "node", "id": 10095056600, "lat": 37.9512621, "lon": 27.3717387}, {"type": "node", "id": 10095056601, "lat": 37.9512654, "lon": 27.3717779}, {"type": "node", "id": 10095056602, "lat": 37.9512768, "lon": 27.3717763}, {"type": "node", "id": 10095056603, "lat": 37.9512842, "lon": 27.3718644}, {"type": "node", "id": 10095056604, "lat": 37.9511341, "lon": 27.3718849}, {"type": "node", "id": 10095056605, "lat": 37.9511386, "lon": 27.3719384}, {"type": "node", "id": 10095056606, "lat": 37.9510842, "lon": 27.3719458}, {"type": "node", "id": 10095056607, "lat": 37.9510791, "lon": 27.3718855}, {"type": "node", "id": 10095056608, "lat": 37.9510612, "lon": 27.3718879}, {"type": "node", "id": 10095056609, "lat": 37.9510563, "lon": 27.3718297}, {"type": "node", "id": 10095056610, "lat": 37.9510792, "lon": 27.3718266}, {"type": "node", "id": 10095056611, "lat": 37.951074, "lon": 27.3717643}, {"type": "node", "id": 10216776017, "lat": 37.9503364, "lon": 27.3719321, "tags": {"amenity": "restaurant", "cuisine": "turkish", "name:en": "Nur Restaurant"}}, {"type": "node", "id": 10244339909, "lat": 37.9512574, "lon": 27.3658458, "tags": {"amenity": "restaurant", "cuisine": "turkish", "name": "Mekan"}}, {"type": "node", "id": 10315651086, "lat": 37.8714964, "lon": 27.6101361, "tags": {"amenity": "cafe"}}, {"type": "node", "id": 10742046225, "lat": 37.8729122, "lon": 27.2657159, "tags": {"addr:housenumber": "3", "addr:neighbourhood": "t\u00fcrkmen mahallesi", "addr:street": "Atat\u00fcrk Bulvar\u0131", "amenity": "restaurant", "cuisine": "regional;fish", "name": "Sef Restaurant", "phone": "+902566182554", "website": "www.sefrestaurantkusadasi.com"}}, {"type": "node", "id": 10773180507, "lat": 37.9416047, "lon": 27.4317069, "tags": {"addr:street": "210 Sokak No3", "amenity": "restaurant", "cuisine": "turkish", "name": "Gulten Ablanin Yeri", "name:it": "Gulten Ablanin Yeri"}}, {"type": "node", "id": 10811276980, "lat": 37.9511015, "lon": 27.3681054, "tags": {"amenity": "cafe", "check_date": "2023-04-14", "cuisine": "coffee_shop", "name": "Kallinos Coffee"}}, {"type": "node", "id": 10811276981, "lat": 37.9507698, "lon": 27.3684985, "tags": {"amenity": "cafe", "check_date": "2023-04-14", "cuisine": "coffee_shop", "name": "Kallinos"}}, {"type": "node", "id": 10814251152, "lat": 37.9433771, "lon": 27.3414584, "tags": {"amenity": "cafe", "check_date": "2023-04-15", "name": "Museum kahvesi"}}, {"type": "node", "id": 10814347625, "lat": 37.9387979, "lon": 27.3411576, "tags": {"amenity": "cafe", "check_date": "2023-04-15", "name": "M\u00fcze nin kahvesi"}}, {"type": "node", "id": 10814573777, "lat": 37.9501846, "lon": 27.3714467, "tags": {"amenity": "cafe", "check_date": "2023-04-15", "name": "Okumu\u015f Mercan pide"}}, {"type": "node", "id": 10814573779, "lat": 37.9501228, "lon": 27.3714206, "tags": {"amenity": "cafe", "check_date": "2023-04-15", "name": "Artemis K\u00f6fteci"}}, {"type": "node", "id": 10814573780, "lat": 37.9500453, "lon": 27.3713932, "tags": {"amenity": "cafe", "check_date": "2023-04-15", "name": "K\u00f6\u015fem restaurant"}}, {"type": "node", "id": 10888000657, "lat": 37.8739328, "lon": 27.2647976, "tags": {"addr:city": "ayd\u0131n", "addr:district": "ku\u015fadas\u0131", "addr:housenumber": "6", "addr:neighbourhood": "t\u00fcrkmen mahallesi", "addr:postcode": "09400", "addr:street": "H\u00fclya Ko\u00e7yi\u011fit", "air_conditioning": "yes", "amenity": "restaurant", "bar": "yes", "cuisine": "turkish", "diet:meat": "yes", "internet_access": "wlan", "name": "Nihavend Meyhane", "payment:cash": "yes", "payment:credit_cards": "yes", "phone": "05326966568", "reservation": "recommended", "smoking": "yes", "toilets": "yes", "wheelchair": "limited"}}, {"type": "node", "id": 11063540985, "lat": 37.9417602, "lon": 27.4317395, "tags": {"amenity": "restaurant", "food": "local", "name": "Pervin Teyzenin Yeri"}}, {"type": "node", "id": 11138185229, "lat": 37.8613261, "lon": 27.2571357, "tags": {"air_conditioning": "yes", "amenity": "cafe", "level": "1", "name": "artcafe", "outdoor_seating": "no"}}, {"type": "node", "id": 11142977121, "lat": 37.8625848, "lon": 27.259892, "tags": {"amenity": "cafe", "name": "Cafe Roma"}}, {"type": "node", "id": 11149738047, "lat": 37.8609757, "lon": 27.2562561, "tags": {"amenity": "restaurant", "cuisine": "steak_house", "name": "Dolunay Steak House"}}, {"type": "node", "id": 11154359021, "lat": 37.8416299, "lon": 27.2472088}, {"type": "node", "id": 11154359024, "lat": 37.841678, "lon": 27.2471514}, {"type": "node", "id": 11154359025, "lat": 37.8417148, "lon": 27.2471074}, {"type": "node", "id": 11154359026, "lat": 37.8416854, "lon": 27.2470679}, {"type": "node", "id": 11154359027, "lat": 37.8416005, "lon": 27.2471693}, {"type": "node", "id": 11155789356, "lat": 37.8303879, "lon": 27.37397, "tags": {"amenity": "restaurant", "cuisine": "turkish", "name": "K\u00f6y Sofras\u0131"}}, {"type": "node", "id": 11155789357, "lat": 37.8292685, "lon": 27.3721668}, {"type": "node", "id": 11155789358, "lat": 37.8292541, "lon": 27.3720969}, {"type": "node", "id": 11155789359, "lat": 37.8291797, "lon": 27.3721214}, {"type": "node", "id": 11155789360, "lat": 37.8291941, "lon": 27.3721914}, {"type": "node", "id": 11155789366, "lat": 37.8277387, "lon": 27.3716573}, {"type": "node", "id": 11155789367, "lat": 37.8277697, "lon": 27.3714482}, {"type": "node", "id": 11155789368, "lat": 37.8277593, "lon": 27.3712173}, {"type": "node", "id": 11155789369, "lat": 37.8276974, "lon": 27.3712194}, {"type": "node", "id": 11155789370, "lat": 37.8276452, "lon": 27.371224}, {"type": "node", "id": 11155789371, "lat": 37.8275632, "lon": 27.3714525}, {"type": "node", "id": 11155789372, "lat": 37.8275443, "lon": 27.3716355}, {"type": "node", "id": 11155789373, "lat": 37.8294128, "lon": 27.3650284}, {"type": "node", "id": 11158895776, "lat": 37.8299105, "lon": 27.358678}, {"type": "node", "id": 11158989284, "lat": 37.8293093, "lon": 27.3684699}, {"type": "node", "id": 11158989285, "lat": 37.829304, "lon": 27.3683848}, {"type": "node", "id": 11158989286, "lat": 37.8292367, "lon": 27.3683916}, {"type": "node", "id": 11158989287, "lat": 37.829242, "lon": 27.3684766}, {"type": "node", "id": 11159058806, "lat": 37.8295495, "lon": 27.3692708}, {"type": "node", "id": 11159058807, "lat": 37.8295216, "lon": 27.3690778}, {"type": "node", "id": 11159058808, "lat": 37.8294331, "lon": 27.3690983}, {"type": "node", "id": 11159058809, "lat": 37.829461, "lon": 27.3692913}, {"type": "node", "id": 11159058825, "lat": 37.8304758, "lon": 27.3536338}, {"type": "node", "id": 11159058826, "lat": 37.8304651, "lon": 27.3535349}, {"type": "node", "id": 11159058827, "lat": 37.8303622, "lon": 27.3535529}, {"type": "node", "id": 11159058828, "lat": 37.8303503, "lon": 27.3534226}, {"type": "node", "id": 11159058829, "lat": 37.8302592, "lon": 27.35343}, {"type": "node", "id": 11159058830, "lat": 37.8302722, "lon": 27.3535679}, {"type": "node", "id": 11159058831, "lat": 37.8301799, "lon": 27.3535739}, {"type": "node", "id": 11159058832, "lat": 37.8301906, "lon": 27.3537132}, {"type": "node", "id": 11159058833, "lat": 37.8302983, "lon": 27.3536998}, {"type": "node", "id": 11159058834, "lat": 37.8304474, "lon": 27.3536608}, {"type": "node", "id": 11159058835, "lat": 37.829891, "lon": 27.358561}, {"type": "node", "id": 11159058836, "lat": 37.8298034, "lon": 27.3585843}, {"type": "node", "id": 11159058837, "lat": 37.829794, "lon": 27.3585274}, {"type": "node", "id": 11159058838, "lat": 37.8297882, "lon": 27.3587106}, {"type": "node", "id": 11159058839, "lat": 37.8298396, "lon": 27.3585152}, {"type": "node", "id": 11159058840, "lat": 37.8297435, "lon": 27.3584421}, {"type": "node", "id": 11159058841, "lat": 37.8298238, "lon": 27.3584207}, {"type": "node", "id": 11159058842, "lat": 37.830794, "lon": 27.358801}, {"type": "node", "id": 11159058843, "lat": 37.8301453, "lon": 27.3588559}, {"type": "node", "id": 11159058844, "lat": 37.8301666, "lon": 27.3592603}, {"type": "node", "id": 11159058845, "lat": 37.8308153, "lon": 27.3592053}, {"type": "node", "id": 11159058857, "lat": 37.8276266, "lon": 27.3713601}, {"type": "node", "id": 11159129689, "lat": 37.8304784, "lon": 27.3592339}, {"type": "node", "id": 11159129690, "lat": 37.8304864, "lon": 27.3594367}, {"type": "node", "id": 11159129691, "lat": 37.8305882, "lon": 27.3594304}, {"type": "node", "id": 11159129692, "lat": 37.8305972, "lon": 27.3596612}, {"type": "node", "id": 11159129693, "lat": 37.8308774, "lon": 27.3596437}, {"type": "node", "id": 11159129694, "lat": 37.8308839, "lon": 27.359809}, {"type": "node", "id": 11159129695, "lat": 37.8301897, "lon": 27.3598524}, {"type": "node", "id": 11164849805, "lat": 37.9521091, "lon": 27.3708815, "tags": {"amenity": "restaurant", "cuisine": "local;turkish", "diet:vegetarian": "yes", "name": "Y\u00f6r\u00fcko\u011flu"}}, {"type": "node", "id": 11164849806, "lat": 37.9505241, "lon": 27.3708659, "tags": {"amenity": "restaurant", "cuisine": "fish;local;turkish", "diet:vegetarian": "yes", "internet_access": "wlan", "name": "Tat"}}, {"type": "node", "id": 11167269673, "lat": 37.8609961, "lon": 27.259356, "tags": {"amenity": "cafe", "name": "The Geyik"}}, {"type": "node", "id": 11167485282, "lat": 37.8609695, "lon": 27.2593934, "tags": {"amenity": "cafe", "name": "Mios \u015eukufe"}}, {"type": "node", "id": 11167485289, "lat": 37.8613154, "lon": 27.2589612, "tags": {"amenity": "cafe", "name": "Sur Cafe"}}, {"type": "node", "id": 11167485290, "lat": 37.8616399, "lon": 27.2587455}, {"type": "node", "id": 11167485297, "lat": 37.8612878, "lon": 27.258727}, {"type": "node", "id": 11167485298, "lat": 37.8614387, "lon": 27.2585948}, {"type": "node", "id": 11167485299, "lat": 37.8613864, "lon": 27.2584991}, {"type": "node", "id": 11167485300, "lat": 37.8612355, "lon": 27.2586313}, {"type": "node", "id": 11169563337, "lat": 37.8403186, "lon": 27.2600159, "tags": {"amenity": "restaurant", "cuisine": "turkish", "name": "\u015eeker Ustan\u0131n Yeri"}}, {"type": "node", "id": 11173430208, "lat": 37.8548426, "lon": 27.2549955, "tags": {"amenity": "restaurant", "cuisine": "turkish", "name": "Karacasulu Hasan Usta"}}, {"type": "node", "id": 11174313541, "lat": 37.8391589, "lon": 27.2604129}, {"type": "node", "id": 11175294500, "lat": 37.9373492, "lon": 27.2766177}, {"type": "node", "id": 11175294501, "lat": 37.9373606, "lon": 27.2767722}, {"type": "node", "id": 11175294502, "lat": 37.9371386, "lon": 27.2766426}, {"type": "node", "id": 11176614808, "lat": 37.8616935, "lon": 27.2588116}, {"type": "node", "id": 11176614809, "lat": 37.8618124, "lon": 27.2586569}, {"type": "node", "id": 11176614810, "lat": 37.8617993, "lon": 27.2586408}, {"type": "node", "id": 11176614811, "lat": 37.8618096, "lon": 27.2586274}, {"type": "node", "id": 11176614812, "lat": 37.8616908, "lon": 27.2584808}, {"type": "node", "id": 11176614813, "lat": 37.8616441, "lon": 27.2585416}, {"type": "node", "id": 11176614814, "lat": 37.8616725, "lon": 27.2585767}, {"type": "node", "id": 11176614815, "lat": 37.86159, "lon": 27.258684}, {"type": "node", "id": 11176614816, "lat": 37.8619295, "lon": 27.2587934, "tags": {"amenity": "restaurant", "cuisine": "turkish", "name": "Ankara D\u00f6nercisi"}}, {"type": "node", "id": 11176614827, "lat": 37.8617829, "lon": 27.2594149}, {"type": "node", "id": 11176614828, "lat": 37.8618572, "lon": 27.2592883}, {"type": "node", "id": 11176614829, "lat": 37.8618156, "lon": 27.2592492}, {"type": "node", "id": 11176614830, "lat": 37.8617413, "lon": 27.2593757}, {"type": "node", "id": 11176614831, "lat": 37.8617991, "lon": 27.2594282}, {"type": "node", "id": 11176614832, "lat": 37.8616897, "lon": 27.2596255}, {"type": "node", "id": 11176614833, "lat": 37.8616169, "lon": 27.2595607}, {"type": "node", "id": 11176614834, "lat": 37.8617263, "lon": 27.2593634}, {"type": "node", "id": 11176622495, "lat": 37.8591167, "lon": 27.2584874}, {"type": "node", "id": 11176622496, "lat": 37.8590513, "lon": 27.2583975}, {"type": "node", "id": 11176622497, "lat": 37.8589762, "lon": 27.2584636}, {"type": "node", "id": 11176622498, "lat": 37.8590193, "lon": 27.2585638}, {"type": "node", "id": 11176622499, "lat": 37.858994, "lon": 27.2583403}, {"type": "node", "id": 11176622500, "lat": 37.8589407, "lon": 27.2582697}, {"type": "node", "id": 11176622501, "lat": 37.8588961, "lon": 27.2583313}, {"type": "node", "id": 11176622502, "lat": 37.8589443, "lon": 27.258393}, {"type": "node", "id": 11176722450, "lat": 37.8427708, "lon": 27.2421192}, {"type": "node", "id": 11176722451, "lat": 37.8427163, "lon": 27.2422473}, {"type": "node", "id": 11176722452, "lat": 37.8428527, "lon": 27.2423405}, {"type": "node", "id": 11185779011, "lat": 37.8746994, "lon": 27.26559, "tags": {"amenity": "restaurant", "cuisine": "turkish", "name": "Adapl\u0131 Meyhane"}}, {"type": "node", "id": 11185921254, "lat": 37.8612596, "lon": 27.256024}, {"type": "node", "id": 11185921266, "lat": 37.861322, "lon": 27.2559516}, {"type": "node", "id": 11185921267, "lat": 37.8612753, "lon": 27.2560058}, {"type": "node", "id": 11186062836, "lat": 37.8501443, "lon": 27.2589028}, {"type": "node", "id": 11186115537, "lat": 37.8501298, "lon": 27.2586943}, {"type": "node", "id": 11186115538, "lat": 37.849994, "lon": 27.2587689}, {"type": "node", "id": 11186115539, "lat": 37.8500136, "lon": 27.2589158}, {"type": "node", "id": 11186115541, "lat": 37.8501353, "lon": 27.2587638}, {"type": "node", "id": 11186115542, "lat": 37.8501382, "lon": 27.258797}, {"type": "node", "id": 11186115551, "lat": 37.8500537, "lon": 27.258911}, {"type": "node", "id": 11186115662, "lat": 37.8391298, "lon": 27.2603366}, {"type": "node", "id": 11186115663, "lat": 37.8390512, "lon": 27.260384}, {"type": "node", "id": 11186115664, "lat": 37.8390804, "lon": 27.2604609}, {"type": "node", "id": 11187712050, "lat": 37.7490457, "lon": 27.2543434}, {"type": "node", "id": 11187778290, "lat": 37.7082393, "lon": 27.2064261}, {"type": "node", "id": 11187778291, "lat": 37.7082533, "lon": 27.2062234}, {"type": "node", "id": 11187778292, "lat": 37.7081681, "lon": 27.206214}, {"type": "node", "id": 11187778293, "lat": 37.7081542, "lon": 27.2064168}, {"type": "node", "id": 11204995064, "lat": 37.8632546, "lon": 27.2612795}, {"type": "node", "id": 11204995065, "lat": 37.863282, "lon": 27.2612484}, {"type": "node", "id": 11204995066, "lat": 37.8632456, "lon": 27.2611967}, {"type": "node", "id": 11204995067, "lat": 37.8632182, "lon": 27.2612278}, {"type": "node", "id": 11207225706, "lat": 37.8608454, "lon": 27.2595609, "tags": {"amenity": "cafe", "bar": "yes", "name": "No33"}}, {"type": "node", "id": 11207225708, "lat": 37.8607828, "lon": 27.2596472, "tags": {"amenity": "cafe", "name": "Kaffa"}}, {"type": "node", "id": 11207898827, "lat": 37.8612102, "lon": 27.2560777}, {"type": "node", "id": 11207898828, "lat": 37.861251, "lon": 27.255821}, {"type": "node", "id": 11207898832, "lat": 37.8607475, "lon": 27.2597008, "tags": {"amenity": "cafe", "name": "Angel Cafe"}}, {"type": "node", "id": 11207898834, "lat": 37.8605346, "lon": 27.2600398, "tags": {"amenity": "cafe", "name": "Neopolis Cafe"}}, {"type": "node", "id": 11251683437, "lat": 37.7596424, "lon": 27.2616019, "tags": {"amenity": "restaurant", "name": "Ugur restaurant"}}, {"type": "node", "id": 11251683443, "lat": 37.7599136, "lon": 27.2644412, "tags": {"amenity": "cafe", "name": "Has Cafe"}}, {"type": "node", "id": 11252620937, "lat": 37.7535915, "lon": 27.2558035, "tags": {"amenity": "cafe"}}, {"type": "node", "id": 11254547756, "lat": 37.860821, "lon": 27.2623076, "tags": {"amenity": "restaurant", "name": "Maya Lokanta"}}, {"type": "node", "id": 11254547942, "lat": 37.8569759, "lon": 27.2605066, "tags": {"amenity": "restaurant"}}, {"type": "node", "id": 11254645237, "lat": 37.8568448, "lon": 27.2643191, "tags": {"amenity": "restaurant"}}, {"type": "node", "id": 11255314037, "lat": 37.8566513, "lon": 27.2648146, "tags": {"amenity": "restaurant"}}, {"type": "node", "id": 11255314138, "lat": 37.8577622, "lon": 27.2600657, "tags": {"amenity": "restaurant"}}, {"type": "node", "id": 11255314139, "lat": 37.8588897, "lon": 27.2584545, "tags": {"amenity": "restaurant", "cuisine": "barbecue", "name": "K\u00f6fteci Hasan"}}, {"type": "node", "id": 11255314237, "lat": 37.8576841, "lon": 27.2619145, "tags": {"amenity": "restaurant", "name": "AliZa Andolu Lokantas\u0131"}}, {"type": "node", "id": 11255314239, "lat": 37.8577855, "lon": 27.2601313, "tags": {"amenity": "restaurant"}}, {"type": "node", "id": 11255314240, "lat": 37.8607049, "lon": 27.254754, "tags": {"amenity": "restaurant", "cuisine": "seafood", "name": "Oksa Port"}}, {"type": "node", "id": 11255314241, "lat": 37.8611722, "lon": 27.2543899, "tags": {"amenity": "restaurant", "name": "Billy's Brasserie & Bar"}}, {"type": "node", "id": 11262394438, "lat": 38.0887938, "lon": 27.1818633, "tags": {"amenity": "restaurant"}}, {"type": "node", "id": 11266498369, "lat": 37.9493915, "lon": 27.3678751, "tags": {"amenity": "restaurant", "name": "Boomerang Garden Restaurant"}}, {"type": "node", "id": 11336576569, "lat": 37.8576003, "lon": 27.2600237, "tags": {"amenity": "restaurant", "cuisine": "turkish", "name:en": "Dost"}}, {"type": "node", "id": 11339421770, "lat": 37.7123285, "lon": 27.213812, "tags": {"amenity": "restaurant", "cuisine": "fish", "name:en": "Smyrna Restaurant"}}, {"type": "node", "id": 11348830503, "lat": 37.9511967, "lon": 27.365873, "tags": {"amenity": "restaurant", "name": "Skopje Otantic"}}, {"type": "node", "id": 11559603970, "lat": 37.9429036, "lon": 27.4319627, "tags": {"amenity": "restaurant", "name": "Hala 'nin"}}, {"type": "node", "id": 11577259876, "lat": 37.766225, "lon": 27.3947525, "tags": {"amenity": "cafe", "cuisine": "coffee_shop"}}, {"type": "node", "id": 11578443640, "lat": 37.763074, "lon": 27.3911947}, {"type": "node", "id": 11578443641, "lat": 37.7630941, "lon": 27.3912089}, {"type": "node", "id": 11578443642, "lat": 37.7631039, "lon": 27.3912308}, {"type": "node", "id": 11578443643, "lat": 37.7631053, "lon": 27.3912597}, {"type": "node", "id": 11578443644, "lat": 37.7630955, "lon": 27.391284}, {"type": "node", "id": 11578443645, "lat": 37.7630805, "lon": 27.391294}, {"type": "node", "id": 11578443646, "lat": 37.7630628, "lon": 27.3912982}, {"type": "node", "id": 11578443647, "lat": 37.7630464, "lon": 27.3912917}, {"type": "node", "id": 11578443648, "lat": 37.7630319, "lon": 27.3912692}, {"type": "node", "id": 11578443649, "lat": 37.7630291, "lon": 27.3912414}, {"type": "node", "id": 11578443650, "lat": 37.7630357, "lon": 27.3912101}, {"type": "node", "id": 11578443651, "lat": 37.7630534, "lon": 27.3911941}, {"type": "node", "id": 11579948824, "lat": 37.7688851, "lon": 27.39296, "tags": {"amenity": "cafe", "name": "Kad\u0131k\u00f6y Kafe"}}, {"type": "node", "id": 11579948825, "lat": 37.7685232, "lon": 27.3931448, "tags": {"amenity": "cafe", "name": "Keyif Kafe"}}, {"type": "node", "id": 11819925673, "lat": 37.6902416, "lon": 27.3810114}, {"type": "node", "id": 11819925674, "lat": 37.6902487, "lon": 27.3809444}, {"type": "node", "id": 11819925675, "lat": 37.6902294, "lon": 27.3811275}, {"type": "node", "id": 11819925676, "lat": 37.6901504, "lon": 27.3811143}, {"type": "node", "id": 11819925677, "lat": 37.6901696, "lon": 27.3809311}, {"type": "node", "id": 12006385032, "lat": 37.7263423, "lon": 27.2487294, "tags": {"amenity": "cafe", "name": "Kahvehane"}}, {"type": "node", "id": 12105657601, "lat": 37.86174, "lon": 27.2585835, "tags": {"amenity": "cafe", "internet_access": "wlan", "name": "The Hand CoffeeShop"}}, {"type": "node", "id": 12105657701, "lat": 37.8109344, "lon": 27.2793472, "tags": {"amenity": "cafe", "cuisine": "coffee_shop", "internet_access": "wlan", "name": "Starbucks"}}, {"type": "node", "id": 12105662001, "lat": 37.811073, "lon": 27.2791364, "tags": {"amenity": "cafe", "internet_access": "wlan", "level": "1", "name": "Colombia coffee", "website": "https://www.colombiacoffeetr.com.tr"}}, {"type": "node", "id": 12114471002, "lat": 37.8076864, "lon": 27.2784087, "tags": {"amenity": "cafe", "name": "Brew mood coffee"}}, {"type": "node", "id": 12229485901, "lat": 37.9506163, "lon": 27.3715652, "tags": {"amenity": "cafe", "name": "WaffleEfes"}}, {"type": "node", "id": 12327173304, "lat": 37.8619095, "lon": 27.2545739, "tags": {"amenity": "cafe", "brand": "Starbucks", "brand:wikidata": "Q37158", "cuisine": "coffee_shop", "name": "Starbucks", "official_name": "Starbucks Coffee", "takeaway": "yes"}}, {"type": "node", "id": 12423233639, "lat": 37.93715, "lon": 27.2767971}, {"type": "node", "id": 12466891073, "lat": 37.8254412, "lon": 27.2516801}, {"type": "node", "id": 12466891074, "lat": 37.8253549, "lon": 27.251609}, {"type": "node", "id": 12466891075, "lat": 37.8252327, "lon": 27.2516285}, {"type": "node", "id": 12466891076, "lat": 37.8251932, "lon": 27.2516649}, {"type": "node", "id": 12466891077, "lat": 37.8251932, "lon": 27.2517392}, {"type": "node", "id": 12466891078, "lat": 37.8252195, "lon": 27.2517984}, {"type": "node", "id": 12466891079, "lat": 37.8252747, "lon": 27.2518348}, {"type": "node", "id": 12466891080, "lat": 37.8253777, "lon": 27.2518666}, {"type": "node", "id": 12466891081, "lat": 37.8254328, "lon": 27.2518211}, {"type": "node", "id": 12532259817, "lat": 37.7758989, "lon": 27.3008687, "tags": {"addr:city": "ayd\u0131n", "addr:district": "ku\u015fadas\u0131", "addr:housenumber": "2", "addr:neighbourhood": "So\u011fucak", "addr:postcode": "09400", "addr:street": "Pine Valley Sk", "amenity": "restaurant", "cuisine": "sandwich;chicken;kebab;breakfast;burger;tea", "name": "Panorama Restaurant", "opening_hours": "Mo-Su 09:00-21:00", "outdoor_seating": "yes", "phone": "0 540 712 16 43"}}, {"type": "node", "id": 12680531283, "lat": 37.8444951, "lon": 27.243209, "tags": {"addr:city": "AYDIN", "addr:district": "Ku\u015fadas\u0131", "addr:housenumber": "59", "addr:neighbourhood": "Kad\u0131nlar Denizi Mahallesi", "addr:street": "Kad\u0131nlar Denizi Caddesi", "amenity": "restaurant", "contact:facebook": "https://www.facebook.com/besoulkusadasi", "cuisine": "pizza;burger;chicken;fish_and_chips", "name": "Be Soul Ku\u015fadas\u0131"}}, {"type": "node", "id": 12766176202, "lat": 37.8530691, "lon": 27.2683073, "tags": {"addr:housenumber": "8/B", "addr:postcode": "09400", "addr:street": "\u0130ki\u00e7e\u015fmelik Caddesi", "amenity": "restaurant", "name": "Urfa Lava\u015f Pide & Lahmacun"}}, {"type": "node", "id": 12783337925, "lat": 37.8510135, "lon": 27.24294, "tags": {"addr:city": "Ayd\u0131n", "addr:district": "Ku\u015fadas\u0131", "addr:housenumber": "No:30/2", "addr:neighbourhood": "Kad\u0131nlar Denizi Mah.", "addr:street": "2639 Sok. Se\u00e7kin Sitesi \u0130\u00e7i", "amenity": "restaurant", "bar": "yes", "cuisine": "seafood", "name": "Mare Bal\u0131k Restaurant", "outdoor_seating": "yes", "phone": "+90 533 149 1983", "reservation": "recommended"}}, {"type": "node", "id": 12851140089, "lat": 37.8564837, "lon": 27.2617033, "tags": {"addr:city": "Ayd\u0131n", "addr:district": "Ku\u015fadas\u0131", "addr:housenumber": "No: 4/A", "addr:neighbourhood": "Cumhuriyet Mah.", "addr:street": "Kalander Mustafa Sok", "amenity": "restaurant", "cuisine": "turkish;regional;fish", "name": "Ada M\u00fczeyyen", "payment:cash": "yes", "payment:credit_cards": "yes", "phone": "+90 532 506 33 34", "reservation": "recommended", "website:menu": "noxxmenu.com/adamuzeyyen"}}, {"type": "node", "id": 12896141643, "lat": 37.823888, "lon": 27.2598352}, {"type": "node", "id": 12896141647, "lat": 37.8240964, "lon": 27.2597625}, {"type": "node", "id": 12896141648, "lat": 37.8240215, "lon": 27.2597025}, {"type": "node", "id": 12896141649, "lat": 37.8241455, "lon": 27.2596643}, {"type": "node", "id": 12896141653, "lat": 37.8239382, "lon": 27.2598693}, {"type": "node", "id": 12896141654, "lat": 37.82378, "lon": 27.2600139}, {"type": "node", "id": 12896141655, "lat": 37.8238605, "lon": 27.2598172}, {"type": "node", "id": 12896141656, "lat": 37.8240589, "lon": 27.2599483}, {"type": "node", "id": 12896141657, "lat": 37.8239788, "lon": 27.2601442}, {"type": "node", "id": 12896141658, "lat": 37.8240224, "lon": 27.2595657}, {"type": "node", "id": 12912057319, "lat": 37.7119981, "lon": 27.2134957, "tags": {"addr:city": "Ayd\u0131n", "addr:district": "Ku\u015fadas\u0131", "addr:housenumber": "242", "addr:neighbourhood": "G\u00fczel\u00e7aml\u0131 Mah", "addr:street": "Milli Park Caddesi", "amenity": "restaurant", "cuisine": "seafood;breakfast;fish_and_chips;tea;juice;coffee_shop", "name": "Zeus Restaurant Cafe Beach"}}, {"type": "way", "id": 292265769, "nodes": [2958192390, 2958192392, 2958192391, 2958192389, 2958192390], "tags": {"amenity": "cafe"}}, {"type": "way", "id": 398533844, "nodes": [4012821015, 4012821014, 4012821016, 4012821017, 4012821015], "tags": {"addr:city": "\u0130zmir", "addr:district": "Sel\u00e7uk", "addr:housenumber": "34", "addr:neighbourhood": "\u0130sa Bey Mah.", "addr:postcode": "35920", "addr:street": "\u0130zmir - Ayd\u0131n Yolu", "amenity": "restaurant", "building": "yes", "building:levels": "1", "image": "https://maps.app.goo.gl/viKxks4Y82GGLi118", "name": "B\u00fclent Steakhouse"}}, {"type": "way", "id": 506724291, "nodes": [4963994106, 4963970798], "tags": {"highway": "service"}}, {"type": "way", "id": 506724292, "nodes": [4963994107, 4963994106], "tags": {"highway": "service"}}, {"type": "way", "id": 506724467, "nodes": [4963970806, 4963994107], "tags": {"highway": "service"}}, {"type": "way", "id": 506724469, "nodes": [4963970806, 4963970805, 4963970804, 4963970803]}, {"type": "way", "id": 509054978, "nodes": [4963970801, 4963970800, 4963970799, 4963970798]}, {"type": "way", "id": 509054979, "nodes": [4963970803, 4963970802, 4963970801], "tags": {"highway": "service"}}, {"type": "way", "id": 579662159, "nodes": [5550954386, 11155789373, 5550954384, 5550954385, 5550954386], "tags": {"amenity": "restaurant", "building": "yes", "cuisine": "turkish", "name": "Pinar K\u00f6y Sofras\u0131"}}, {"type": "way", "id": 579662502, "nodes": [5550956750, 5550956749, 5550956748, 5550956747, 5550956750], "tags": {"amenity": "restaurant", "building": "yes", "cuisine": "turkish", "name": "K\u0131razl\u0131 Pide Salonu"}}, {"type": "way", "id": 589406678, "nodes": [5628321404, 5628321405, 5628321406, 5628321407, 5628321404], "tags": {"amenity": "cafe", "building": "commercial", "name": "Ku\u015fadas\u0131 \u015eehit Kaya Aldo\u011fan Lisesi Kantini", "smoking": "no"}}, {"type": "way", "id": 617017160, "nodes": [5833076766, 5833076765, 5833076764, 5833076763, 5833076762, 5833076761, 5833076766], "tags": {"amenity": "restaurant", "name": "Kumsal Restaurant"}}, {"type": "way", "id": 625285305, "nodes": [5904004752, 5904004753, 5904004754, 5904004755, 5904004756, 5904004757, 5904004758, 11187712050, 5904004759, 5904004760, 5904004761, 5904004752], "tags": {"amenity": "cafe", "building": "yes", "name": "S\u00f6ke Sahil Gazinosu"}}, {"type": "way", "id": 684768338, "nodes": [6416064245, 6416064246, 6416064247, 6416064249, 6416064245], "tags": {"amenity": "restaurant", "building": "yes", "name": "Artemis Restaurant"}}, {"type": "way", "id": 842585360, "nodes": [7860424653, 7860424654, 7860424655, 7860424656, 7860424657, 7860424658, 7860424659, 7860424660, 7860424661, 7860424653], "tags": {"amenity": "restaurant", "building": "yes", "cuisine": "regional", "name": "Park Restoran"}}, {"type": "way", "id": 1005063260, "nodes": [9273163146, 9273163145, 9273163144, 9273163143, 9273163146], "tags": {"amenity": "restaurant", "building": "yes", "cuisine": "turkish", "name": "Ciddi Kep\u00e7e Lokantas\u0131"}}, {"type": "way", "id": 1005063261, "nodes": [9273163150, 9273163149, 9273163148, 9273163147, 9273163150], "tags": {"amenity": "restaurant", "building": "yes", "cuisine": "turkish", "name": "Bol Kep\u00e7e Lokantas\u0131"}}, {"type": "way", "id": 1103158254, "nodes": [10095056600, 10095056601, 10095056602, 10095056603, 10095056604, 10095056605, 10095056606, 10095056607, 10095056608, 10095056609, 10095056610, 10095056611, 10095056600], "tags": {"amenity": "cafe", "building": "retail", "building:levels": "1", "cuisine": "turkish", "drink:wine": "served", "height": "4", "name": "Karpuza Cafe", "name:en": "Carpouza Cafe", "outdoor_seating": "yes"}}, {"type": "way", "id": 1203277564, "nodes": [11154359021, 11154359024, 11154359025, 11154359026, 11154359027, 11154359021], "tags": {"amenity": "restaurant", "building": "yes", "cuisine": "turkish", "name": "Nazilli Bahar Pide"}}, {"type": "way", "id": 1203464990, "nodes": [11155789357, 11155789358, 11155789359, 11155789360, 11155789357], "tags": {"amenity": "restaurant", "building": "yes", "cuisine": "turkish", "name": "Ku\u015fadas\u0131 Serpme Kahvalt\u0131"}}, {"type": "way", "id": 1203464992, "nodes": [11155789366, 11155789367, 11155789368, 11155789369, 11155789370, 11159058857, 11155789371, 11155789372, 11155789366], "tags": {"amenity": "restaurant", "cuisine": "turkish", "name": "K\u0131razl\u0131 Sultan Konak", "tourism": "hotel"}}, {"type": "way", "id": 1203929039, "nodes": [11158989284, 11158989285, 11158989286, 11158989287, 11158989284], "tags": {"amenity": "restaurant", "building": "yes", "cuisine": "turkish", "name": "Y\u0131ld\u0131z Restaurant"}}, {"type": "way", "id": 1203938424, "nodes": [11159058806, 11159058807, 11159058808, 11159058809, 11159058806], "tags": {"amenity": "cafe", "building": "yes", "name": "Tea Garden"}}, {"type": "way", "id": 1203938426, "nodes": [11159058825, 11159058826, 11159058827, 11159058828, 11159058829, 11159058830, 11159058831, 11159058832, 11159058833, 11159058834, 11159058825], "tags": {"amenity": "restaurant", "building": "yes", "cuisine": "turkish", "name": "K\u00f6y Sofras\u0131"}}, {"type": "way", "id": 1203938427, "nodes": [11158895776, 11159058835, 11159058836, 11159058837, 11159058839, 11159058841, 11159058840, 11159058838, 11158895776], "tags": {"amenity": "restaurant", "building": "yes", "cuisine": "turkish", "name": "Kirazl\u0131 k\u00f6y\u00fc"}}, {"type": "way", "id": 1203938428, "nodes": [11159058842, 11159058843, 11159058844, 11159129689, 11159058845, 11159058842], "tags": {"amenity": "restaurant", "cuisine": "turkish", "name": "Al Yazmal\u0131"}}, {"type": "way", "id": 1203947401, "nodes": [11159129689, 11159129690, 11159129691, 11159129692, 11159129693, 11159129694, 11159129695, 11159058844, 11159129689], "tags": {"amenity": "restaurant", "cuisine": "turkish", "name": "Bahar'\u0131n Yeri Y\u00f6r\u00fck \u00c7adiri"}}, {"type": "way", "id": 1204964945, "nodes": [11167485297, 11167485298, 11167485299, 11167485300, 11167485297], "tags": {"amenity": "cafe", "building": "yes", "name": "Eski Kafa"}}, {"type": "way", "id": 1205958385, "nodes": [11175294500, 11175294501, 12423233639, 11175294502, 11175294500], "tags": {"amenity": "restaurant", "building": "restaurant", "check_date": "2023-09-08", "name": "Sel\u00e7uk Belediyesi Pamucak Restaurant", "outdoor_seating": "yes"}}, {"type": "way", "id": 1206122979, "nodes": [11176614808, 11176614809, 11176614810, 11176614811, 11176614812, 11176614813, 11176614814, 11176614815, 11167485290, 11176614808], "tags": {"amenity": "restaurant", "building": "yes", "cuisine": "turkish", "name": "by Haura"}}, {"type": "way", "id": 1206122983, "nodes": [11176614827, 11176614828, 11176614829, 11176614830, 11176614827], "tags": {"amenity": "restaurant", "building": "yes", "name": "Adal\u0131"}}, {"type": "way", "id": 1206122984, "nodes": [11176614831, 11176614832, 11176614833, 11176614834, 11176614830, 11176614827, 11176614831], "tags": {"amenity": "restaurant", "building": "yes", "cuisine": "seafood", "name": "Alev Bal\u0131k"}}, {"type": "way", "id": 1206122999, "nodes": [11176622495, 11176622496, 11176622497, 11176622498, 11176622495], "tags": {"amenity": "restaurant", "building": "yes", "cuisine": "turkish", "name": "Center Restaurant"}}, {"type": "way", "id": 1206123000, "nodes": [11176622499, 11176622500, 11176622501, 11176622502, 11176622499], "tags": {"amenity": "restaurant", "building": "yes", "cuisine": "turkish", "name": "4Brother Restaurant"}}, {"type": "way", "id": 1206147111, "nodes": [7698573685, 11176722450, 11176722451, 11176722452, 7698573685], "tags": {"amenity": "restaurant", "building": "yes", "name": "Halikarnas", "name:en": "Halikarnas", "name:ru": "\u0425\u0430\u043b\u0438\u043a\u0430\u0440\u043d\u0430\u0441", "name:tr": "Halikarnas"}}, {"type": "way", "id": 1207209709, "nodes": [11186062836, 11186115542, 11186115541, 11186115537, 11186115538, 11186115539, 11186115551, 11186062836], "tags": {"amenity": "restaurant", "cuisine": "turkish", "name": "\u00c7orbac\u0131 Adem Usta"}}, {"type": "way", "id": 1207209746, "nodes": [11186115662, 11186115663, 11186115664, 11174313541, 11186115662], "tags": {"amenity": "restaurant", "cuisine": "turkish", "name": "Sanayi Lokantas\u0131"}}, {"type": "way", "id": 1207422093, "nodes": [11187778290, 11187778291, 11187778292, 11187778293, 11187778290], "tags": {"amenity": "cafe", "building": "yes"}}, {"type": "way", "id": 1209366256, "nodes": [11204995064, 11204995065, 11204995066, 11204995067, 11204995064], "tags": {"amenity": "cafe", "building": "yes", "name": "Arya Cafe"}}, {"type": "way", "id": 1209767596, "nodes": [8948719388, 11207898827, 11185921254, 11185921267, 11185921266, 11207898828, 8948719388], "tags": {"amenity": "restaurant", "cuisine": "seafood", "name": "\u0130stank\u00f6y Bal\u0131k\u00e7\u0131s\u0131"}}, {"type": "way", "id": 1245474217, "nodes": [11578443640, 11578443641, 11578443642, 11578443643, 11578443644, 11578443645, 11578443646, 11578443647, 11578443648, 11578443649, 11578443650, 11578443651, 11578443640], "tags": {"amenity": "cafe", "building": "yes", "name": "Zeytindal\u0131 Park Kafe"}}, {"type": "way", "id": 1272871037, "nodes": [11819925677, 11819925676, 11819925675, 11819925673, 11819925674, 11819925677], "tags": {"amenity": "cafe", "building": "yes", "building:levels": "1", "check_date": "2024-04-14", "cuisine": "coffee_shop", "name": "Starbucks"}}, {"type": "way", "id": 1347767986, "nodes": [12466891073, 12466891074, 12466891075, 12466891076, 12466891077, 12466891078, 12466891079, 12466891080, 12466891081, 12466891073], "tags": {"amenity": "restaurant", "name": "N\u00f6testik Restoran"}}, {"type": "way", "id": 1393177675, "nodes": [12896141653, 12896141656, 12896141657, 12896141654, 12896141655, 12896141643, 12896141653], "tags": {"amenity": "restaurant", "building": "yes"}}, {"type": "way", "id": 1393177677, "nodes": [12896141649, 12896141658, 12896141643, 12896141653, 12896141648, 12896141647, 12896141649], "tags": {"amenity": "restaurant", "building": "yes"}}, {"type": "relation", "id": 7388521, "members": [{"type": "way", "ref": 506724291, "role": "outer"}, {"type": "way", "ref": 509054978, "role": "outer"}, {"type": "way", "ref": 509054979, "role": "outer"}, {"type": "way", "ref": 506724469, "role": "outer"}, {"type": "way", "ref": 506724467, "role": "outer"}, {"type": "way", "ref": 506724292, "role": "outer"}], "tags": {"amenity": "restaurant", "building": "yes", "type": "multipolygon"}}]}