{"version": 0.6, "generator": "Overpass API 0.7.62.7 375dc00a", "osm3s": {"timestamp_osm_base": "2025-06-14T14:53:30Z", "copyright": "The data included in this document is from www.openstreetmap.org. The data is made available under ODbL."}, "elements": [{"type": "node", "id": 2269370396, "lat": 41.1508058, "lon": 27.8374389, "tags": {"amenity": "restaurant", "name": "\u00d6zcanlar K\u00f6ftecisi"}}, {"type": "node", "id": 2275320210, "lat": 41.1553352, "lon": 27.8199903, "tags": {"amenity": "cafe"}}, {"type": "node", "id": 2346223294, "lat": 41.1383089, "lon": 27.8772766, "tags": {"amenity": "restaurant", "name": "Piknik Garden", "name:tr": "Piknik"}}, {"type": "node", "id": 2346230791, "lat": 41.156331, "lon": 27.8337646, "tags": {"amenity": "restaurant", "name": "Can\u0131m Ci\u011ferim"}}, {"type": "node", "id": 2346233851, "lat": 41.1528412, "lon": 27.8355563, "tags": {"addr:city": "\u00c7orlu", "addr:district": "Tekirdag", "addr:housenumber": "31-33A", "addr:neighbourhood": "Kazimiye", "addr:postcode": "59860", "addr:street": "Yakut Sokak", "amenity": "restaurant", "name": "Zest Bistro \u00c7orlu", "website": "https://zestbistro.com.tr/"}}, {"type": "node", "id": 2346234906, "lat": 41.1530109, "lon": 27.8353954, "tags": {"amenity": "restaurant", "name": "Yerciler"}}, {"type": "node", "id": 3316867696, "lat": 41.2038859, "lon": 27.8413625, "tags": {"amenity": "cafe", "name": "Mix Cafe"}}, {"type": "node", "id": 3316867697, "lat": 41.2036892, "lon": 27.84161, "tags": {"amenity": "restaurant", "cuisine": "pizza", "name": "La Pizza", "smoking": "outside"}}, {"type": "node", "id": 3696201092, "lat": 41.2144406, "lon": 27.5404362}, {"type": "node", "id": 3696201093, "lat": 41.2148327, "lon": 27.5399169}, {"type": "node", "id": 3696201094, "lat": 41.2151781, "lon": 27.5400501}, {"type": "node", "id": 3696201095, "lat": 41.2147991, "lon": 27.5406402}, {"type": "node", "id": 3783323979, "lat": 40.9836497, "lon": 27.5565286, "tags": {"amenity": "cafe", "cuisine": "regional", "internet_access": "wlan", "name": "Alt\u0131nba\u015fak Cafe & Pasta", "phone": "+90 282 263 86 50", "smoking": "outside"}}, {"type": "node", "id": 3783328120, "lat": 40.9835568, "lon": 27.5563235, "tags": {"amenity": "restaurant", "capacity": "70", "cuisine": "steak_house", "name": "\u0130ki Karde\u015fler Et", "opening_hours": "10:00-22:00", "smoking": "outside"}}, {"type": "node", "id": 4162488989, "lat": 40.9986345, "lon": 27.6528398, "tags": {"amenity": "cafe", "cuisine": "regional", "name": "\u015eark\u00f6y \u00c7iftlik"}}, {"type": "node", "id": 4168759590, "lat": 40.9821026, "lon": 27.5674533, "tags": {"amenity": "restaurant", "cuisine": "turkish", "name": "Etoba"}}, {"type": "node", "id": 4334598926, "lat": 41.169659, "lon": 27.4984399, "tags": {"amenity": "cafe", "name": "\u00d6zen K\u0131raathanesi"}}, {"type": "node", "id": 4334599251, "lat": 41.1717138, "lon": 27.4952537, "tags": {"amenity": "cafe", "name": "Karabak\u0131 K\u0131raathanesi"}}, {"type": "node", "id": 4334599267, "lat": 41.172284, "lon": 27.4963675, "tags": {"amenity": "restaurant", "name": "Mis K\u00f6fte Salonu"}}, {"type": "node", "id": 4334599410, "lat": 41.1722185, "lon": 27.4957878, "tags": {"amenity": "restaurant", "name": "Mix Simit Saray\u0131"}}, {"type": "node", "id": 4334599458, "lat": 41.1682553, "lon": 27.4976115, "tags": {"amenity": "cafe", "name": "Ak\u00e7alar K\u0131raathanesi"}}, {"type": "node", "id": 4351561420, "lat": 41.1715825, "lon": 27.4967585, "tags": {"amenity": "restaurant", "name": "Gazio\u011flu Yemek"}}, {"type": "node", "id": 4355971290, "lat": 40.9722007, "lon": 27.9558228, "tags": {"addr:postcode": "59740", "addr:street": "Sahil Caddesi", "amenity": "cafe", "cuisine": "turkish;ice_cream;pancake;burger;breakfast;coffee_shop;friture;tea", "internet_access": "wlan", "name": "Destan Cafe", "opening_hours": "24/7"}}, {"type": "node", "id": 4359527644, "lat": 41.1774004, "lon": 27.5026479, "tags": {"amenity": "cafe", "name": "Y\u0131lmaz \u00c7ay Evi"}}, {"type": "node", "id": 4359527692, "lat": 41.175886, "lon": 27.5014049, "tags": {"amenity": "cafe"}}, {"type": "node", "id": 4361165434, "lat": 40.9836108, "lon": 27.5564784, "tags": {"addr:street": "\u00d6\u011fretmenler Cd.", "amenity": "cafe", "delivery": "no", "name": "Kahve Harman\u0131", "smoking": "outside"}}, {"type": "node", "id": 4361210244, "lat": 40.9839229, "lon": 27.555323, "tags": {"addr:street": "Necip Faz\u0131l K\u0131sak\u00fcrek Caddesi", "amenity": "cafe", "cuisine": "regional", "description": "Y\u00f6resel \u00dcr\u00fcnler, Kahvalt\u0131...", "internet_access": "wlan", "name": "\u015eark\u00f6y \u00c7iftlik"}}, {"type": "node", "id": 4362262503, "lat": 41.1755226, "lon": 27.5010581, "tags": {"amenity": "cafe", "name": "Sendegel K\u0131raathanesi"}}, {"type": "node", "id": 4362262522, "lat": 41.1752037, "lon": 27.500795, "tags": {"amenity": "cafe", "name": "Kutlu Kahvehanesi"}}, {"type": "node", "id": 4362262529, "lat": 41.1753532, "lon": 27.5006488, "tags": {"amenity": "cafe", "name": "Kaplan K\u0131raathanesi"}}, {"type": "node", "id": 4362262537, "lat": 41.174995, "lon": 27.5005208, "tags": {"amenity": "cafe", "name": "\u00c7ay Evi"}}, {"type": "node", "id": 4362262563, "lat": 41.1745732, "lon": 27.4996978, "tags": {"amenity": "cafe", "name": "Semih K\u0131raathanesi"}}, {"type": "node", "id": 4362262574, "lat": 41.1741586, "lon": 27.4990543, "tags": {"amenity": "restaurant", "cuisine": "kebab", "name": "\u0130skender Kebap\u00e7\u0131s\u0131"}}, {"type": "node", "id": 4362262585, "lat": 41.1739233, "lon": 27.4985223, "tags": {"amenity": "restaurant", "name": "\u00c7\u0131nar K\u00f6fte"}}, {"type": "node", "id": 4362262588, "lat": 41.173785, "lon": 27.4982354, "tags": {"amenity": "cafe", "name": "Mert K\u0131raathanesi"}}, {"type": "node", "id": 4362262894, "lat": 41.1733674, "lon": 27.4978428, "tags": {"amenity": "restaurant", "name": "Naz K\u00f6fte \u00c7orba"}}, {"type": "node", "id": 4362262909, "lat": 41.1728263, "lon": 27.4968273, "tags": {"amenity": "cafe", "name": "Gakgo Emminin Yeri"}}, {"type": "node", "id": 4362262921, "lat": 41.1723644, "lon": 27.4959014, "tags": {"amenity": "cafe", "name": "Merkez K\u0131raathanesi"}}, {"type": "node", "id": 4375010278, "lat": 41.1713236, "lon": 27.4949268, "tags": {"amenity": "cafe", "name": "I\u015f\u0131k K\u0131raathanesi"}}, {"type": "node", "id": 4375010279, "lat": 41.1712799, "lon": 27.4948627, "tags": {"amenity": "restaurant", "cuisine": "kebab", "name": "Ali Baba Kebap\u00e7\u0131s\u0131"}}, {"type": "node", "id": 4375010291, "lat": 41.1705758, "lon": 27.4941741, "tags": {"amenity": "cafe"}}, {"type": "node", "id": 4375010292, "lat": 41.1707411, "lon": 27.4939544, "tags": {"amenity": "cafe"}}, {"type": "node", "id": 4375010293, "lat": 41.1708089, "lon": 27.4938668, "tags": {"amenity": "cafe", "internet_access": "yes", "name": "Taylan Internet Cafe"}}, {"type": "node", "id": 4375010294, "lat": 41.170991, "lon": 27.4936681, "tags": {"amenity": "cafe"}}, {"type": "node", "id": 4375010302, "lat": 41.170073, "lon": 27.4937052, "tags": {"amenity": "cafe"}}, {"type": "node", "id": 4375010380, "lat": 41.1701859, "lon": 27.4963074, "tags": {"amenity": "cafe", "name": "Waffle Coffer"}}, {"type": "node", "id": 4375010394, "lat": 41.1704065, "lon": 27.4965761, "tags": {"addr:street": "Donat\u0131m Sokak", "amenity": "cafe", "name": "Little House"}}, {"type": "node", "id": 4375010396, "lat": 41.1705479, "lon": 27.4971461, "tags": {"amenity": "restaurant", "name": "Tana\u015f Yemek"}}, {"type": "node", "id": 4375010403, "lat": 41.1702773, "lon": 27.4975234, "tags": {"amenity": "cafe", "name": "Ge\u00e7ko"}}, {"type": "node", "id": 4375010415, "lat": 41.1696125, "lon": 27.4981413, "tags": {"amenity": "cafe", "name": "Cafe Magazin"}}, {"type": "node", "id": 4375010416, "lat": 41.1695665, "lon": 27.4980737, "tags": {"amenity": "cafe", "name": "Arkada\u015f K\u0131raathanesi"}}, {"type": "node", "id": 4375010418, "lat": 41.1697435, "lon": 27.4983478, "tags": {"amenity": "cafe", "internet_access": "yes", "name": "Milenyum Playstation Cafe"}}, {"type": "node", "id": 4375898085, "lat": 41.1693319, "lon": 27.4997566, "tags": {"amenity": "restaurant", "name": "\u015ear Lokantas\u0131"}}, {"type": "node", "id": 4375898490, "lat": 41.1692119, "lon": 27.4995855, "tags": {"amenity": "cafe", "name": "Meydan K\u0131raathanesi"}}, {"type": "node", "id": 4375898491, "lat": 41.1691965, "lon": 27.4995561, "tags": {"amenity": "cafe", "name": "Muratl\u0131 Kara Avc\u0131lar\u0131 Lokali"}}, {"type": "node", "id": 4375898493, "lat": 41.1691636, "lon": 27.4994982, "tags": {"amenity": "cafe", "name": "Merkez K\u0131raathanesi"}}, {"type": "node", "id": 4375898496, "lat": 41.1694569, "lon": 27.4995715, "tags": {"amenity": "restaurant", "cuisine": "turkish", "name": "Mavi K\u00f6\u015fe K\u00f6fte Salonu"}}, {"type": "node", "id": 4375898497, "lat": 41.1693869, "lon": 27.4995045, "tags": {"amenity": "restaurant", "name": "\u0130stanbul D\u00fcr\u00fcm Evi"}}, {"type": "node", "id": 4375898522, "lat": 41.1685024, "lon": 27.4980823, "tags": {"amenity": "cafe", "name": "Karabulut K\u0131raathanesi"}}, {"type": "node", "id": 4375898523, "lat": 41.1683241, "lon": 27.498158, "tags": {"amenity": "restaurant", "cuisine": "turkish", "delivery": "yes", "name": "Muratl\u0131 Simit D\u00fcnyas\u0131", "phone": "+905531843552"}}, {"type": "node", "id": 4432728928, "lat": 40.9832919, "lon": 27.5558837, "tags": {"addr:street": "\u00d6\u011fretmenler Cd.", "amenity": "cafe", "cuisine": "regional", "name": "\u00dcnyeliler Kafe Pastane", "smoking": "isolated"}}, {"type": "node", "id": 4432764466, "lat": 40.9758923, "lon": 27.5146418, "tags": {"addr:street": "Atat\u00fcrk Blv.", "amenity": "restaurant", "capacity": "50", "cuisine": "fish", "delivery": "no", "name": "Arda Cunda Bal\u0131k Meze Evi", "opening_hours": "12:00-24:00", "smoking": "isolated"}}, {"type": "node", "id": 4432765848, "lat": 40.9792195, "lon": 27.5311898, "tags": {"addr:street": "Fatih Sultan Mehmet Blv.", "amenity": "restaurant", "cuisine": "fish", "name": "Alamatra Bal\u0131k Restoran"}}, {"type": "node", "id": 4432782371, "lat": 40.9838058, "lon": 27.555415, "tags": {"addr:street": "Necip Faz\u0131l K\u0131sak\u00fcrek Caddesi", "amenity": "cafe", "cuisine": "cafe", "name": "Kahve Dura\u011f\u0131"}}, {"type": "node", "id": 4432794442, "lat": 40.9815956, "lon": 27.554292, "tags": {"addr:street": "Fatih Sultan Mehmet Blv.", "amenity": "restaurant", "cuisine": "regional", "delivery": "no", "description": "Tekirda\u011f K\u00f6ftesi, \u00c7orba \u00c7e\u015fitleri", "name": "\u00d6\u011fe K\u00f6fte - \u00c7orba", "opening_hours": "24/7", "smoking": "isolated", "takeaway": "yes"}}, {"type": "node", "id": 4457504419, "lat": 40.9812148, "lon": 27.5512322}, {"type": "node", "id": 4457504420, "lat": 40.9809876, "lon": 27.5508074}, {"type": "node", "id": 4457504421, "lat": 40.9808654, "lon": 27.5509359}, {"type": "node", "id": 4457504422, "lat": 40.9810783, "lon": 27.5513284}, {"type": "node", "id": 4461049886, "lat": 41.1719944, "lon": 27.4966143, "tags": {"amenity": "restaurant", "cuisine": "turkish", "name": "Ac\u0131kt\u0131m Pilav\u00fcst\u00fc D\u00f6ner", "phone": "+905413614030"}}, {"type": "node", "id": 4461049887, "lat": 41.1695648, "lon": 27.499487, "tags": {"amenity": "restaurant", "name": "Akp\u0131nar \u00c7orba ve Yemek Salonu"}}, {"type": "node", "id": 4461050097, "lat": 41.1708037, "lon": 27.4978673, "tags": {"amenity": "restaurant", "cuisine": "turkish", "name": "Gizem Kebap Lahmacun Salonu"}}, {"type": "node", "id": 4461050100, "lat": 41.1720575, "lon": 27.4965319, "tags": {"amenity": "restaurant", "cuisine": "turkish", "name": "G\u00fcnerler Tekirda\u011f K\u00f6ftecisi", "phone": "+902823617781", "phone_1": "+905367192996"}}, {"type": "node", "id": 4461050103, "lat": 41.1697495, "lon": 27.4992543, "tags": {"amenity": "restaurant", "cuisine": "turkish", "name": "G\u00fcven Tekirda\u011f K\u00f6ftecisi", "phone": "+902823612659", "phone_1": "+902823617406"}}, {"type": "node", "id": 4461050112, "lat": 41.1700463, "lon": 27.498856, "tags": {"amenity": "restaurant", "name": "Serbest Muhasebeci Ethem G\u00fcm\u00fc\u015f;Burak Usta Sulu Yemek Izgara", "office": "accountant"}}, {"type": "node", "id": 4461050121, "lat": 41.1703734, "lon": 27.4984335, "tags": {"amenity": "restaurant", "cuisine": "turkish", "name": "Ziyafet \u00c7i\u011fk\u00f6fte"}}, {"type": "node", "id": 4461050142, "lat": 41.1694972, "lon": 27.5049323, "tags": {"amenity": "cafe", "check_date": "2024-07-16", "internet_access": "no", "name": "Muhtar\u0131n Yeri"}}, {"type": "node", "id": 4461050188, "lat": 41.1705273, "lon": 27.5067111, "tags": {"amenity": "cafe"}}, {"type": "node", "id": 4461050190, "lat": 41.1705662, "lon": 27.5067634, "tags": {"amenity": "cafe"}}, {"type": "node", "id": 4461050193, "lat": 41.170597, "lon": 27.5065529, "tags": {"amenity": "cafe"}}, {"type": "node", "id": 4461050197, "lat": 41.1706384, "lon": 27.5068452, "tags": {"amenity": "cafe"}}, {"type": "node", "id": 4461050199, "lat": 41.1706989, "lon": 27.5066843, "tags": {"amenity": "cafe"}}, {"type": "node", "id": 4461177286, "lat": 40.945571, "lon": 27.439658}, {"type": "node", "id": 4461177287, "lat": 40.9456831, "lon": 27.4399174}, {"type": "node", "id": 4461177288, "lat": 40.9457586, "lon": 27.4400738}, {"type": "node", "id": 4461177289, "lat": 40.9458966, "lon": 27.4399517}, {"type": "node", "id": 4461177290, "lat": 40.9459057, "lon": 27.4399618}, {"type": "node", "id": 4461177291, "lat": 40.9459255, "lon": 27.4399406}, {"type": "node", "id": 4461177292, "lat": 40.9459324, "lon": 27.4399497}, {"type": "node", "id": 4461177293, "lat": 40.9459995, "lon": 27.4398972}, {"type": "node", "id": 4461177294, "lat": 40.9458455, "lon": 27.4395197}, {"type": "node", "id": 4461177295, "lat": 40.9457365, "lon": 27.4395964}, {"type": "node", "id": 4461177296, "lat": 40.9457205, "lon": 27.43956}, {"type": "node", "id": 4461177297, "lat": 40.9456534, "lon": 27.4396125}, {"type": "node", "id": 4461177298, "lat": 40.9456488, "lon": 27.4396035}, {"type": "node", "id": 4556149049, "lat": 41.0154568, "lon": 27.4703161}, {"type": "node", "id": 4556149050, "lat": 41.0153655, "lon": 27.4702568}, {"type": "node", "id": 4556149051, "lat": 41.0153382, "lon": 27.4702537}, {"type": "node", "id": 4556149052, "lat": 41.0152272, "lon": 27.4704086}, {"type": "node", "id": 4556149053, "lat": 41.0152263, "lon": 27.4704857}, {"type": "node", "id": 4556149054, "lat": 41.0151885, "lon": 27.470457}, {"type": "node", "id": 4556149055, "lat": 41.0152098, "lon": 27.4704076}, {"type": "node", "id": 4556149056, "lat": 41.015182, "lon": 27.4703865}, {"type": "node", "id": 4556149057, "lat": 41.015029, "lon": 27.4707413}, {"type": "node", "id": 4556149058, "lat": 41.0150228, "lon": 27.470788}, {"type": "node", "id": 4556149059, "lat": 41.0150352, "lon": 27.4708184}, {"type": "node", "id": 4556149060, "lat": 41.015245, "lon": 27.4709564}, {"type": "node", "id": 4556149061, "lat": 41.0153698, "lon": 27.4706231}, {"type": "node", "id": 4556149062, "lat": 41.0153546, "lon": 27.4706131}, {"type": "node", "id": 4556149063, "lat": 41.0153635, "lon": 27.4705893}, {"type": "node", "id": 4556149064, "lat": 41.0153168, "lon": 27.4705586}, {"type": "node", "id": 4556149065, "lat": 41.0153256, "lon": 27.4705349}, {"type": "node", "id": 4556149066, "lat": 41.0153833, "lon": 27.4705728}, {"type": "node", "id": 4556149067, "lat": 41.015434, "lon": 27.4704372}, {"type": "node", "id": 4556149068, "lat": 41.0154236, "lon": 27.4704304}, {"type": "node", "id": 4556149069, "lat": 41.0154418, "lon": 27.4703817}, {"type": "node", "id": 4556149070, "lat": 41.0154342, "lon": 27.4703767}, {"type": "node", "id": 4556149071, "lat": 41.0153191, "lon": 27.4702586}, {"type": "node", "id": 4556149072, "lat": 41.0152762, "lon": 27.4702926}, {"type": "node", "id": 4556149073, "lat": 41.0152418, "lon": 27.4703617}, {"type": "node", "id": 4556149074, "lat": 41.0152588, "lon": 27.4703198}, {"type": "node", "id": 4556149075, "lat": 41.0152253, "lon": 27.4704492}, {"type": "node", "id": 4556149076, "lat": 41.0152964, "lon": 27.4702743}, {"type": "node", "id": 4556167245, "lat": 41.0153103, "lon": 27.4703002, "tags": {"amenity": "restaurant", "name": "Can Karde\u015fler Restoran"}}, {"type": "node", "id": 4556167390, "lat": 41.0142134, "lon": 27.475802, "tags": {"amenity": "restaurant", "name": "\u00c7iftlik Cafe Restoran"}}, {"type": "node", "id": 4556167391, "lat": 41.0144871, "lon": 27.4751604}, {"type": "node", "id": 4556167392, "lat": 41.0145435, "lon": 27.4752689}, {"type": "node", "id": 4556167393, "lat": 41.0145268, "lon": 27.4752842}, {"type": "node", "id": 4556167394, "lat": 41.0145536, "lon": 27.4753357}, {"type": "node", "id": 4556167395, "lat": 41.0144426, "lon": 27.475437}, {"type": "node", "id": 4556167396, "lat": 41.014429, "lon": 27.4754107}, {"type": "node", "id": 4556167397, "lat": 41.0144111, "lon": 27.475427}, {"type": "node", "id": 4556167398, "lat": 41.0143685, "lon": 27.475345}, {"type": "node", "id": 4556167399, "lat": 41.0143826, "lon": 27.4753321}, {"type": "node", "id": 4556167400, "lat": 41.014378, "lon": 27.4753233}, {"type": "node", "id": 4556167401, "lat": 41.0144559, "lon": 27.4752522}, {"type": "node", "id": 4556167402, "lat": 41.0144336, "lon": 27.4752092}, {"type": "node", "id": 4615855889, "lat": 41.1360929, "lon": 27.8825901, "tags": {"amenity": "restaurant", "name": "G\u00f6let", "name:tr": "G\u00f6let"}}, {"type": "node", "id": 4618668889, "lat": 41.1533482, "lon": 27.8314843, "tags": {"amenity": "restaurant", "name:tr": "\u00c7atal"}}, {"type": "node", "id": 4724941482, "lat": 41.1703075, "lon": 27.4939247, "tags": {"addr:street": "Mustafa Kemal Atat\u00fcrk Caddesi", "amenity": "cafe", "name": "Asfalt Coffee"}}, {"type": "node", "id": 4756133449, "lat": 41.1562282, "lon": 27.8193917, "tags": {"amenity": "cafe", "name": "Bah\u00e7e Kafe"}}, {"type": "node", "id": 4823996260, "lat": 41.2307644, "lon": 27.5810977, "tags": {"addr:city": "Yukar\u0131 Sevindikli", "addr:district": "Muratl\u0131", "addr:neighbourhood": "Yukar\u0131 Sevindikli Mahallesi", "amenity": "cafe"}}, {"type": "node", "id": 4829703607, "lat": 41.1706323, "lon": 27.5866693, "tags": {"addr:city": "K\u0131rkkepenekli", "addr:district": "Muratl\u0131", "addr:neighbourhood": "K\u0131rkkepenekli Mahallesi", "amenity": "cafe"}}, {"type": "node", "id": 4829703608, "lat": 41.1707848, "lon": 27.5865459, "tags": {"addr:city": "K\u0131rkkepenekli", "addr:district": "Muratl\u0131", "addr:neighbourhood": "K\u0131rkkepenekli Mahallesi", "amenity": "cafe"}}, {"type": "node", "id": 4911527611, "lat": 40.9874844, "lon": 27.5843518}, {"type": "node", "id": 4911527612, "lat": 40.9873538, "lon": 27.5840263}, {"type": "node", "id": 4911527764, "lat": 40.9877036, "lon": 27.5842918}, {"type": "node", "id": 4911527765, "lat": 40.9873081, "lon": 27.58429}, {"type": "node", "id": 4911527888, "lat": 40.9873687, "lon": 27.5843033}, {"type": "node", "id": 4911527889, "lat": 40.9877456, "lon": 27.5841772}, {"type": "node", "id": 4917095617, "lat": 41.1874518, "lon": 27.7678243, "tags": {"amenity": "restaurant", "name": "Grand Eren Restaurant & Cafeteria"}}, {"type": "node", "id": 4921440481, "lat": 41.2366489, "lon": 27.7083195, "tags": {"addr:city": "Ula\u015f", "addr:district": "Ergene", "amenity": "restaurant", "cuisine": "turkish", "name": "Bay\u0131r Et Lokantas\u0131", "outdoor_seating": "yes"}}, {"type": "node", "id": 4921440482, "lat": 41.2366085, "lon": 27.7082645, "tags": {"addr:city": "Ula\u015f", "addr:district": "Ergene", "amenity": "cafe"}}, {"type": "node", "id": 4942053210, "lat": 40.988148, "lon": 27.5781487, "tags": {"amenity": "restaurant", "name": "Hatay D\u00f6neri"}}, {"type": "node", "id": 4942053211, "lat": 40.9875935, "lon": 27.5785136, "tags": {"amenity": "restaurant", "name": "Beyzade Kebap"}}, {"type": "node", "id": 4942053232, "lat": 40.9883637, "lon": 27.5781379, "tags": {"amenity": "restaurant", "name": "Cem's Cafe & Restaurant"}}, {"type": "node", "id": 4942053233, "lat": 40.9879407, "lon": 27.5782832, "tags": {"amenity": "restaurant", "name": "D\u00fcr\u00fcmc\u00fc kebap, d\u00fcr\u00fcm, lahmacun, k\u00fcnefe"}}, {"type": "node", "id": 4942119724, "lat": 40.9765802, "lon": 27.5155272, "tags": {"amenity": "cafe", "name": "Ehl-i Keyfi Cafe & Restaurant"}}, {"type": "node", "id": 4942119726, "lat": 40.9766123, "lon": 27.5156947, "tags": {"amenity": "restaurant", "name": "K\u00f6fteci Ali Usta"}}, {"type": "node", "id": 4949979295, "lat": 40.9782038, "lon": 27.5045126, "tags": {"amenity": "cafe", "name": "Kahve Keyfi"}}, {"type": "node", "id": 4949979299, "lat": 40.9779417, "lon": 27.5037061, "tags": {"amenity": "cafe", "brand": "Kahve D\u00fcnyas\u0131", "brand:wikidata": "Q28008050", "cuisine": "coffee_shop", "name": "Kahve D\u00fcnyas\u0131", "takeaway": "yes"}}, {"type": "node", "id": 4956069565, "lat": 41.2019422, "lon": 27.4717204, "tags": {"addr:city": "\u0130nanl\u0131", "addr:district": "Muratl\u0131", "addr:neighbourhood": "\u0130nanl\u0131 Mahallesi", "amenity": "cafe"}}, {"type": "node", "id": 4957752672, "lat": 41.1823457, "lon": 27.4778031, "tags": {"amenity": "cafe", "name": "Karaku\u015f Aile \u00c7ay Bah\u00e7esi"}}, {"type": "node", "id": 4978034373, "lat": 41.1569933, "lon": 27.797938, "tags": {"amenity": "restaurant", "name": "Aral Lokantas\u0131"}}, {"type": "node", "id": 4978034568, "lat": 41.157079, "lon": 27.7974005, "tags": {"amenity": "cafe"}}, {"type": "node", "id": 5003380877, "lat": 40.9833879, "lon": 27.5134617, "tags": {"amenity": "restaurant"}}, {"type": "node", "id": 5037663696, "lat": 40.977889, "lon": 27.5250743, "tags": {"amenity": "cafe", "name": "Cafe Marina"}}, {"type": "node", "id": 5037663697, "lat": 40.9754623, "lon": 27.5162467, "tags": {"amenity": "restaurant", "name": "Aytekin Bal\u0131k\u00e7\u0131l\u0131k"}}, {"type": "node", "id": 5037921279, "lat": 40.977747, "lon": 27.5185956, "tags": {"amenity": "restaurant", "name": "Meydan K\u00f6fte & \u00c7orba", "name:en": "Meydan Meatball & Soup"}}, {"type": "node", "id": 5037921444, "lat": 40.9755641, "lon": 27.517204}, {"type": "node", "id": 5037921445, "lat": 40.975632, "lon": 27.5174045}, {"type": "node", "id": 5037921446, "lat": 40.9757165, "lon": 27.5173543}, {"type": "node", "id": 5037921447, "lat": 40.9756487, "lon": 27.5171538}, {"type": "node", "id": 5058492007, "lat": 41.0083211, "lon": 27.5270491, "tags": {"amenity": "cafe"}}, {"type": "node", "id": 5076429473, "lat": 40.9833474, "lon": 27.4859254, "tags": {"amenity": "restaurant", "name": "Arabul Et Lokantas\u0131"}}, {"type": "node", "id": 5174914221, "lat": 40.9779956, "lon": 27.5112427, "tags": {"amenity": "restaurant", "name": "Latif lokantas\u0131"}}, {"type": "node", "id": 5249546233, "lat": 41.2256916, "lon": 27.7212538, "tags": {"amenity": "restaurant", "name": "Antique Restoran"}}, {"type": "node", "id": 5265154994, "lat": 41.2238331, "lon": 27.6464966, "tags": {"addr:city": "Esenler", "addr:district": "Ergene", "addr:neighbourhood": "Esenler Mahallesi", "amenity": "cafe"}}, {"type": "node", "id": 5285918159, "lat": 41.0108048, "lon": 27.7179097, "tags": {"amenity": "restaurant", "cuisine": "turkish", "name": "Melih \u00d6ge \u0130stasyonu Tekirda\u011f K\u00f6ftecisi"}}, {"type": "node", "id": 5340029097, "lat": 41.1585942, "lon": 27.7976471, "tags": {"amenity": "cafe"}}, {"type": "node", "id": 5343733019, "lat": 40.9849775, "lon": 27.5619097, "tags": {"addr:street": "\u015eehit Mehmet Y\u00f6r\u00fck Sk.", "amenity": "restaurant", "covered": "yes", "name": "\u00c7\u0131t\u0131r Lahmacun"}}, {"type": "node", "id": 5509607532, "lat": 40.9920311, "lon": 27.6133432}, {"type": "node", "id": 5509607533, "lat": 40.9920177, "lon": 27.6132754}, {"type": "node", "id": 5509607534, "lat": 40.9919731, "lon": 27.6132909}, {"type": "node", "id": 5509607535, "lat": 40.9919865, "lon": 27.6133587}, {"type": "node", "id": 5509607536, "lat": 40.9919955, "lon": 27.6131633}, {"type": "node", "id": 5509607537, "lat": 40.9920527, "lon": 27.6134517}, {"type": "node", "id": 5509607538, "lat": 40.992233, "lon": 27.6133889}, {"type": "node", "id": 5509607539, "lat": 40.9921758, "lon": 27.6131006}, {"type": "node", "id": 5513495777, "lat": 40.978455, "lon": 27.521301, "tags": {"addr:street": "Eski \u0130stanbul Cd.", "amenity": "restaurant", "covered": "yes", "name": "Ayhan Usta Ocakba\u015f\u0131"}}, {"type": "node", "id": 5523593616, "lat": 41.1694325, "lon": 27.4999113, "tags": {"amenity": "cafe", "name": "Gizem Pasta & Cafe"}}, {"type": "node", "id": 5538759020, "lat": 41.1705696, "lon": 27.4981864, "tags": {"amenity": "restaurant", "name": "Tekirda\u011f K\u00f6ftecisi Recep K\u0131sac\u0131k", "phone": "+902823616999"}}, {"type": "node", "id": 5538759287, "lat": 41.1756614, "lon": 27.4920158, "tags": {"amenity": "cafe", "name": "Emre K\u0131raathanesi"}}, {"type": "node", "id": 5538759289, "lat": 41.1752028, "lon": 27.4926422, "tags": {"amenity": "cafe", "name": "Buras\u0131 Merkez"}}, {"type": "node", "id": 5538759300, "lat": 41.1728049, "lon": 27.4959209, "tags": {"addr:street": "Hasan \u00c7elikkol Caddesi", "amenity": "restaurant", "name": "Muratl\u0131 Yemek Saray\u0131"}}, {"type": "node", "id": 5538759366, "lat": 41.1751672, "lon": 27.492702, "tags": {"amenity": "cafe", "name": "Merkez K\u0131raathanesi"}}, {"type": "node", "id": 5538760081, "lat": 41.1693468, "lon": 27.5004039, "tags": {"amenity": "cafe"}}, {"type": "node", "id": 5538760200, "lat": 41.1721167, "lon": 27.5062966, "tags": {"amenity": "cafe", "name": "K\u0131raathane"}}, {"type": "node", "id": 5568043602, "lat": 41.2447602, "lon": 27.6923235, "tags": {"amenity": "restaurant", "name": "Ergene Restoran"}}, {"type": "node", "id": 5605433730, "lat": 40.9840966, "lon": 27.5161419, "tags": {"amenity": "cafe", "name": "Kahve"}}, {"type": "node", "id": 5646117020, "lat": 41.1721416, "lon": 27.4964344, "tags": {"amenity": "cafe", "name": "Pey Tat Hayrabol Tatl\u0131s\u0131"}}, {"type": "node", "id": 5646117203, "lat": 41.172098, "lon": 27.4956827, "tags": {"amenity": "restaurant", "name": "Ziyafet \u00c7i\u011f K\u00f6fte"}}, {"type": "node", "id": 5646118021, "lat": 41.1721102, "lon": 27.4964656, "tags": {"amenity": "restaurant", "name": "Lezzet D\u00f6ner \u00c7orba"}}, {"type": "node", "id": 5646118022, "lat": 41.1720765, "lon": 27.4965003, "tags": {"amenity": "restaurant", "name": "Muratl\u0131 Pide Bank"}}, {"type": "node", "id": 5646118023, "lat": 41.1721276, "lon": 27.4956994, "tags": {"amenity": "restaurant", "name": "D\u00f6ner D\u00fcnyas\u0131", "phone": "+905344946737"}}, {"type": "node", "id": 5646118121, "lat": 41.1720644, "lon": 27.4956474, "tags": {"amenity": "cafe", "name": "Gizem Pastaneleri"}}, {"type": "node", "id": 5695163022, "lat": 41.1240648, "lon": 27.4848611, "tags": {"addr:city": "Ye\u015fils\u0131rt Mahallesi", "addr:district": "Muratl\u0131", "addr:neighbourhood": "Ye\u015fils\u0131rt Mahallesi", "addr:street": "Ba\u015fkan Nebi Tepe Caddesi", "amenity": "restaurant", "name": "\u00dcnal et lokantas\u0131", "name:en": "Unal restaurant", "opening_hours": "24/7"}}, {"type": "node", "id": 5695449593, "lat": 40.9812763, "lon": 27.5124556, "tags": {"amenity": "cafe"}}, {"type": "node", "id": 5695456148, "lat": 40.9811581, "lon": 27.5127437, "tags": {"amenity": "restaurant", "name": "G\u00fcven K\u00f6fte"}}, {"type": "node", "id": 5720684439, "lat": 41.1453346, "lon": 27.8028695}, {"type": "node", "id": 5720684440, "lat": 41.1452664, "lon": 27.8030372}, {"type": "node", "id": 5720684441, "lat": 41.1451643, "lon": 27.8029639}, {"type": "node", "id": 5720684442, "lat": 41.1452324, "lon": 27.8027963}, {"type": "node", "id": 5720684945, "lat": 41.1243583, "lon": 27.4850799, "tags": {"addr:city": "Ye\u015fils\u0131rt Mahallesi", "addr:district": "Muratl\u0131", "addr:neighbourhood": "Ye\u015fils\u0131rt Mahallesi", "addr:street": "Ba\u015fkan Nebi Tepe Caddesi", "amenity": "restaurant", "name": "Ya\u015far Et Lokantas\u0131"}}, {"type": "node", "id": 5764702505, "lat": 41.1544296, "lon": 27.8049937, "tags": {"amenity": "restaurant", "name": "Bedir D\u00f6ner"}}, {"type": "node", "id": 5766321835, "lat": 41.1587065, "lon": 27.8277}, {"type": "node", "id": 5766321836, "lat": 41.1586325, "lon": 27.8277006}, {"type": "node", "id": 5766321837, "lat": 41.1586321, "lon": 27.8276118}, {"type": "node", "id": 5766321838, "lat": 41.158706, "lon": 27.8276111}, {"type": "node", "id": 5782198914, "lat": 40.9465502, "lon": 27.4651946}, {"type": "node", "id": 5782198915, "lat": 40.9465546, "lon": 27.465241}, {"type": "node", "id": 5782198916, "lat": 40.9464669, "lon": 27.4653433}, {"type": "node", "id": 5782198917, "lat": 40.9465021, "lon": 27.4653277}, {"type": "node", "id": 5782198918, "lat": 40.9464852, "lon": 27.4653601}, {"type": "node", "id": 5782198919, "lat": 40.9465698, "lon": 27.4652139}, {"type": "node", "id": 5782198920, "lat": 40.9464831, "lon": 27.4651456}, {"type": "node", "id": 5782198921, "lat": 40.946566, "lon": 27.4651665}, {"type": "node", "id": 5782198922, "lat": 40.946505, "lon": 27.4651066}, {"type": "node", "id": 5782198923, "lat": 40.9464502, "lon": 27.4651133}, {"type": "node", "id": 5782198924, "lat": 40.9463588, "lon": 27.4652765}, {"type": "node", "id": 5782198925, "lat": 40.9464527, "lon": 27.4653686}, {"type": "node", "id": 5782198926, "lat": 40.9465308, "lon": 27.465354}, {"type": "node", "id": 5782198927, "lat": 40.9465784, "lon": 27.4652628}, {"type": "node", "id": 5812233796, "lat": 40.9738209, "lon": 27.5106028, "tags": {"amenity": "cafe", "name": "Portakal Cafe", "source": "local knowledge"}}, {"type": "node", "id": 5812305266, "lat": 40.9717019, "lon": 27.5075024, "tags": {"amenity": "restaurant", "name": "\u0130lhan Restaurant", "source": "local knowledge"}}, {"type": "node", "id": 5812305267, "lat": 40.9746811, "lon": 27.5113941, "tags": {"amenity": "restaurant", "source": "local knowledge"}}, {"type": "node", "id": 5818580991, "lat": 40.9801229, "lon": 27.5012201, "tags": {"amenity": "cafe", "name": "\u00c7i\u00e7ek K\u0131raathanesi", "source": "local knowledge"}}, {"type": "node", "id": 5818580992, "lat": 40.9802404, "lon": 27.5013253, "tags": {"amenity": "cafe", "name": "An\u0131l K\u0131raathanesi", "source": "local knowledge"}}, {"type": "node", "id": 5818686175, "lat": 41.1634077, "lon": 27.7886152, "tags": {"amenity": "restaurant", "name": "\u0130nci B\u00f6rek"}}, {"type": "node", "id": 5818686186, "lat": 41.2339421, "lon": 27.7078706, "tags": {"amenity": "restaurant", "name": "An\u0131lar Restaurant"}}, {"type": "node", "id": 5818686286, "lat": 41.2191522, "lon": 27.5440746, "tags": {"addr:city": "A\u015fa\u011f\u0131sevindikli", "addr:district": "Muratl\u0131", "addr:neighbourhood": "A\u015fa\u011f\u0131sevindikli Mahallesi", "amenity": "cafe"}}, {"type": "node", "id": 5835407788, "lat": 40.9876277, "lon": 27.5843512}, {"type": "node", "id": 5835407789, "lat": 40.9875497, "lon": 27.5843431}, {"type": "node", "id": 5835407790, "lat": 40.9875376, "lon": 27.5843659}, {"type": "node", "id": 5835407791, "lat": 40.9874728, "lon": 27.5843807}, {"type": "node", "id": 5835407792, "lat": 40.9874151, "lon": 27.5844061}, {"type": "node", "id": 5835407793, "lat": 40.9873513, "lon": 27.5843793}, {"type": "node", "id": 5840042660, "lat": 41.175366, "lon": 27.500664, "tags": {"amenity": "cafe", "name": "A\u00e7ar K\u0131raathanesi"}}, {"type": "node", "id": 5844884230, "lat": 41.1673579, "lon": 27.4917667, "tags": {"amenity": "cafe", "name": "Rengahenk Cafe"}}, {"type": "node", "id": 5858921392, "lat": 40.9775681, "lon": 27.5007361, "tags": {"addr:city": "Tekirda\u011f", "addr:district": "S\u00fcleymanpa\u015fa", "addr:neighbourhood": "\u00c7\u0131narl\u0131 Mahallesi", "addr:street": "\u00c7\u0131narl\u0131 Caddesi", "amenity": "cafe", "name": "Kahve Mesai", "source": "local knowledge"}}, {"type": "node", "id": 5906097938, "lat": 41.1525917, "lon": 27.8208243, "tags": {"amenity": "cafe", "name": "Cafe M"}}, {"type": "node", "id": 5916090807, "lat": 40.9966303, "lon": 27.5709476}, {"type": "node", "id": 5916090808, "lat": 40.9966383, "lon": 27.5709633}, {"type": "node", "id": 5916090809, "lat": 40.9966522, "lon": 27.5709507}, {"type": "node", "id": 5916090810, "lat": 40.9966898, "lon": 27.571024}, {"type": "node", "id": 5916090811, "lat": 40.9966818, "lon": 27.5710355}, {"type": "node", "id": 5916090812, "lat": 40.9967085, "lon": 27.5710877}, {"type": "node", "id": 5916090813, "lat": 40.9965994, "lon": 27.5711858}, {"type": "node", "id": 5916090814, "lat": 40.9965729, "lon": 27.5711341}, {"type": "node", "id": 5916090815, "lat": 40.9965611, "lon": 27.5711447}, {"type": "node", "id": 5916090816, "lat": 40.9965218, "lon": 27.571068}, {"type": "node", "id": 5916090817, "lat": 40.9965327, "lon": 27.5710582}, {"type": "node", "id": 5916090818, "lat": 40.9965247, "lon": 27.5710426}, {"type": "node", "id": 6236341898, "lat": 41.1850788, "lon": 27.4783864, "tags": {"amenity": "restaurant", "name": "EdrinEt \u0130nanl\u0131 Kasap Sucuk Restaurant", "phone": "+902823615656"}}, {"type": "node", "id": 6245819063, "lat": 41.1739519, "lon": 27.4979367, "tags": {"amenity": "cafe", "name": "Karaca Kafe & K\u0131raathane"}}, {"type": "node", "id": 6245819064, "lat": 41.1848017, "lon": 27.4796315, "tags": {"amenity": "restaurant", "name": "\u00c7e\u015fme Restaurant Bizim Ev"}}, {"type": "node", "id": 6273340734, "lat": 41.234151, "lon": 27.707513, "tags": {"addr:city": "Ula\u015f", "addr:district": "Ergene", "amenity": "restaurant", "name": "Dostlar Restaurant"}}, {"type": "node", "id": 6343771980, "lat": 41.1165791, "lon": 27.4726286, "tags": {"amenity": "cafe"}}, {"type": "node", "id": 6343773562, "lat": 40.9774742, "lon": 27.5159588, "tags": {"addr:street": "Ta\u015f Merdiven Sokak", "amenity": "cafe", "name": "R\u00fcstem Pa\u015fa Aile \u00c7ay Bah\u00e7esi"}}, {"type": "node", "id": 6388218200, "lat": 41.1618834, "lon": 27.7919294, "tags": {"amenity": "cafe", "name": "Gaziantep Baklava ve B\u00f6rek"}}, {"type": "node", "id": 6388218201, "lat": 41.1618664, "lon": 27.7921573, "tags": {"amenity": "cafe", "name": "Yudum \u00c7ay Oca\u011f\u0131"}}, {"type": "node", "id": 6388218209, "lat": 41.1551642, "lon": 27.7948423, "tags": {"amenity": "cafe", "name": "Teffy PlayStation Cafe Oyun Salonu"}}, {"type": "node", "id": 6388220103, "lat": 41.1619051, "lon": 27.7917641, "tags": {"amenity": "restaurant", "name": "Star D\u00f6ner"}}, {"type": "node", "id": 6388220105, "lat": 41.1618714, "lon": 27.792197, "tags": {"amenity": "restaurant", "name": "Lezzet Lokantas\u0131"}}, {"type": "node", "id": 6388220111, "lat": 41.1478521, "lon": 27.7992199, "tags": {"amenity": "restaurant", "name": "M\u0131sm\u0131l K\u00f6fte"}}, {"type": "node", "id": 6388220191, "lat": 41.150376, "lon": 27.7994058, "tags": {"amenity": "cafe", "name": "\u00d6zer B\u00f6rek"}}, {"type": "node", "id": 6389683808, "lat": 41.2321171, "lon": 27.5828733, "tags": {"amenity": "cafe"}}, {"type": "node", "id": 6389686286, "lat": 41.1584477, "lon": 27.8044486, "tags": {"amenity": "restaurant", "name": "Cadde Kat\u0131k D\u00f6ner"}}, {"type": "node", "id": 6430266130, "lat": 41.2244817, "lon": 27.6472449, "tags": {"addr:city": "Esenler", "addr:district": "Ergene", "addr:neighbourhood": "Esenler Mahallesi", "amenity": "cafe", "name": "K\u0131raathane"}}, {"type": "node", "id": 6430266132, "lat": 41.2237635, "lon": 27.6464336, "tags": {"addr:city": "Esenler", "addr:district": "Ergene", "addr:neighbourhood": "Esenler Mahallesi", "amenity": "cafe", "name": "K\u0131raathane"}}, {"type": "node", "id": 6430266134, "lat": 41.2236939, "lon": 27.646333, "tags": {"addr:city": "Esenler", "addr:district": "Ergene", "addr:neighbourhood": "Esenler Mahallesi", "amenity": "cafe", "name": "K\u0131raathane"}}, {"type": "node", "id": 6430309288, "lat": 41.2380381, "lon": 27.6778597, "tags": {"amenity": "cafe", "name": "K\u0131raathane"}}, {"type": "node", "id": 6430309291, "lat": 41.2381994, "lon": 27.6774171, "tags": {"addr:city": "K\u0131rkg\u00f6z", "addr:district": "Ergene", "addr:neighbourhood": "K\u0131rkg\u00f6z Mahallesi", "amenity": "cafe", "name": "K\u0131raathane"}}, {"type": "node", "id": 6430309299, "lat": 41.2372696, "lon": 27.6769075, "tags": {"addr:city": "K\u0131rkg\u00f6z", "addr:district": "Ergene", "addr:neighbourhood": "K\u0131rkg\u00f6z Mahallesi", "amenity": "restaurant", "name": "Ayg\u00fcner Lokanta"}}, {"type": "node", "id": 6430309300, "lat": 41.2370023, "lon": 27.6762128, "tags": {"addr:city": "K\u0131rkg\u00f6z", "addr:district": "Ergene", "addr:neighbourhood": "K\u0131rkg\u00f6z Mahallesi", "amenity": "cafe", "name": "K\u0131raathane"}}, {"type": "node", "id": 6467034025, "lat": 41.1550009, "lon": 27.8098144, "tags": {"amenity": "cafe", "bar": "yes", "capacity": "30", "delivery": "no", "drink:beer": "yes", "drink:coffee": "yes", "drink:tea": "yes", "drink:wine": "yes", "name": "Leyla", "outdoor_seating": "yes"}}, {"type": "node", "id": 6609816739, "lat": 40.9836852, "lon": 27.5132542, "tags": {"addr:city": "S\u00fcleymanpa\u015fa", "addr:district": "S\u00fcleymanpa\u015fa", "amenity": "cafe", "name": "Sabuncu K\u0131raathanesi"}}, {"type": "node", "id": 6641898150, "lat": 41.155959, "lon": 27.8163944}, {"type": "node", "id": 6641898151, "lat": 41.1559397, "lon": 27.8164976}, {"type": "node", "id": 6641898152, "lat": 41.1558322, "lon": 27.8164621}, {"type": "node", "id": 6641898153, "lat": 41.1558515, "lon": 27.8163589}, {"type": "node", "id": 6668174306, "lat": 41.2174117, "lon": 27.5463392, "tags": {"addr:city": "A\u015fa\u011f\u0131sevindikli", "addr:district": "Muratl\u0131", "addr:neighbourhood": "A\u015fa\u011f\u0131sevindikli Mahallesi", "amenity": "cafe"}}, {"type": "node", "id": 6726362892, "lat": 41.234636, "lon": 27.7067756, "tags": {"addr:city": "Ula\u015f", "addr:district": "Ergene", "amenity": "cafe", "cuisine": "regional", "name": "Bebo"}}, {"type": "node", "id": 6956785576, "lat": 41.1485501, "lon": 27.8365214, "tags": {"amenity": "restaurant", "cuisine": "fish", "name": "Arda Cunda Bal\u0131k Meze"}}, {"type": "node", "id": 6956785577, "lat": 41.1488508, "lon": 27.8366148, "tags": {"amenity": "restaurant", "cuisine": "steak_house", "name": "Kekik Steakhouse"}}, {"type": "node", "id": 6956785578, "lat": 41.1553177, "lon": 27.8345527, "tags": {"addr:street": "Dumlup\u0131nar Caddesi", "amenity": "restaurant", "cuisine": "kebab;regional", "name": "Saydanlar Kanaat Lokantas\u0131"}}, {"type": "node", "id": 7011362167, "lat": 41.2188521, "lon": 27.5434952, "tags": {"addr:city": "A\u015fa\u011f\u0131sevindikli", "addr:district": "Muratl\u0131", "addr:neighbourhood": "A\u015fa\u011f\u0131sevindikli Mahallesi", "amenity": "cafe"}}, {"type": "node", "id": 7011362177, "lat": 41.220629, "lon": 27.5455326, "tags": {"addr:city": "A\u015fa\u011f\u0131sevindikli", "addr:district": "Muratl\u0131", "addr:neighbourhood": "A\u015fa\u011f\u0131sevindikli Mahallesi", "amenity": "cafe"}}, {"type": "node", "id": 7011367818, "lat": 41.2319689, "lon": 27.5823562, "tags": {"addr:city": "Yukar\u0131 Sevindikli", "addr:district": "Muratl\u0131", "addr:neighbourhood": "Yukar\u0131 Sevindikli Mahallesi", "amenity": "cafe"}}, {"type": "node", "id": 7081392785, "lat": 41.1623001, "lon": 27.8027164, "tags": {"amenity": "restaurant", "name": "Se\u00e7 Lokantas\u0131"}}, {"type": "node", "id": 7167512322, "lat": 41.1612284, "lon": 27.7920493, "tags": {"amenity": "cafe", "name": "Otogar \u00c7ay Oca\u011f\u0131"}}, {"type": "node", "id": 7296662837, "lat": 41.1473458, "lon": 27.8010405, "tags": {"amenity": "cafe", "name": "\u00c7orlu Halk E\u011fitim Merkezi Kantini", "outdoor_seating": "yes"}}, {"type": "node", "id": 7316663771, "lat": 41.1519631, "lon": 27.8317156, "tags": {"amenity": "cafe", "brand": "Starbucks", "brand:wikidata": "Q37158", "brand:wikipedia": "en:Starbucks", "cuisine": "coffee_shop", "name": "Starbucks", "official_name": "Starbucks Coffee", "outdoor_seating": "yes", "takeaway": "yes"}}, {"type": "node", "id": 7316772317, "lat": 41.1507587, "lon": 27.8345091, "tags": {"amenity": "cafe", "brand": "Kahve D\u00fcnyas\u0131", "brand:wikidata": "Q28008050", "cuisine": "coffee_shop", "name": "Kahve D\u00fcnyas\u0131", "takeaway": "yes"}}, {"type": "node", "id": 7487581279, "lat": 40.9958972, "lon": 27.8432606, "tags": {"addr:street": "Bulvar Caddesi", "amenity": "restaurant", "name": "Deniz B\u00f6rek Pide ve Pizza Salonu", "phone": "+5360559734"}}, {"type": "node", "id": 7507757902, "lat": 40.9699217, "lon": 27.9548844, "tags": {"amenity": "restaurant", "name": "Ferhat Usta D\u00fcr\u00fcm Lahmacun Pide \u00c7e\u015fitleri"}}, {"type": "node", "id": 7507768403, "lat": 40.969987, "lon": 27.9549892, "tags": {"amenity": "restaurant", "name": "Kahta \u00c7i\u011f K\u00f6fte"}}, {"type": "node", "id": 7511922152, "lat": 40.9958818, "lon": 27.8429838, "tags": {"amenity": "restaurant", "name": "Mavi Karadeniz Pide & Lahmacun K\u00f6fte Salonu"}}, {"type": "node", "id": 8110206858, "lat": 41.1748067, "lon": 27.5003236, "tags": {"amenity": "restaurant", "name": "G\u00fcng\u00f6r D\u00f6ner K\u00f6fte"}}, {"type": "node", "id": 8166740015, "lat": 40.981435, "lon": 27.5226329, "tags": {"amenity": "restaurant", "name": "Kervan Pide B\u00f6rek Salonu", "phone": "+902822615975"}}, {"type": "node", "id": 8166740018, "lat": 40.9813955, "lon": 27.5225645, "tags": {"amenity": "cafe", "name": "Kahve"}}, {"type": "node", "id": 8474154613, "lat": 41.2241625, "lon": 27.5526771, "tags": {"amenity": "restaurant", "name": "Dan\u0131\u015fman T Sosyal Tesisleri"}}, {"type": "node", "id": 8474204428, "lat": 41.2309252, "lon": 27.5813941, "tags": {"addr:city": "Yukar\u0131 Sevindikli", "addr:district": "Muratl\u0131", "addr:neighbourhood": "Yukar\u0131 Sevindikli Mahallesi", "amenity": "cafe", "name": "I\u015eIK K\u0131raathanesi"}}, {"type": "node", "id": 8563925395, "lat": 40.988661, "lon": 27.5779674, "tags": {"amenity": "restaurant", "cuisine": "pizza", "name": "Domino's Pizza De\u011firmenalt\u0131"}}, {"type": "node", "id": 8565935853, "lat": 40.9987128, "lon": 27.652863, "tags": {"amenity": "cafe", "cuisine": "sandwich", "name": "Yolda Tost"}}, {"type": "node", "id": 8570931247, "lat": 41.0008386, "lon": 27.6587671, "tags": {"amenity": "restaurant", "name": "Tutku K\u0131r Lokantas\u0131"}}, {"type": "node", "id": 8579124825, "lat": 40.9655385, "lon": 27.4930555, "tags": {"addr:city": "Tekirda\u011f", "addr:district": "S\u00fcleymanpa\u015fa", "addr:housenumber": "62/B", "addr:neighbourhood": "100. Y\u0131l", "addr:postcode": "59100", "addr:street": "U\u011fur Mumcu Caddesi", "amenity": "cafe", "name": "Kartal Cafe", "outdoor_seating": "no"}}, {"type": "node", "id": 8579399198, "lat": 40.9805023, "lon": 27.8652792, "tags": {"amenity": "restaurant", "cuisine": "turkish", "name": "Kasaba Et Lokantas\u0131"}}, {"type": "node", "id": 8789421897, "lat": 40.9950462, "lon": 27.8356708, "tags": {"amenity": "restaurant", "cuisine": "turkish", "name": "\u00d6ge Tekirda\u011f K\u00f6ftesi"}}, {"type": "node", "id": 8791626651, "lat": 40.9835083, "lon": 27.5590323, "tags": {"amenity": "cafe", "name": "NAKAVT FunHouse"}}, {"type": "node", "id": 8822742416, "lat": 41.1544219, "lon": 27.8238441, "tags": {"amenity": "restaurant", "brand": "K\u00f6fteci Yusuf", "brand:wikidata": "Q126125081", "cuisine": "turkish", "name": "K\u00f6fteci Yusuf"}}, {"type": "node", "id": 8922879769, "lat": 41.1474547, "lon": 27.7991525, "tags": {"amenity": "restaurant", "name": "Meydan Lokantas\u0131"}}, {"type": "node", "id": 8974212998, "lat": 40.973346, "lon": 27.4935414, "tags": {"amenity": "cafe", "name": "S\u00fctl\u00fc Cafe & Pasta"}}, {"type": "node", "id": 8974212999, "lat": 40.9735204, "lon": 27.4935629, "tags": {"amenity": "cafe", "name": "Bistro Kafe"}}, {"type": "node", "id": 9177256909, "lat": 41.1491975, "lon": 27.8307823, "tags": {"amenity": "restaurant", "name": "\u00c7orlu Ocakba\u015f\u0131"}}, {"type": "node", "id": 9177259601, "lat": 41.1503326, "lon": 27.8307935, "tags": {"air_conditioning": "yes", "amenity": "restaurant", "name": "Tarihi Ortak\u00f6y Kumpircisi", "wheelchair": "yes"}}, {"type": "node", "id": 9177270972, "lat": 41.1503898, "lon": 27.8306605, "tags": {"amenity": "restaurant", "name": "Ahmetbey K\u00f6ftecisi"}}, {"type": "node", "id": 9295138765, "lat": 40.9918594, "lon": 27.6128827}, {"type": "node", "id": 9295138766, "lat": 40.9917561, "lon": 27.6127582}, {"type": "node", "id": 9295138767, "lat": 40.9917462, "lon": 27.6128012}, {"type": "node", "id": 9295138768, "lat": 40.991869, "lon": 27.6129921}, {"type": "node", "id": 9295138769, "lat": 40.991828, "lon": 27.6131721}, {"type": "node", "id": 9295138770, "lat": 40.9918317, "lon": 27.6132296}, {"type": "node", "id": 9295138771, "lat": 40.9918644, "lon": 27.6131932}, {"type": "node", "id": 9295138772, "lat": 40.9919182, "lon": 27.6130389}, {"type": "node", "id": 9295138773, "lat": 40.9921167, "lon": 27.6129978}, {"type": "node", "id": 9295138774, "lat": 40.9921272, "lon": 27.6129537}, {"type": "node", "id": 9295138775, "lat": 40.9920051, "lon": 27.6129577}, {"type": "node", "id": 9295138776, "lat": 40.9919544, "lon": 27.612933}, {"type": "node", "id": 9295138777, "lat": 40.9920007, "lon": 27.612725}, {"type": "node", "id": 9295138778, "lat": 40.9920693, "lon": 27.6126956}, {"type": "node", "id": 9295138779, "lat": 40.992087, "lon": 27.6126571}, {"type": "node", "id": 9295138780, "lat": 40.9920094, "lon": 27.6126592}, {"type": "node", "id": 9295138781, "lat": 40.9920169, "lon": 27.6126395}, {"type": "node", "id": 9295138782, "lat": 40.9920016, "lon": 27.612623}, {"type": "node", "id": 9295138783, "lat": 40.9919944, "lon": 27.6126371}, {"type": "node", "id": 9295138784, "lat": 40.991938, "lon": 27.6125826}, {"type": "node", "id": 9295138785, "lat": 40.9919282, "lon": 27.6126256}, {"type": "node", "id": 9295138786, "lat": 40.9919672, "lon": 27.6126891}, {"type": "node", "id": 9556496642, "lat": 41.1545594, "lon": 27.8052814, "tags": {"amenity": "cafe", "name": "Konak Lounge"}}, {"type": "node", "id": 9615004067, "lat": 40.9747301, "lon": 27.4929094}, {"type": "node", "id": 9615004068, "lat": 40.9746269, "lon": 27.4929225}, {"type": "node", "id": 9615004069, "lat": 40.9746358, "lon": 27.4930365}, {"type": "node", "id": 9615004070, "lat": 40.9746692, "lon": 27.4930785}, {"type": "node", "id": 9615004071, "lat": 40.9746949, "lon": 27.4930832}, {"type": "node", "id": 9615004072, "lat": 40.9747283, "lon": 27.4930563}, {"type": "node", "id": 9615004073, "lat": 40.9747621, "lon": 27.4929243}, {"type": "node", "id": 9623577962, "lat": 40.9663657, "lon": 27.4929559, "tags": {"addr:city": "Tekirda\u011f", "addr:district": "S\u00fcleymanpa\u015fa", "addr:housenumber": "4/A", "addr:neighbourhood": "100. Y\u0131l", "addr:postcode": "59100", "addr:street": "Adnan Kahveci Caddesi", "amenity": "cafe", "name": "Y\u0131lmaz K\u0131raathanesi"}}, {"type": "node", "id": 9639713971, "lat": 40.9779518, "lon": 27.5117599, "tags": {"addr:city": "Tekirda\u011f", "addr:district": "S\u00fcleymanpa\u015fa", "addr:housenumber": "3/A", "addr:neighbourhood": "Ertu\u011frul", "addr:postcode": "59100", "addr:street": "H\u00fcseyin Pehlivan Caddesi", "amenity": "restaurant", "branch": "\u00d6zcanlar 1", "cuisine": "turkish", "email": "info@ozcanlarkofte.com", "name": "\u00d6zcanlar K\u00f6fte", "phone": "+90 282 261 2976", "website": "https://www.ozcanlarkofte.com/index.html"}}, {"type": "node", "id": 9666477464, "lat": 41.1520176, "lon": 27.8315629, "tags": {"amenity": "restaurant", "name": "\u00c7\u0131t\u0131r Usta"}}, {"type": "node", "id": 9711484807, "lat": 41.1707271, "lon": 27.4969036, "tags": {"addr:street": "Erol Okyay Caddesi", "amenity": "cafe", "name": "Kahve"}}, {"type": "node", "id": 9717692758, "lat": 41.1391208, "lon": 27.8783945}, {"type": "node", "id": 9717692759, "lat": 41.1390754, "lon": 27.8785255}, {"type": "node", "id": 9717692760, "lat": 41.1389542, "lon": 27.8784462}, {"type": "node", "id": 9717692761, "lat": 41.1390004, "lon": 27.8783162}, {"type": "node", "id": 9754170476, "lat": 41.1750284, "lon": 27.860396}, {"type": "node", "id": 9754170477, "lat": 41.1746808, "lon": 27.8612631}, {"type": "node", "id": 9754170478, "lat": 41.1751629, "lon": 27.8616506}, {"type": "node", "id": 9754170479, "lat": 41.1755319, "lon": 27.8607906}, {"type": "node", "id": 9825969817, "lat": 40.9378257, "lon": 27.4853791, "tags": {"addr:city": "Topa\u011fa\u00e7", "addr:neighbourhood": "Topa\u011fa\u00e7 Mahallesi", "amenity": "restaurant", "name": "\u0130skele Rum Meyhanesi"}}, {"type": "node", "id": 9872848617, "lat": 41.003291, "lon": 27.8101344, "tags": {"amenity": "restaurant", "brand": "K\u00f6fteci Yusuf", "brand:wikidata": "Q126125081", "cuisine": "turkish", "name": "K\u00f6fteci Yusuf"}}, {"type": "node", "id": 9879541917, "lat": 40.9775151, "lon": 27.5192105, "tags": {"addr:street": "Atat\u00fcrk Bulvar\u0131", "amenity": "restaurant", "name": "Sahil K\u00f6fte \u00c7orba 24/7", "name:en": "Sahil Kofte and Soups"}}, {"type": "node", "id": 9892526523, "lat": 41.0181283, "lon": 27.5796171, "tags": {"addr:city": "K\u00f6seilyas", "addr:district": "S\u00fcleymanpa\u015fa", "addr:neighbourhood": "K\u00f6seilyas Mahallesi", "amenity": "restaurant", "name": "K\u00f6y Kahvalt\u0131s\u0131 Et Lokantas\u0131"}}, {"type": "node", "id": 9948291628, "lat": 40.9867772, "lon": 27.5307779}, {"type": "node", "id": 9948291629, "lat": 40.9866044, "lon": 27.5310061}, {"type": "node", "id": 9948291630, "lat": 40.9865114, "lon": 27.5308825}, {"type": "node", "id": 9948291631, "lat": 40.9866843, "lon": 27.5306544}, {"type": "node", "id": 9963602190, "lat": 40.9692804, "lon": 27.8695992}, {"type": "node", "id": 9963602191, "lat": 40.9692125, "lon": 27.869831}, {"type": "node", "id": 9963602192, "lat": 40.9691166, "lon": 27.8697834}, {"type": "node", "id": 9963602193, "lat": 40.9691855, "lon": 27.8695471}, {"type": "node", "id": 9968615409, "lat": 41.1547467, "lon": 27.8188775, "tags": {"amenity": "cafe", "name": "Osmanl\u0131 Kahvecisi"}}, {"type": "node", "id": 9968615411, "lat": 41.1571906, "lon": 27.8100111, "tags": {"amenity": "cafe", "name": "The Port"}}, {"type": "node", "id": 9968794575, "lat": 41.1543808, "lon": 27.820779, "tags": {"amenity": "restaurant", "name": "Ci\u011ferci Veysel"}}, {"type": "node", "id": 9991793049, "lat": 41.1724115, "lon": 27.4964704, "tags": {"amenity": "restaurant", "name": "Yavuz Izgara"}}, {"type": "node", "id": 10000679694, "lat": 40.9745573, "lon": 27.5111917, "tags": {"amenity": "restaurant", "name": "Kervan Et K\u00f6fte"}}, {"type": "node", "id": 10000753828, "lat": 40.9741181, "lon": 27.5035526, "tags": {"amenity": "restaurant", "name": "Han Sofras\u0131 Cafe Restaurant"}}, {"type": "node", "id": 10000757247, "lat": 40.9778022, "lon": 27.5136723, "tags": {"amenity": "restaurant", "name": "Kocaeli B\u00f6rek Pide"}}, {"type": "node", "id": 10000758760, "lat": 40.9771959, "lon": 27.5043858, "tags": {"amenity": "restaurant", "name": "\u00d6zcanlar"}}, {"type": "node", "id": 10028568148, "lat": 40.9899441, "lon": 27.6027635}, {"type": "node", "id": 10028568149, "lat": 40.9896027, "lon": 27.6028972}, {"type": "node", "id": 10028568150, "lat": 40.9894769, "lon": 27.6023333}, {"type": "node", "id": 10030491865, "lat": 41.1550069, "lon": 27.8055424, "tags": {"amenity": "cafe", "name": "Do\u011fu\u015f Cafe"}}, {"type": "node", "id": 10030518310, "lat": 41.1622188, "lon": 27.7938513, "tags": {"amenity": "restaurant", "name": "Texas Burger"}}, {"type": "node", "id": 10030529961, "lat": 41.1615186, "lon": 27.8006517, "tags": {"amenity": "restaurant", "name": "Hasan Gazi Baklavalar\u0131"}}, {"type": "node", "id": 10030538155, "lat": 41.1550003, "lon": 27.8052787, "tags": {"amenity": "restaurant", "name": "Bedir \u015eark Sofras\u0131"}}, {"type": "node", "id": 10030549918, "lat": 41.1625769, "lon": 27.7943128, "tags": {"amenity": "restaurant", "name": "\u015eeref Lokantas\u0131"}}, {"type": "node", "id": 10030550621, "lat": 41.1550296, "lon": 27.8084128, "tags": {"amenity": "restaurant", "name": "G\u00fczelo\u011flu Kokore\u00e7"}}, {"type": "node", "id": 10247777033, "lat": 40.988833, "lon": 27.5770198, "tags": {"amenity": "cafe", "brand": "Starbucks", "brand:wikidata": "Q37158", "cuisine": "coffee_shop", "name": "Starbucks", "official_name": "Starbucks Coffee", "takeaway": "yes"}}, {"type": "node", "id": 10270859127, "lat": 41.1471062, "lon": 27.8433788, "tags": {"amenity": "restaurant", "name": "K\u0131rklareli K\u00f6ftecisi"}}, {"type": "node", "id": 10270867326, "lat": 41.1471285, "lon": 27.8432965, "tags": {"amenity": "restaurant", "name": "Evren D\u00f6ner Salonu"}}, {"type": "node", "id": 10270868073, "lat": 41.1471853, "lon": 27.8435675, "tags": {"amenity": "restaurant", "name": "\u015eanl\u0131 F\u0131rat Ci\u011fer K\u00f6fte Kebap D\u00fcr\u00fcm Salonu", "phone": "+905455085959"}}, {"type": "node", "id": 10270869057, "lat": 41.1588078, "lon": 27.8040752, "tags": {"amenity": "restaurant", "name": "Birtat K\u00f6fte"}}, {"type": "node", "id": 10555317751, "lat": 41.1013573, "lon": 27.8064099, "tags": {"amenity": "restaurant", "name": "\u0130lya K\u0131r Bah\u00e7esi"}}, {"type": "node", "id": 10728167155, "lat": 41.1721799, "lon": 27.4951632, "tags": {"amenity": "cafe", "name": "Kahverengi Cafe & Restaurant"}}, {"type": "node", "id": 10728192466, "lat": 41.1690296, "lon": 27.4992591, "tags": {"amenity": "restaurant", "name": "Durmaz D\u00fcr\u00fcm"}}, {"type": "node", "id": 10822919465, "lat": 40.9783148, "lon": 27.5131797}, {"type": "node", "id": 10822919466, "lat": 40.9782901, "lon": 27.5131808}, {"type": "node", "id": 10822919467, "lat": 40.9782928, "lon": 27.5132867}, {"type": "node", "id": 10822919468, "lat": 40.9783174, "lon": 27.5132856}, {"type": "node", "id": 10955730572, "lat": 41.155716, "lon": 27.8336472, "tags": {"addr:housenumber": "18/2", "addr:street": "Dumlup\u0131nar Caddesi", "amenity": "restaurant", "name": "Mersinli Ci\u011ferci Baba", "phone": "+902826731002"}}, {"type": "node", "id": 10955761719, "lat": 41.2023629, "lon": 27.8345536, "tags": {"amenity": "restaurant", "name": "Yeti\u015f K\u00f6fte \u0130brahim"}}, {"type": "node", "id": 10968303851, "lat": 41.1580738, "lon": 27.82311, "tags": {"amenity": "cafe", "name": "Lokma Mix"}}, {"type": "node", "id": 10968323291, "lat": 41.1581513, "lon": 27.8231439, "tags": {"amenity": "cafe", "name": "Asmal\u0131 F\u0131r\u0131n Cafe"}}, {"type": "node", "id": 10968336256, "lat": 41.1571681, "lon": 27.8770945, "tags": {"addr:city": "\u00d6nerler", "addr:district": "\u00c7orlu", "addr:neighbourhood": "\u00d6nerler Mahallesi", "amenity": "restaurant", "name": "Kuzu Diyar\u0131 Kuzu \u00c7evirme Restaurant"}}, {"type": "node", "id": 10968347914, "lat": 41.1554201, "lon": 27.818283, "tags": {"amenity": "restaurant", "name": "The Fabric"}}, {"type": "node", "id": 10981139047, "lat": 41.2100997, "lon": 27.7388217, "tags": {"amenity": "restaurant", "description": "+905529395006", "name": "Han\u0131meli Ev Yemekleri"}}, {"type": "node", "id": 11034875535, "lat": 40.978321, "lon": 27.5111592, "tags": {"amenity": "restaurant", "name": "Aboov D\u00fcr\u00fcm"}}, {"type": "node", "id": 11034909696, "lat": 40.978388, "lon": 27.5111756, "tags": {"amenity": "restaurant", "name": "\u015e\u0131rdanc\u0131 Efkan"}}, {"type": "node", "id": 11093044606, "lat": 40.9852785, "lon": 27.580063, "tags": {"amenity": "restaurant", "name": "Hatay D\u00fcr\u00fcm Evi"}}, {"type": "node", "id": 11093044614, "lat": 40.9854597, "lon": 27.5799691, "tags": {"amenity": "restaurant", "name": "Dak Edirne Tava Ci\u011feri"}}, {"type": "node", "id": 11093044619, "lat": 40.9861487, "lon": 27.5796432, "tags": {"amenity": "cafe", "name": "Ottoman"}}, {"type": "node", "id": 11093044624, "lat": 40.9860773, "lon": 27.5792985, "tags": {"amenity": "restaurant", "name": "K\u00fcrek Lahmacun"}}, {"type": "node", "id": 11093044632, "lat": 40.9858171, "lon": 27.5798739, "tags": {"amenity": "cafe", "name": "Kupa"}}, {"type": "node", "id": 11093044633, "lat": 40.9855762, "lon": 27.5796868, "tags": {"amenity": "cafe", "name": "D6 Cafe"}}, {"type": "node", "id": 11093044634, "lat": 40.9855838, "lon": 27.5795265, "tags": {"amenity": "cafe", "name": "Hopsack Game"}}, {"type": "node", "id": 11093044654, "lat": 40.9961601, "lon": 27.5770314, "tags": {"amenity": "restaurant", "name": "Hitaly Pizza"}}, {"type": "node", "id": 11147696116, "lat": 41.1564793, "lon": 27.7993356, "tags": {"amenity": "restaurant", "name": "K\u0131l\u0131n\u00e7lar Pide & B\u00f6rek"}}, {"type": "node", "id": 11162691505, "lat": 41.1842643, "lon": 27.762223, "tags": {"amenity": "restaurant", "name": "\u00c7i\u011fk\u00f6fteci"}}, {"type": "node", "id": 11162692705, "lat": 41.1852405, "lon": 27.7637635, "tags": {"amenity": "cafe", "name": "Udo Dondurma"}}, {"type": "node", "id": 11205657471, "lat": 40.9919007, "lon": 27.6129033}, {"type": "node", "id": 11264840716, "lat": 40.9784801, "lon": 27.5170562}, {"type": "node", "id": 11264840717, "lat": 40.9784933, "lon": 27.51694}, {"type": "node", "id": 11264840718, "lat": 40.9783545, "lon": 27.5168824}, {"type": "node", "id": 11264840719, "lat": 40.9783085, "lon": 27.5169999}, {"type": "node", "id": 11405392198, "lat": 41.0958069, "lon": 27.9532528, "tags": {"amenity": "restaurant", "name": "Karde\u015fler Sucuk ve K\u00f6fte"}}, {"type": "node", "id": 11405392215, "lat": 41.0967443, "lon": 27.9523938, "tags": {"amenity": "restaurant", "name": "Mangalc\u0131m"}}, {"type": "node", "id": 11541246390, "lat": 40.9782523, "lon": 27.5028095, "tags": {"amenity": "restaurant", "name": "Karadeniz Yemek Salonu"}}, {"type": "node", "id": 11545968312, "lat": 41.1581036, "lon": 27.840939, "tags": {"amenity": "restaurant", "name": "Bal\u0131k\u00e7\u0131 M\u00fcrsel"}}, {"type": "node", "id": 11545974812, "lat": 41.1581652, "lon": 27.8411267, "tags": {"amenity": "restaurant", "name": "Alt\u0131n K\u00fcrek Lahmacun", "phone": "+902826535963"}}, {"type": "node", "id": 11545976813, "lat": 41.1559794, "lon": 27.8434649, "tags": {"amenity": "cafe", "name": "B Chocolate"}}, {"type": "node", "id": 11545978556, "lat": 41.1559404, "lon": 27.8436509, "tags": {"amenity": "cafe", "name": "Why Not"}}, {"type": "node", "id": 11545982617, "lat": 41.1583173, "lon": 27.8412344, "tags": {"amenity": "restaurant", "name": "Destan Pide"}}, {"type": "node", "id": 11545996553, "lat": 41.156021, "lon": 27.8429417, "tags": {"amenity": "cafe", "name": "Nevada Coffee"}}, {"type": "node", "id": 11546000272, "lat": 41.1582316, "lon": 27.8411822, "tags": {"amenity": "restaurant", "name": "Tavuk Evi"}}, {"type": "node", "id": 11546005832, "lat": 41.1584371, "lon": 27.8413163, "tags": {"amenity": "cafe", "name": "BakloveA Baklava"}}, {"type": "node", "id": 11556769407, "lat": 41.1519431, "lon": 27.7987966, "tags": {"amenity": "cafe", "name": "\u015e\u00f6len Patisserie"}}, {"type": "node", "id": 11556770897, "lat": 41.1480957, "lon": 27.80019, "tags": {"amenity": "cafe", "name": "Amilya Pasta Cafe"}}, {"type": "node", "id": 11570612421, "lat": 41.2146639, "lon": 27.5059522, "tags": {"addr:city": "Ball\u0131hoca", "addr:district": "Muratl\u0131", "addr:neighbourhood": "Ball\u0131hoca Mahallesi", "amenity": "cafe"}}, {"type": "node", "id": 11570612423, "lat": 41.2148838, "lon": 27.5061366, "tags": {"addr:city": "Ball\u0131hoca", "addr:district": "Muratl\u0131", "addr:neighbourhood": "Ball\u0131hoca Mahallesi", "amenity": "cafe"}}, {"type": "node", "id": 11621718580, "lat": 40.9898183, "lon": 27.6021996}, {"type": "node", "id": 11645401730, "lat": 40.9812641, "lon": 27.5660574}, {"type": "node", "id": 11645401731, "lat": 40.9811831, "lon": 27.5660368}, {"type": "node", "id": 11645401732, "lat": 40.9811495, "lon": 27.566269}, {"type": "node", "id": 11645401733, "lat": 40.9812305, "lon": 27.5662895}, {"type": "node", "id": 11645435370, "lat": 40.9812405, "lon": 27.5682548}, {"type": "node", "id": 11645435371, "lat": 40.9811678, "lon": 27.5683064}, {"type": "node", "id": 11645435372, "lat": 40.9812522, "lon": 27.5685148}, {"type": "node", "id": 11645435373, "lat": 40.9813248, "lon": 27.5684631}, {"type": "node", "id": 11668907597, "lat": 40.9691921, "lon": 27.9597436, "tags": {"addr:city": "Tekirda\u011f", "addr:district": "Marmaraere\u011flisi", "addr:housenumber": "72/A", "addr:neighbourhood": "Mustafa Kemal Pa\u015fa", "addr:postcode": "59740", "addr:street": "\u015eht. Ahmet Oral", "amenity": "restaurant", "contact:facebook": "https://www.facebook.com/byadarestoran", "cuisine": "turkish;fish", "description": "Tekirda\u011f Marmara Ere\u011flisi\u2019nde taze ve leziz deniz lezzetlerinin en iyilerini, damakta iz b\u0131rakan mezeleri ve muhte\u015fem deniz manzaras\u0131yla birlikte sunan yeni bir sahil restoran\u0131 m\u0131 ar\u0131yorsunuz? B\u00f6lgenin en yeni restoran\u0131 ByAda\u2019ya u\u011framadan ge\u00e7meyin.", "diet:fresh": "yes", "diet:organic": "yes", "email": "info@byadabalikrestaurant.com.tr", "image": "https://www.byadabalikrestaurant.com.tr/static/img/logo.svg", "internet_access": "wlan", "mobile": "+90 533 471 66 35", "name": "By Ada Bal\u0131k Restoran", "opening_hours": "Mo-Su 10:00-02:00", "outdoor_seating": "yes", "payment:cash": "yes", "payment:credit_cards": "yes", "payment:debit_cards": "yes", "payment:mastercard": "yes", "payment:visa": "yes", "phone": "+90 533 471 66 35", "reservation": "recommended", "start_date": "2023-01-01", "website": "https://www.byadabalikrestaurant.com.tr"}}, {"type": "node", "id": 11699151404, "lat": 40.9865961, "lon": 27.5367004, "tags": {"amenity": "cafe", "name": "Valens Cafe"}}, {"type": "node", "id": 11740403766, "lat": 40.9888074, "lon": 27.5540031, "tags": {"addr:neighbourhood": "Atat\u00fcrk", "amenity": "restaurant", "cuisine": "steak_house;kasap", "name": "Heybet"}}, {"type": "node", "id": 11740456537, "lat": 40.9879322, "lon": 27.5547537}, {"type": "node", "id": 11740456538, "lat": 40.987935, "lon": 27.5548612}, {"type": "node", "id": 11740456539, "lat": 40.9879837, "lon": 27.554859}, {"type": "node", "id": 11740456540, "lat": 40.987981, "lon": 27.5547516}, {"type": "node", "id": 11774978968, "lat": 41.1552246, "lon": 27.7970288, "tags": {"addr:neighbourhood": "\u015eeyhsinan Mahallesi", "addr:street": "Eski Tekirda\u011f Caddesi", "amenity": "restaurant", "cuisine": "turkish", "name": "Alt\u0131n koza restaurant Adnan ustan\u0131n yeri"}}, {"type": "node", "id": 11831476045, "lat": 41.1629432, "lon": 27.8000008, "tags": {"amenity": "restaurant", "name": "Bolkep\u00e7e Lokantas\u0131"}}, {"type": "node", "id": 11831494482, "lat": 41.1620862, "lon": 27.8004774, "tags": {"amenity": "restaurant", "name": "Suzan'\u0131n Yeri"}}, {"type": "node", "id": 11845202032, "lat": 41.1569529, "lon": 27.8783461, "tags": {"addr:city": "\u00d6nerler", "addr:district": "\u00c7orlu", "addr:neighbourhood": "\u00d6nerler Mahallesi", "amenity": "restaurant", "cuisine": "turkish", "name": "Akan Lezzet Lokantas\u0131"}}, {"type": "node", "id": 11986370341, "lat": 41.1698705, "lon": 27.4983548, "tags": {"amenity": "restaurant", "name": "Kanat\u00e7\u0131 Sad\u0131k Usta"}}, {"type": "node", "id": 12020336070, "lat": 40.8749377, "lon": 27.4586519, "tags": {"addr:city": "Kumba\u011f", "addr:district": "S\u00fcleymanpa\u015fa", "addr:neighbourhood": "Kumba\u011f Mahallesi", "amenity": "restaurant", "cuisine": "burger;cake;chicken;coffee_shop;grill;local;tea", "name": "Istanbul Bistro Cafe", "opening_hours": "Mo-Su 07:00-01:00"}}, {"type": "node", "id": 12048207347, "lat": 40.9780204, "lon": 27.511155, "tags": {"amenity": "cafe", "name": "Cafe Cocoa"}}, {"type": "node", "id": 12068204397, "lat": 41.1710564, "lon": 27.4969444, "tags": {"amenity": "cafe", "check_date": "2024-07-21", "name": "Kafe"}}, {"type": "node", "id": 12072643424, "lat": 41.0052971, "lon": 27.9814059, "tags": {"amenity": "cafe", "name": "Akta\u015f Cafe"}}, {"type": "node", "id": 12072643430, "lat": 41.0051216, "lon": 27.9816614, "tags": {"amenity": "cafe", "name": "Bereket \u00c7ay Bah\u00e7esi"}}, {"type": "node", "id": 12074461050, "lat": 41.0104033, "lon": 27.6662578}, {"type": "node", "id": 12074461051, "lat": 41.0107474, "lon": 27.6663288}, {"type": "node", "id": 12074461052, "lat": 41.0104944, "lon": 27.6671952}, {"type": "node", "id": 12074461053, "lat": 41.009871, "lon": 27.6668572}, {"type": "node", "id": 12074461054, "lat": 41.0100562, "lon": 27.6661384}, {"type": "node", "id": 12091025732, "lat": 41.1719152, "lon": 27.4960349, "tags": {"amenity": "cafe", "check_date": "2024-08-04", "name": "Coffee Break"}}, {"type": "node", "id": 12136550760, "lat": 41.149447, "lon": 27.7961369, "tags": {"amenity": "cafe", "name": "Sardunya Cafe"}}, {"type": "node", "id": 12211536168, "lat": 41.2072207, "lon": 27.7613509, "tags": {"amenity": "restaurant", "name": "Ergene G\u00f6l Restoran", "name:tr": "G\u00f6l Restorant"}}, {"type": "node", "id": 12344840570, "lat": 40.9691524, "lon": 27.4926921}, {"type": "node", "id": 12344840571, "lat": 40.9691536, "lon": 27.4927464}, {"type": "node", "id": 12344840572, "lat": 40.9691157, "lon": 27.4927478}, {"type": "node", "id": 12344840573, "lat": 40.9691145, "lon": 27.4926928}, {"type": "node", "id": 12459860636, "lat": 41.1554047, "lon": 27.8427525, "tags": {"amenity": "restaurant", "name": "My Lahmacun"}}, {"type": "node", "id": 12543974336, "lat": 40.9773225, "lon": 27.5149768, "tags": {"amenity": "cafe", "contact:instagram": "mathildalittlecitycafe", "name": "Mathilda Little City Cafe"}}, {"type": "node", "id": 12692906335, "lat": 40.9724661, "lon": 27.4853061, "tags": {"amenity": "restaurant", "name": "Trakya Yemek", "phone": "+905334422955"}}, {"type": "node", "id": 12718442243, "lat": 40.9784572, "lon": 27.5170578}, {"type": "node", "id": 12718442244, "lat": 40.9783449, "lon": 27.5168933}, {"type": "node", "id": 12728464881, "lat": 40.9772553, "lon": 27.5150628, "tags": {"addr:city": "Tekirda\u011f", "addr:district": "S\u00fcleymanpa\u015fa", "addr:housenumber": "7/C", "addr:neighbourhood": "Ertu\u011frul", "addr:postcode": "59100", "addr:street": "\u00c7i\u00e7ek Sokak", "amenity": "restaurant", "cuisine": "turkish", "mobile": "+90 542 514 72 00", "name": "Mangal D\u00f6ner", "opening_hours": "Mo-Sa 11:30-19:00", "outdoor_seating": "no", "phone": "+90 282 261 86 93", "start_date": "1984", "website": "https://mangaldoner.com.tr/"}}, {"type": "node", "id": 12836797256, "lat": 41.1351863, "lon": 27.7924254, "tags": {"amenity": "cafe", "name": "Havuzlar K\u0131raathanesi"}}, {"type": "node", "id": 12848155023, "lat": 41.1744664, "lon": 27.4918081, "tags": {"amenity": "cafe", "name": "Cafe bi mola"}}, {"type": "node", "id": 12896420341, "lat": 41.177158, "lon": 27.5020003, "tags": {"amenity": "cafe", "name": "D'Free Coffee"}}, {"type": "node", "id": 12896447227, "lat": 41.1713524, "lon": 27.496286, "tags": {"amenity": "cafe", "name": "Coffee The Muse"}}, {"type": "way", "id": 448770028, "nodes": [4457504420, 4457504421, 4457504422, 4457504419, 4457504420], "tags": {"addr:street": "Fatih Sultan Mehmet Blv.", "amenity": "restaurant", "building": "yes", "cuisine": "meat", "name": "Masal Et Restoran"}}, {"type": "way", "id": 449150883, "nodes": [4461177286, 4461177287, 4461177288, 4461177289, 4461177290, 4461177291, 4461177292, 4461177293, 4461177294, 4461177295, 4461177296, 4461177297, 4461177298, 4461177286], "tags": {"amenity": "restaurant", "building": "yes", "cuisine": "turkish", "name": "Serino\u011fullar\u0131 Et Lokantas\u0131"}}, {"type": "way", "id": 459890378, "nodes": [4556149049, 4556149050, 4556149051, 4556149071, 4556149076, 4556149072, 4556149074, 4556149073, 4556149052, 4556149075, 4556149053, 4556149054, 4556149055, 4556149056, 4556149057, 4556149058, 4556149059, 4556149060, 4556149061, 4556149062, 4556149063, 4556149064, 4556149065, 4556149066, 4556149067, 4556149068, 4556149069, 4556149070, 4556149049], "tags": {"amenity": "restaurant", "building": "rest", "name": "Can Karde\u015fler Restoran"}}, {"type": "way", "id": 459892138, "nodes": [4556167391, 4556167392, 4556167393, 4556167394, 4556167395, 4556167396, 4556167397, 4556167398, 4556167399, 4556167400, 4556167401, 4556167402, 4556167391], "tags": {"amenity": "restaurant", "building": "yes", "name": "\u00c7iftlik Cafe Restoran"}}, {"type": "way", "id": 499981098, "nodes": [4911527889, 4911527612, 4911527765, 4911527888, 5835407793, 5835407792, 5835407791, 4911527611, 5835407790, 5835407789, 5835407788, 4911527764, 4911527889], "tags": {"amenity": "restaurant", "building": "commercial", "cuisine": "regional", "name": "Bah\u00e7e Restoran"}}, {"type": "way", "id": 515980130, "nodes": [5037921447, 5037921446, 5037921445, 5037921444, 5037921447], "tags": {"amenity": "cafe", "cuisine": "ice_cream;sandwich", "internet_access": "yes", "name": "Cafe de Marine", "outdoor_seating": "yes", "phone": "+90 282 000 59 59", "smoking": "outside"}}, {"type": "way", "id": 573754922, "nodes": [5509607539, 5509607538, 5509607537, 5509607532, 5509607535, 5509607534, 5509607533, 5509607536, 5509607539], "tags": {"amenity": "restaurant", "building": "yes", "cuisine": "turkish", "name": "Yurdanurlar U\u00e7ak Restaurant"}}, {"type": "way", "id": 602170822, "nodes": [5720684442, 5720684439, 5720684440, 5720684441, 5720684442], "tags": {"amenity": "cafe", "building": "yes", "name": "Kafe 1923"}}, {"type": "way", "id": 608693791, "nodes": [5766321838, 5766321835, 5766321836, 5766321837, 5766321838], "tags": {"amenity": "cafe", "building": "yes", "name": "Nefes Park Kafe"}}, {"type": "way", "id": 610581633, "nodes": [5782198915, 5782198927, 5782198926, 5782198917, 5782198918, 5782198916, 5782198925, 5782198924, 5782198923, 5782198920, 5782198922, 5782198921, 5782198914, 5782198919, 5782198915], "tags": {"addr:city": "S\u00fcleymanpa\u015fa", "addr:country": "TR", "addr:district": "S\u00fcleymanpa\u015fa", "addr:housenumber": "81", "addr:place": "Nusratl\u0131 Mahallesi", "addr:postcode": "59000", "addr:province": "Tekirda\u011f", "addr:street": "Tekirda\u011f Malkara Karayolu", "addr:suburb": "Nusratl\u0131 Mahallesi", "amenity": "restaurant", "building": "yes", "cuisine": "turkish", "delivery": "no", "name": "K\u00f6\u015fk Restaurant", "operator": "K\u00f6\u015fk Et Lokantas\u0131", "takeaway": "no"}}, {"type": "way", "id": 626664772, "nodes": [5916090807, 5916090808, 5916090809, 5916090810, 5916090811, 5916090812, 5916090813, 5916090814, 5916090815, 5916090816, 5916090817, 5916090818, 5916090807], "tags": {"amenity": "cafe", "building": "yes"}}, {"type": "way", "id": 706814278, "nodes": [6641898150, 6641898151, 6641898152, 6641898153, 6641898150], "tags": {"amenity": "cafe", "building": "yes", "internet_access": "wlan", "internet_access:fee": "yes", "name": "Kitap Kafe", "outdoor_seating": "yes"}}, {"type": "way", "id": 749791638, "nodes": [3696201092, 3696201095, 3696201094, 3696201093, 3696201092], "tags": {"amenity": "restaurant", "name": "G\u00f6ksel Et Lokantas\u0131"}}, {"type": "way", "id": 1007535335, "nodes": [11205657471, 9295138765, 9295138766, 9295138767, 9295138768, 9295138769, 9295138770, 9295138771, 9295138772, 9295138773, 9295138774, 9295138775, 9295138776, 9295138777, 9295138778, 9295138779, 9295138780, 9295138781, 9295138782, 9295138783, 9295138784, 9295138785, 9295138786, 11205657471], "tags": {"amenity": "restaurant", "building": "yes", "cuisine": "turkish;kebab;k\u00f6fte", "historic": "aircraft", "name": "K\u00f6fte Airlines"}}, {"type": "way", "id": 1044981724, "nodes": [9615004067, 9615004068, 9615004069, 9615004070, 9615004071, 9615004072, 9615004073, 9615004067], "tags": {"amenity": "restaurant", "building": "yes", "building:levels": "1", "cuisine": "turkish", "name": "Ak\u00e7akaya K\u00f6fte & D\u00f6ner Salonu"}}, {"type": "way", "id": 1057569991, "nodes": [9717692758, 9717692759, 9717692760, 9717692761, 9717692758], "tags": {"amenity": "cafe", "building": "yes", "cuisine": "burger;coffee_shop;sandwich;pizza", "name": "Masal Kafe"}}, {"type": "way", "id": 1061678291, "nodes": [9754170476, 9754170477, 9754170478, 9754170479, 9754170476], "tags": {"amenity": "restaurant", "building": "yes", "cuisine": "turkish;kahvalt\u0131", "name": "Bizim Bah\u00e7e"}}, {"type": "way", "id": 1085706182, "nodes": [9948291628, 9948291629, 9948291630, 9948291631, 9948291628], "tags": {"addr:city": "Tekirda\u011f", "addr:district": "S\u00fcleymanpa\u015fa", "addr:housenumber": "2", "addr:neighbourhood": "Atat\u00fcrk", "addr:postcode": "59030", "addr:street": "\u00c7andarl\u0131zade \u0130brahim Pa\u015fa Caddesi", "alt_name": "Ata Tepe D\u00fc\u011f\u00fcn Salonlar\u0131", "amenity": "restaurant", "building": "yes", "building:levels": "2", "cuisine": "turkish", "name": "Ata Tepe Cafe & Restaurant", "phone": "+90 535 220 0659"}}, {"type": "way", "id": 1087453595, "nodes": [9963602190, 9963602191, 9963602192, 9963602193, 9963602190], "tags": {"amenity": "cafe", "building": "yes"}}, {"type": "way", "id": 1095047476, "nodes": [10028568150, 11621718580, 10028568148, 10028568149, 10028568150], "tags": {"amenity": "restaurant", "building": "yes", "cuisine": "turkish", "name": "\u00d6zcanlar K\u00f6fte Beyazk\u00f6y"}}, {"type": "way", "id": 1163746302, "nodes": [10822919465, 10822919466, 10822919467, 10822919468, 10822919465], "tags": {"addr:city": "Tekirda\u011f", "addr:district": "S\u00fcleymanpa\u015fa", "addr:housenumber": "5", "addr:neighbourhood": "Ortacami", "addr:postcode": "59030", "addr:street": "Kolordu Caddesi", "alt_name": "Abdi \u00d6zcan Tekirda\u011f K\u00f6ftecisi", "amenity": "restaurant", "building": "yes", "building:levels": "3", "cuisine": "turkish", "name": "Me\u015fhur K\u00f6fteci Abdi \u00d6zcan", "name:en": "Famous Meatball Restaurant Abdi \u00d6zcan", "start_date": "1961"}}, {"type": "way", "id": 1215814946, "nodes": [11264840716, 11264840717, 11264840718, 12718442244, 11264840719, 12718442243, 11264840716], "tags": {"addr:city": "Tekirda\u011f", "addr:district": "S\u00fcleymanpa\u015fa", "addr:housenumber": "7", "addr:neighbourhood": "Ortacami", "addr:postcode": "59030", "addr:street": "H\u00fck\u00fcmet Caddesi", "amenity": "cafe", "bar": "no", "branch": "Z\u00fcbeyde Han\u0131m Park\u0131", "building": "yes", "name": "Tekira\u011fa\u00e7 Cafe", "outdoor_seating": "yes"}}, {"type": "way", "id": 1252841452, "nodes": [11645401730, 11645401731, 11645401732, 11645401733, 11645401730], "tags": {"amenity": "cafe", "building": "yes", "cuisine": "burger;coffee_shop;sandwich;regional;ice_cream;turkish;pasta;dessert", "internet_access": "yes", "internet_access:fee": "no", "layer": "1", "name": "S\u00fcleymapa\u015fa Belediyesi Sosyal Tesisleri", "outdoor_seating": "yes"}}, {"type": "way", "id": 1252841477, "nodes": [11645435370, 11645435371, 11645435372, 11645435373, 11645435370], "tags": {"amenity": "cafe", "building": "yes", "cuisine": "burger;coffee_shop;sandwich;regional;ice_cream;turkish;pasta;dessert", "internet_access": "yes", "internet_access:fee": "no", "layer": "1", "name": "S\u00fcleymapa\u015fa Belediyesi Sosyal Tesisleri", "outdoor_seating": "yes"}}, {"type": "way", "id": 1263647330, "nodes": [11740456537, 11740456538, 11740456539, 11740456540, 11740456537], "tags": {"amenity": "cafe", "building": "yes"}}, {"type": "way", "id": 1303803661, "nodes": [12074461054, 12074461053, 12074461052, 12074461051, 12074461050, 12074461054], "tags": {"addr:country": "TR", "addr:province": "Tekirda\u011f", "addr:street": "Osman Tabak Caddesi", "amenity": "restaurant", "email": "info@balkirciftligi.com", "mobile": "+90 530 489 18 29", "name": "Balk\u0131r \u00c7iftli\u011fi Restaurant", "website": "https://www.balkirciftligi.com/"}}, {"type": "way", "id": 1334362839, "nodes": [12344840570, 12344840571, 12344840572, 12344840573, 12344840570], "tags": {"addr:city": "Tekirda\u011f", "addr:district": "S\u00fcleymanpa\u015fa", "addr:housenumber": "13", "addr:neighbourhood": "100. Y\u0131l", "addr:postcode": "59100", "addr:street": "\u015eehit Jandarma Halil Tuna Akg\u00f6z Sokak", "amenity": "cafe", "building": "yes", "building:levels": "1", "mobile": "+90 554 151 10 59", "name": "Kimyon Aile \u00c7ay Bah\u00e7esi", "opening_hours": "09:00\u201302:00", "outdoor_seating": "yes", "roof:shape": "flat"}}]}