{"version": 0.6, "generator": "Overpass API 0.7.62.7 375dc00a", "osm3s": {"timestamp_osm_base": "2025-06-14T14:58:44Z", "copyright": "The data included in this document is from www.openstreetmap.org. The data is made available under ODbL."}, "elements": [{"type": "node", "id": 299775112, "lat": 36.8407748, "lon": 28.7012064, "tags": {"amenity": "restaurant", "cuisine": "turkish", "name": "Ley Ley Restaurant"}}, {"type": "node", "id": 385393857, "lat": 36.713222, "lon": 28.7032504, "tags": {"amenity": "restaurant", "name": "Paradise"}}, {"type": "node", "id": 681569862, "lat": 36.8323591, "lon": 28.7783478, "tags": {"amenity": "restaurant", "cuisine": "turkish", "name": "Botanik Restaurant"}}, {"type": "node", "id": 886626336, "lat": 36.9377503, "lon": 28.8103184, "tags": {"amenity": "restaurant", "name": "\u00c7\u0131nar Restaurant"}}, {"type": "node", "id": 931756174, "lat": 36.7110052, "lon": 28.7020218, "tags": {"amenity": "restaurant", "name": "Sarigerme Restaurant"}}, {"type": "node", "id": 987755190, "lat": 36.8570221, "lon": 28.8288311, "tags": {"amenity": "restaurant"}}, {"type": "node", "id": 1314053753, "lat": 36.7477221, "lon": 28.925151, "tags": {"addr:housename": "Club Marina", "addr:postcode": "48310", "amenity": "restaurant", "cuisine": "international", "name": "G\u00f6cek Denizat\u0131 Restaurant & Bar", "website": "http://www.gocekdenizati.com/"}}, {"type": "node", "id": 1964687217, "lat": 36.7110019, "lon": 29.0791335, "tags": {"amenity": "restaurant", "name": "Enver Yal\u00e7\u0131n Y\u00f6r\u00fck M\u00fczesi Kahvalt\u0131"}}, {"type": "node", "id": 1965464746, "lat": 36.6823423, "lon": 29.074397, "tags": {"amenity": "restaurant"}}, {"type": "node", "id": 2491229398, "lat": 36.7480227, "lon": 28.9443028}, {"type": "node", "id": 2491229403, "lat": 36.7480623, "lon": 28.9443707}, {"type": "node", "id": 2491229404, "lat": 36.7480631, "lon": 28.944266}, {"type": "node", "id": 2491229409, "lat": 36.748087, "lon": 28.9445213}, {"type": "node", "id": 2491229410, "lat": 36.7481002, "lon": 28.9444762}, {"type": "node", "id": 2491229411, "lat": 36.7481028, "lon": 28.944334}, {"type": "node", "id": 2491229413, "lat": 36.7481123, "lon": 28.9444929}, {"type": "node", "id": 2491229414, "lat": 36.7481316, "lon": 28.944583}, {"type": "node", "id": 2491229415, "lat": 36.7481416, "lon": 28.9444297}, {"type": "node", "id": 2491229416, "lat": 36.7481502, "lon": 28.944562}, {"type": "node", "id": 2491229418, "lat": 36.7481643, "lon": 28.9445814}, {"type": "node", "id": 2491229419, "lat": 36.7482122, "lon": 28.9445275}, {"type": "node", "id": 2491229479, "lat": 36.7491817, "lon": 28.9448734}, {"type": "node", "id": 2491229480, "lat": 36.7492062, "lon": 28.9449622}, {"type": "node", "id": 2491229482, "lat": 36.7492294, "lon": 28.9448155}, {"type": "node", "id": 2491229483, "lat": 36.7492386, "lon": 28.944849}, {"type": "node", "id": 2491229488, "lat": 36.7493803, "lon": 28.9447508}, {"type": "node", "id": 2491229489, "lat": 36.7493864, "lon": 28.9447731}, {"type": "node", "id": 2491229492, "lat": 36.7494056, "lon": 28.9447649}, {"type": "node", "id": 2491229493, "lat": 36.7494077, "lon": 28.9448574}, {"type": "node", "id": 2491229494, "lat": 36.7494122, "lon": 28.9448738}, {"type": "node", "id": 2491229495, "lat": 36.7494286, "lon": 28.9448484}, {"type": "node", "id": 2974124932, "lat": 36.6835083, "lon": 29.0960016, "tags": {"addr:housename": "Defne Pansiyon", "amenity": "cafe", "cuisine": "turkish", "name": "Defne Pansiyon", "wifi": "free"}}, {"type": "node", "id": 3658056600, "lat": 36.7424332, "lon": 28.9616105, "tags": {"amenity": "restaurant"}}, {"type": "node", "id": 3904721166, "lat": 36.7522703, "lon": 28.9433486, "tags": {"addr:city": "Mu\u011fla", "addr:housenumber": "15", "addr:postcode": "48310", "addr:street": "Cumhuriyet Mah. D-Resort G\u00f6cek", "amenity": "restaurant", "name": "The Breeze"}}, {"type": "node", "id": 3905955207, "lat": 36.7525504, "lon": 28.9440098, "tags": {"addr:city": "Mu\u011fla", "addr:housenumber": "15", "addr:postcode": "48310", "addr:street": "Cumhuriyet Mah. D-Resort G\u00f6cek", "amenity": "restaurant", "cuisine": "japanese", "name": "Q Lounge"}}, {"type": "node", "id": 3957147179, "lat": 36.7542436, "lon": 28.9427328, "tags": {"amenity": "restaurant", "name": "Mercan Pizza"}}, {"type": "node", "id": 4323563993, "lat": 36.7581289, "lon": 29.0786244, "tags": {"amenity": "cafe", "name": "Ye\u015fil Vadi"}}, {"type": "node", "id": 4411621680, "lat": 36.7480459, "lon": 28.9442817}, {"type": "node", "id": 4526785481, "lat": 36.9662324, "lon": 28.7111654, "tags": {"amenity": "restaurant", "name": "Hadi Gari"}}, {"type": "node", "id": 4952478533, "lat": 36.9420923, "lon": 28.8098691, "tags": {"amenity": "restaurant", "cuisine": "turkish", "internet_access": "wlan", "name": "Yuvarlak\u00e7ay Defne Restaurant", "name:tr": "Yuvarlak\u00e7ay  Defne Restaurant", "website": "http://topgozudefnerestoran.com/"}}, {"type": "node", "id": 5091804922, "lat": 36.766043, "lon": 28.8017647, "tags": {"addr:housenumber": "4", "addr:street": "Alp sokak", "amenity": "cafe", "name": "Yelken Kafe"}}, {"type": "node", "id": 5091824721, "lat": 36.7661338, "lon": 28.801882, "tags": {"addr:street": "Alp Sokak", "amenity": "restaurant", "internet_access": "wlan", "name": "Shef Brasserie"}}, {"type": "node", "id": 5126058781, "lat": 36.7110019, "lon": 28.8937694}, {"type": "node", "id": 5126058782, "lat": 36.7109514, "lon": 28.89376}, {"type": "node", "id": 5126058783, "lat": 36.710946, "lon": 28.8937935}, {"type": "node", "id": 5126058784, "lat": 36.7109987, "lon": 28.8938043}, {"type": "node", "id": 5685099624, "lat": 36.7371825, "lon": 29.2286958, "tags": {"amenity": "restaurant", "name": "Ye\u015fil \u00dcz\u00fcml\u00fc", "name:en": "Aysu"}}, {"type": "node", "id": 6000110789, "lat": 36.8393092, "lon": 28.7643788, "tags": {"amenity": "restaurant", "name": "Beyo\u011flu"}}, {"type": "node", "id": 6006105285, "lat": 36.7550643, "lon": 28.9409843, "tags": {"amenity": "restaurant", "name": "Ege Mangal Evi"}}, {"type": "node", "id": 6006105286, "lat": 36.721505, "lon": 28.787551, "tags": {"amenity": "cafe", "cuisine": "turkish", "name": "Cafe Turka"}}, {"type": "node", "id": 6008295126, "lat": 36.8379978, "lon": 28.7645376, "tags": {"amenity": "restaurant", "name": "Saray D\u00f6nercisi"}}, {"type": "node", "id": 6064104685, "lat": 36.7386941, "lon": 29.2190353, "tags": {"amenity": "restaurant", "name": "Ay & Su"}}, {"type": "node", "id": 6768645985, "lat": 36.937803, "lon": 28.8097825, "tags": {"addr:city": "MU\u011eLA", "addr:district": "K\u00d6YCE\u011e\u0130Z", "addr:housenumber": "NO:148/A", "addr:neighbourhood": "PINAR MAHALLES\u0130", "addr:postcode": "48800", "addr:street": "AKYAKA SOKAK", "amenity": "restaurant", "cuisine": "regional;kebab", "name": "Yuvarlak\u00e7ay Ye\u015fil Vadi Restaurant", "opening_hours": "Mo-Su 09:00-21:00", "phone": "+90 542 667 29 62", "website": "yuvarlakcayyesilvadi.com"}}, {"type": "node", "id": 6796708885, "lat": 36.792176, "lon": 28.8085909, "tags": {"amenity": "restaurant", "name": "Dalaman A\u00e7\u0131k Cezaevi Restoran", "opening_hours": "Mo-Su 09:00-20:00", "short_name": "DAC Restoran"}}, {"type": "node", "id": 6807711985, "lat": 36.9125725, "lon": 28.7422527, "tags": {"amenity": "restaurant", "name": "Bey Restoran"}}, {"type": "node", "id": 6852414185, "lat": 36.860112, "lon": 28.8279128, "tags": {"amenity": "restaurant", "name:en": "Akkaya Garden Restaurant"}}, {"type": "node", "id": 7684445585, "lat": 36.6996653, "lon": 29.064804, "tags": {"amenity": "cafe", "name": "Avocado Garden Coffee", "opening_hours": "Mo-Fr 07:00-20:30; Sa-Su 07:00-21:30", "phone": "+90 507 593 73 90", "website": "https://www.instagram.com/avocadogardencoffee"}}, {"type": "node", "id": 7972584885, "lat": 36.7434687, "lon": 28.8099311, "tags": {"amenity": "cafe", "name": "Sidir park"}}, {"type": "node", "id": 9868796944, "lat": 36.7636719, "lon": 28.7999931, "tags": {"amenity": "cafe"}}, {"type": "node", "id": 9896922385, "lat": 36.7094384, "lon": 28.7243422}, {"type": "node", "id": 9896922386, "lat": 36.7097008, "lon": 28.724441}, {"type": "node", "id": 9896995847, "lat": 36.7069053, "lon": 28.7235005}, {"type": "node", "id": 9896995848, "lat": 36.7068434, "lon": 28.7237076}, {"type": "node", "id": 9896995849, "lat": 36.7072061, "lon": 28.7238762}, {"type": "node", "id": 9896995850, "lat": 36.707268, "lon": 28.723669}, {"type": "node", "id": 9897033322, "lat": 36.7085717, "lon": 28.725119}, {"type": "node", "id": 9897033323, "lat": 36.7084855, "lon": 28.7251238}, {"type": "node", "id": 9897033324, "lat": 36.7084964, "lon": 28.725426}, {"type": "node", "id": 9897033325, "lat": 36.7085826, "lon": 28.7254212}, {"type": "node", "id": 9897035015, "lat": 36.7094199, "lon": 28.7244134}, {"type": "node", "id": 9897035016, "lat": 36.7093867, "lon": 28.7244078}, {"type": "node", "id": 9897039467, "lat": 36.7072419, "lon": 28.7253038}, {"type": "node", "id": 9897039468, "lat": 36.7072482, "lon": 28.7254642}, {"type": "node", "id": 9897039469, "lat": 36.7072185, "lon": 28.7255924}, {"type": "node", "id": 9897039470, "lat": 36.7071488, "lon": 28.7257051}, {"type": "node", "id": 9897039471, "lat": 36.7071054, "lon": 28.7257452}, {"type": "node", "id": 9897039472, "lat": 36.7070814, "lon": 28.7256551}, {"type": "node", "id": 9897039473, "lat": 36.7070963, "lon": 28.7255154}, {"type": "node", "id": 9897039474, "lat": 36.7071471, "lon": 28.7253868}, {"type": "node", "id": 9897039475, "lat": 36.7071959, "lon": 28.7253265}, {"type": "node", "id": 9897039476, "lat": 36.7072415, "lon": 28.7253836}, {"type": "node", "id": 9897050517, "lat": 36.7093151, "lon": 28.7246244}, {"type": "node", "id": 9897050518, "lat": 36.7096036, "lon": 28.7247786}, {"type": "node", "id": 9897050519, "lat": 36.7096193, "lon": 28.7247304}, {"type": "node", "id": 9897050520, "lat": 36.7097026, "lon": 28.7247768}, {"type": "node", "id": 9897050521, "lat": 36.7097964, "lon": 28.7247238}, {"type": "node", "id": 10080314970, "lat": 36.7661526, "lon": 28.8055259, "tags": {"amenity": "restaurant", "name": "Corner Lounge", "opening_hours": "08:00-01:30", "outdoor_seating": "yes"}}, {"type": "node", "id": 10098442331, "lat": 36.7657827, "lon": 28.8079033, "tags": {"amenity": "restaurant", "cuisine": "turkish", "level": "0", "name": "Doner Kofte", "outdoor_seating": "yes", "takeaway": "yes", "wheelchair": "yes"}}, {"type": "node", "id": 10101838938, "lat": 36.7552806, "lon": 28.93863, "tags": {"amenity": "restaurant", "name": "T'he Wicker"}}, {"type": "node", "id": 10121172208, "lat": 36.7665265, "lon": 28.8019495, "tags": {"amenity": "restaurant", "cuisine": "turkish", "name": "Ye\u015fil Karadeniz", "outdoor_seating": "yes", "wheelchair": "limited"}}, {"type": "node", "id": 10121332865, "lat": 36.6809938, "lon": 29.0904723, "tags": {"amenity": "restaurant", "bar": "yes", "check_date": "2022-10-22", "cuisine": "international", "level": "0", "microbrewery": "no", "name": "Zirkon", "name:en": "Zirkon", "name:tr": "Zirkon", "outdoor_seating": "yes", "payment:mastercard": "yes", "payment:visa": "yes", "source": "survey", "wheelchair": "yes"}}, {"type": "node", "id": 10137498025, "lat": 36.7660075, "lon": 28.8066791, "tags": {"amenity": "restaurant", "cuisine": "turkish", "ele": "-19.896", "ele:barometric": "-19.896", "ele:ellipsoid": "56.085", "ele:source": "barometer", "internet_access": "wlan", "internet_access:fee": "no", "level": "1-2", "name": "Kraker", "outdoor_seating": "yes", "toilets": "yes"}}, {"type": "node", "id": 10138431774, "lat": 36.6810756, "lon": 29.0902789}, {"type": "node", "id": 10138431775, "lat": 36.681069, "lon": 29.0903522}, {"type": "node", "id": 10138431776, "lat": 36.6809866, "lon": 29.0903406}, {"type": "node", "id": 10138431777, "lat": 36.6809932, "lon": 29.0902673}, {"type": "node", "id": 10148948817, "lat": 36.7335418, "lon": 29.0604636, "tags": {"amenity": "cafe", "name": "Huzur Sofrasi"}}, {"type": "node", "id": 10157542227, "lat": 36.7677407, "lon": 28.8020165, "tags": {"amenity": "restaurant", "cuisine": "turkish", "ele": "-12.398", "ele:barometric": "-12.398", "ele:ellipsoid": "50.155", "ele:source": "barometer", "name": "Kahve Soka\u011f\u0131"}}, {"type": "node", "id": 10159580270, "lat": 36.7674335, "lon": 28.8009478, "tags": {"amenity": "restaurant", "cuisine": "turkish", "ele": "-21.297", "ele:barometric": "-21.297", "ele:ellipsoid": "87.561", "ele:source": "barometer", "name": "Park Sofra Kebap Evi", "outdoor_seating": "yes"}}, {"type": "node", "id": 10597179191, "lat": 36.7648072, "lon": 28.9130093, "tags": {"amenity": "cafe"}}, {"type": "node", "id": 10597287406, "lat": 36.6991604, "lon": 29.0752761, "tags": {"addr:street": "Karg\u0131", "amenity": "cafe", "cuisine": "turkish", "name:en": "Papatya cafe"}}, {"type": "node", "id": 10747722899, "lat": 36.7374118, "lon": 29.226449}, {"type": "node", "id": 10747722900, "lat": 36.7372687, "lon": 29.2264977}, {"type": "node", "id": 10747722901, "lat": 36.737296, "lon": 29.2266224}, {"type": "node", "id": 10747722902, "lat": 36.737439, "lon": 29.2265737}, {"type": "node", "id": 10765801064, "lat": 36.6996466, "lon": 29.0647812}, {"type": "node", "id": 10765801065, "lat": 36.6996402, "lon": 29.0648138}, {"type": "node", "id": 10765801066, "lat": 36.6996855, "lon": 29.0648277}, {"type": "node", "id": 10765801067, "lat": 36.6996772, "lon": 29.0648697}, {"type": "node", "id": 10765801068, "lat": 36.699716, "lon": 29.0648816}, {"type": "node", "id": 10765801069, "lat": 36.699724, "lon": 29.0648408}, {"type": "node", "id": 10765801071, "lat": 36.6996903, "lon": 29.0647946}, {"type": "node", "id": 10766813310, "lat": 36.8378014, "lon": 28.7669927}, {"type": "node", "id": 10766813313, "lat": 36.8413452, "lon": 28.7611075}, {"type": "node", "id": 10766962642, "lat": 36.7528433, "lon": 28.9424252, "tags": {"amenity": "cafe", "contact:instagram": "gocekhalkevi", "name": "G\u00f6cek Halk Evi Cafe", "outdoor_seating": "yes"}}, {"type": "node", "id": 10768058878, "lat": 36.6996838, "lon": 29.0648272}, {"type": "node", "id": 10779850789, "lat": 36.843448, "lon": 28.7686768, "tags": {"amenity": "cafe", "name": "Kahve Deryas\u0131"}}, {"type": "node", "id": 10794757229, "lat": 36.8394753, "lon": 28.7657167}, {"type": "node", "id": 10794757230, "lat": 36.8396224, "lon": 28.7656844}, {"type": "node", "id": 10794757231, "lat": 36.8396002, "lon": 28.7655272}, {"type": "node", "id": 10794757232, "lat": 36.8394532, "lon": 28.7655597}, {"type": "node", "id": 10799149718, "lat": 36.916146, "lon": 29.0382491, "tags": {"amenity": "restaurant", "name": "Teras Cafe"}}, {"type": "node", "id": 10826310084, "lat": 36.8401018, "lon": 28.7654401, "tags": {"amenity": "cafe", "name": "Bayramefendi Osmanl\u0131 Kahvecisi"}}, {"type": "node", "id": 10826310085, "lat": 36.8401226, "lon": 28.7663106, "tags": {"amenity": "cafe", "name": "Coffee Zemata"}}, {"type": "node", "id": 10826310086, "lat": 36.8396262, "lon": 28.7665568, "tags": {"amenity": "cafe", "name": "CoffeeMania"}}, {"type": "node", "id": 10826310087, "lat": 36.8384534, "lon": 28.7659854, "tags": {"amenity": "cafe", "name": "Pier Gusto"}}, {"type": "node", "id": 10911672544, "lat": 36.841574, "lon": 28.7612839}, {"type": "node", "id": 10911672545, "lat": 36.8417482, "lon": 28.7609311}, {"type": "node", "id": 10911672546, "lat": 36.8415194, "lon": 28.7607547}, {"type": "node", "id": 10916574309, "lat": 36.7133628, "lon": 28.703355, "tags": {"amenity": "restaurant", "cuisine": "steak_house", "name": "Joker Steak House"}}, {"type": "node", "id": 10926616754, "lat": 36.8363921, "lon": 28.7660871, "tags": {"amenity": "cafe", "name": "Corner Coffee"}}, {"type": "node", "id": 10926616760, "lat": 36.8374704, "lon": 28.7617701, "tags": {"amenity": "cafe", "cuisine": "pizza;breakfast;fast_food;cafe", "delivery": "yes", "name": "Cafe Pizza Bro", "outdoor_seating": "yes", "phone": "+90 0252 2825050"}}, {"type": "node", "id": 10933851529, "lat": 36.842284, "lon": 28.7621896}, {"type": "node", "id": 10933851530, "lat": 36.8427276, "lon": 28.7625248}, {"type": "node", "id": 10933851531, "lat": 36.8429178, "lon": 28.7623406}, {"type": "node", "id": 10933851532, "lat": 36.8425641, "lon": 28.7620277}, {"type": "node", "id": 10939853260, "lat": 36.8398214, "lon": 28.7634759, "tags": {"amenity": "restaurant", "name": "Metin Pide Pizza"}}, {"type": "node", "id": 10939853262, "lat": 36.8395912, "lon": 28.7639205, "tags": {"amenity": "restaurant", "name": "Pamukkale Restoran"}}, {"type": "node", "id": 10944590787, "lat": 36.8368791, "lon": 28.7687579, "tags": {"amenity": "restaurant", "name": "Ala Restoran"}}, {"type": "node", "id": 10959452660, "lat": 36.9072633, "lon": 28.7416063, "tags": {"amenity": "restaurant", "name": "Uysallar Restoran"}}, {"type": "node", "id": 10959452661, "lat": 36.9106039, "lon": 28.7421094, "tags": {"amenity": "restaurant", "name": "Salih Day\u0131n\u0131n Yeri"}}, {"type": "node", "id": 10961734096, "lat": 36.8423535, "lon": 28.7620516}, {"type": "node", "id": 10961734097, "lat": 36.8424967, "lon": 28.7621619}, {"type": "node", "id": 10961795014, "lat": 36.8378782, "lon": 28.7670593}, {"type": "node", "id": 10961795015, "lat": 36.837741, "lon": 28.7673064}, {"type": "node", "id": 10961795016, "lat": 36.8376642, "lon": 28.7672398}, {"type": "node", "id": 10965771076, "lat": 36.8450403, "lon": 28.7677772, "tags": {"amenity": "cafe", "name": "Papatyam Kafe"}}, {"type": "node", "id": 10968750480, "lat": 36.843525, "lon": 28.7555355, "tags": {"amenity": "restaurant", "name": "Yi\u011fit Pide"}}, {"type": "node", "id": 10976531460, "lat": 36.831857, "lon": 28.7760539}, {"type": "node", "id": 10976531461, "lat": 36.8320296, "lon": 28.776209}, {"type": "node", "id": 10976531462, "lat": 36.8320937, "lon": 28.7760976}, {"type": "node", "id": 10976531463, "lat": 36.8319211, "lon": 28.7759425}, {"type": "node", "id": 10980527159, "lat": 36.8390068, "lon": 28.7645173, "tags": {"amenity": "restaurant", "name": "Pe\u015fgun Ev Yemekleri"}}, {"type": "node", "id": 11006014839, "lat": 36.7495814, "lon": 28.7343577, "tags": {"amenity": "restaurant", "name": "Otantik Ta\u015f Ev Restoran"}}, {"type": "node", "id": 11009577925, "lat": 36.8404987, "lon": 28.7660511, "tags": {"amenity": "cafe", "name": "Brewmood Coffee&Tea"}}, {"type": "node", "id": 11009615022, "lat": 36.7855501, "lon": 28.8345308, "tags": {"amenity": "restaurant", "name": "Do\u011fa Restoran"}}, {"type": "node", "id": 11009621797, "lat": 36.7553686, "lon": 28.9389352, "tags": {"amenity": "restaurant", "name": "G\u00fcverte Restoran"}}, {"type": "node", "id": 11009621798, "lat": 36.7551955, "lon": 28.9393959, "tags": {"amenity": "cafe", "brand": "Kahve D\u00fcnyas\u0131", "brand:wikidata": "Q28008050", "cuisine": "coffee_shop", "name": "Kahve D\u00fcnyas\u0131", "takeaway": "yes"}}, {"type": "node", "id": 11009621799, "lat": 36.755134, "lon": 28.9395736, "tags": {"amenity": "cafe", "brand": "Gloria Jean's", "brand:wikidata": "Q2666365", "cuisine": "coffee_shop", "name": "Gloria Jean's", "official_name": "Gloria Jean's Coffees", "takeaway": "yes"}}, {"type": "node", "id": 11009621800, "lat": 36.754957, "lon": 28.9399016, "tags": {"amenity": "restaurant", "name": "West Fish&Food"}}, {"type": "node", "id": 11009621802, "lat": 36.7546827, "lon": 28.940356, "tags": {"amenity": "restaurant", "name": "Kebab Hospital"}}, {"type": "node", "id": 11009621803, "lat": 36.7546177, "lon": 28.940503, "tags": {"amenity": "restaurant", "name": "Drunken Bee"}}, {"type": "node", "id": 11009646706, "lat": 36.7544178, "lon": 28.9410599, "tags": {"amenity": "restaurant", "name": "Blues"}}, {"type": "node", "id": 11009646707, "lat": 36.7543341, "lon": 28.9412862, "tags": {"amenity": "restaurant", "name": "West Cafe & Bistro"}}, {"type": "node", "id": 11009646708, "lat": 36.7540243, "lon": 28.9416285, "tags": {"amenity": "restaurant", "name": "\u00d6zcan Restoran"}}, {"type": "node", "id": 11009646709, "lat": 36.7539619, "lon": 28.9417083, "tags": {"amenity": "cafe", "name": "Fabl Cafe"}}, {"type": "node", "id": 11009646714, "lat": 36.752814, "lon": 28.9420138, "tags": {"amenity": "cafe", "name": "Moc Coffee Roastery"}}, {"type": "node", "id": 11009646715, "lat": 36.7528639, "lon": 28.9425881, "tags": {"amenity": "restaurant", "name": "Et\u00e7i Baba"}}, {"type": "node", "id": 11009646718, "lat": 36.7538283, "lon": 28.9422792, "tags": {"amenity": "restaurant", "cuisine": "steak_house", "name": "Caesar Et"}}, {"type": "node", "id": 11011908861, "lat": 36.6920565, "lon": 29.0683121, "tags": {"amenity": "cafe", "name": "TAB\u0130AT ANA KAHVALTI BAH\u00c7ES\u0130"}}, {"type": "node", "id": 11012330941, "lat": 36.7147281, "lon": 29.0216906, "tags": {"amenity": "cafe"}}, {"type": "node", "id": 11025947560, "lat": 36.7988354, "lon": 28.8187647, "tags": {"amenity": "restaurant", "name": "Yosun Restaurant"}}, {"type": "node", "id": 11025947562, "lat": 36.7863891, "lon": 28.8350207, "tags": {"amenity": "restaurant", "name": "Kaptan'\u0131n Yeri"}}, {"type": "node", "id": 11025947564, "lat": 36.7398167, "lon": 28.982436, "tags": {"amenity": "restaurant", "name": "Y\u00f6r\u00fck K\u0131z\u0131 Restaurant"}}, {"type": "node", "id": 11034274489, "lat": 36.820916, "lon": 28.7948183, "tags": {"amenity": "restaurant", "cuisine": "turkish", "name": "L Chefs"}}, {"type": "node", "id": 11034274501, "lat": 36.7845857, "lon": 28.8055027, "tags": {"amenity": "restaurant", "cuisine": "pizza", "name": "Pasaport Pizza", "phone": "+90 0541 1654800", "website": "https://www.pasaportpizza.com/"}}, {"type": "node", "id": 11034275622, "lat": 36.7605745, "lon": 28.8005745, "tags": {"amenity": "restaurant", "name": "Yudum Yi\u011fit Restaurant"}}, {"type": "node", "id": 11034412992, "lat": 36.7228992, "lon": 28.7876139, "tags": {"amenity": "cafe"}}, {"type": "node", "id": 11035458683, "lat": 36.842036, "lon": 28.7530832, "tags": {"amenity": "cafe", "name": "Polat Cafe"}}, {"type": "node", "id": 11037520294, "lat": 36.8393504, "lon": 28.764023, "tags": {"amenity": "restaurant", "cuisine": "pizza", "delivery": "yes", "name": "Puzzle Pizza&Chicken", "opening_hours": "Mo-Su 11:00-22:00", "phone": "+90 0252 2828800"}}, {"type": "node", "id": 11037520295, "lat": 36.8392666, "lon": 28.7639429, "tags": {"amenity": "cafe", "name": "Reyhan Kafe"}}, {"type": "node", "id": 11076403442, "lat": 36.9124086, "lon": 28.7962658, "tags": {"amenity": "restaurant", "name": "Yuvarlak\u00e7ay Bilen Restaurant"}}, {"type": "node", "id": 11076403443, "lat": 36.9139654, "lon": 28.7976327, "tags": {"amenity": "restaurant", "name": "Sal\u0131ncak Restaurant"}}, {"type": "node", "id": 11076403445, "lat": 36.9164352, "lon": 28.7973488, "tags": {"amenity": "restaurant", "name": "\u015eelale Restaurant"}}, {"type": "node", "id": 11076403446, "lat": 36.9232538, "lon": 28.802297, "tags": {"amenity": "restaurant", "name": "Do\u011fa Restaurant"}}, {"type": "node", "id": 11076403447, "lat": 36.9224395, "lon": 28.801287, "tags": {"amenity": "restaurant", "name": "Akarsu Restaurant"}}, {"type": "node", "id": 11076403504, "lat": 36.9354737, "lon": 28.8091686, "tags": {"amenity": "restaurant", "name": "Su Sesi Restaurant"}}, {"type": "node", "id": 11076415493, "lat": 36.9098097, "lon": 28.765684, "tags": {"amenity": "cafe", "name": "Akasya Cafe"}}, {"type": "node", "id": 11076439705, "lat": 36.938604, "lon": 28.810606, "tags": {"amenity": "restaurant", "name": "P\u0131nar Restaurant"}}, {"type": "node", "id": 11076439710, "lat": 36.9452628, "lon": 28.808156}, {"type": "node", "id": 11076439711, "lat": 36.94541, "lon": 28.8083745}, {"type": "node", "id": 11076439712, "lat": 36.9454957, "lon": 28.8082841}, {"type": "node", "id": 11076439713, "lat": 36.9453486, "lon": 28.8080655}, {"type": "node", "id": 11076448627, "lat": 36.9654056, "lon": 28.715755, "tags": {"amenity": "restaurant", "cuisine": "kebab", "name": "Urfa Sofras\u0131"}}, {"type": "node", "id": 11076458960, "lat": 36.8413754, "lon": 28.7610468}, {"type": "node", "id": 11076458963, "lat": 36.8414067, "lon": 28.7609824}, {"type": "node", "id": 11076458966, "lat": 36.8416957, "lon": 28.7608906}, {"type": "node", "id": 11076458967, "lat": 36.8416127, "lon": 28.7608266}, {"type": "node", "id": 11113370639, "lat": 36.8378441, "lon": 28.7647818, "tags": {"amenity": "restaurant", "name": "Lezzet Lokantas\u0131"}}, {"type": "node", "id": 11118840481, "lat": 36.837753, "lon": 28.76301, "tags": {"amenity": "restaurant", "cuisine": "soup", "name": "Rumeli \u0130\u015fkembecisi"}}, {"type": "node", "id": 11127301304, "lat": 36.8400556, "lon": 28.7614659, "tags": {"amenity": "cafe", "name": "Hay\u0131t Kitap Cafe"}}, {"type": "node", "id": 11127319922, "lat": 36.8364284, "lon": 28.7634951, "tags": {"amenity": "cafe", "name": "Tad\u0131m Cafe"}}, {"type": "node", "id": 11127319936, "lat": 36.8365868, "lon": 28.7674687, "tags": {"amenity": "cafe", "name": "Scarlet"}}, {"type": "node", "id": 11135956801, "lat": 36.835393, "lon": 28.764591, "tags": {"amenity": "restaurant", "cuisine": "seafood", "name": "Baysallar Et&Bal\u0131k"}}, {"type": "node", "id": 11135956802, "lat": 36.8354454, "lon": 28.7644162, "tags": {"amenity": "restaurant", "cuisine": "seafood", "name": "Eni\u015fte Bal\u0131k&Restoran", "shop": "seafood"}}, {"type": "node", "id": 11136352226, "lat": 36.754933, "lon": 28.9402941, "tags": {"addr:city": "Mu\u011fla", "addr:district": "Fethiye", "addr:housenumber": "57", "addr:neighbourhood": "G\u00f6cek Mah.", "addr:postcode": "48310", "addr:street": "\u00c7ar\u015f\u0131 Yolu Cad.", "amenity": "restaurant", "bar": "yes", "brand": "Alaturka", "capacity": "250", "contact:facebook": "https://www.facebook.com/gocekalaturka", "cuisine": "turkish;steak_house;kebab;fish;salad", "delivery": "no", "diet:halal": "yes", "diet:vegetarian": "yes", "email": "info@gocekalaturka.com", "internet_access": "wlan", "level": "0", "mobile": "+90 541 2823580", "name": "G\u00f6cek Alaturka Cafe & Restaurant", "opening_hours": "Mo-Su 08:00-24:00", "outdoor_seating": "yes", "payment:american_express": "yes", "payment:cash": "yes", "payment:credit_cards": "yes", "payment:mastercard": "yes", "payment:visa": "yes", "phone": "+905412823582", "ref:vatin": "3810869429", "reservation": "recommended", "smoking": "outside", "toilets": "yes", "website": "https://www.gocekalaturka.com", "website:menu": "https://www.gocekalaturka.com/qr-menu.html"}}, {"type": "node", "id": 11140292603, "lat": 36.843494, "lon": 28.7556398, "tags": {"amenity": "cafe", "name": "Bob Cafe"}}, {"type": "node", "id": 11140305005, "lat": 36.8443498, "lon": 28.7546447, "tags": {"amenity": "restaurant", "name": "Meydan Lokantas\u0131"}}, {"type": "node", "id": 11155328297, "lat": 36.8404619, "lon": 28.7656521, "tags": {"amenity": "cafe", "name": "Kahve Soka\u011f\u0131"}}, {"type": "node", "id": 11155346706, "lat": 36.836597, "lon": 28.7657394, "tags": {"amenity": "restaurant", "cuisine": "turkish", "name": "T\u00fcrkmen Sofras\u0131"}}, {"type": "node", "id": 11180552481, "lat": 36.8375707, "lon": 28.7660106, "tags": {"amenity": "restaurant", "cuisine": "turkish", "name": "Mahmut Ustan\u0131n Yeri"}}, {"type": "node", "id": 11205067055, "lat": 36.8417989, "lon": 28.7028506, "tags": {"amenity": "restaurant", "name": "Mavi Ye\u015fil Restaurant"}}, {"type": "node", "id": 11209738648, "lat": 36.7573829, "lon": 28.9361815, "tags": {"amenity": "restaurant", "name": "Damak Et Lokantas\u0131"}}, {"type": "node", "id": 11209738651, "lat": 36.7565122, "lon": 28.9378917, "tags": {"amenity": "cafe", "name": "Qavanoz Cafe"}}, {"type": "node", "id": 11209738656, "lat": 36.7552944, "lon": 28.9390912, "tags": {"amenity": "restaurant", "name": "Can Restaurant"}}, {"type": "node", "id": 11209738666, "lat": 36.7542815, "lon": 28.9416281, "tags": {"amenity": "cafe", "name": "Marina Cafe"}}, {"type": "node", "id": 11209738669, "lat": 36.7539983, "lon": 28.9425861, "tags": {"amenity": "cafe", "name": "Papyon Cafe"}}, {"type": "node", "id": 11209738671, "lat": 36.7548165, "lon": 28.9433041, "tags": {"amenity": "restaurant", "name": "Palmiye Restaurant"}}, {"type": "node", "id": 11209738683, "lat": 36.7534079, "lon": 28.9425787, "tags": {"amenity": "cafe", "name": "Saliha Sultan"}}, {"type": "node", "id": 11209739837, "lat": 36.7538823, "lon": 28.9417821, "tags": {"amenity": "cafe", "name": "Dergah Cafe"}}, {"type": "node", "id": 11217588907, "lat": 36.7101719, "lon": 28.7020211, "tags": {"amenity": "restaurant", "name": "K\u00f6\u015fem Restaurant"}}, {"type": "node", "id": 11217588908, "lat": 36.7097256, "lon": 28.6998429, "tags": {"amenity": "restaurant", "name": "Dorya Restaurant"}}, {"type": "node", "id": 11217588914, "lat": 36.710559, "lon": 28.7023997, "tags": {"amenity": "restaurant", "name": "New Gate Restaurant"}}, {"type": "node", "id": 11217588917, "lat": 36.7106572, "lon": 28.7027407, "tags": {"amenity": "restaurant", "cuisine": "chinese", "name": "Wok Chinese Restaurant"}}, {"type": "node", "id": 11217588935, "lat": 36.7114077, "lon": 28.7024813, "tags": {"amenity": "restaurant", "name": "Dolphin Restaurant"}}, {"type": "node", "id": 11217595937, "lat": 36.7114988, "lon": 28.7023591, "tags": {"amenity": "restaurant", "cuisine": "steak_house", "name": "Cocktail Steak House"}}, {"type": "node", "id": 11217595991, "lat": 36.7136727, "lon": 28.7033272, "tags": {"amenity": "restaurant", "cuisine": "regional;turkish", "name": "Hasret'in Mutfa\u011f\u0131"}}, {"type": "node", "id": 11217596006, "lat": 36.7117456, "lon": 28.7031172, "tags": {"amenity": "restaurant", "cuisine": "seafood", "name": "Ocean Oz Restaurant"}}, {"type": "node", "id": 11217693835, "lat": 36.6915207, "lon": 29.0908243, "tags": {"amenity": "restaurant", "cuisine": "turkish;pide", "name": "\u00c7i\u0307ftli\u0307k Pi\u0307de", "phone": "+905346876530", "shelter": "no"}}, {"type": "node", "id": 11222381783, "lat": 36.7592564, "lon": 28.8031463, "tags": {"amenity": "cafe", "name": "K\u00fc\u00e7\u00fck Ev", "website": "https://facebook.com/kucukevpark"}}, {"type": "node", "id": 11245499172, "lat": 36.7216481, "lon": 28.7880222, "tags": {"amenity": "cafe", "check_date": "2023-10-07", "cuisine": "international", "level": "1", "name": "Simit sarayi", "name:tr": "Simit sarayi", "outdoor_seating": "no", "payment:mastercard": "yes", "payment:visa": "yes"}}, {"type": "node", "id": 11262431644, "lat": 36.727062, "lon": 28.8122138, "tags": {"amenity": "cafe", "check_date": "2023-10-14"}}, {"type": "node", "id": 11271629154, "lat": 36.9064195, "lon": 28.7408091, "tags": {"amenity": "restaurant", "name": "K\u00f6pr\u00fcba\u015f\u0131 Restaurant"}}, {"type": "node", "id": 11281010925, "lat": 36.8410716, "lon": 28.7617377, "tags": {"amenity": "cafe", "name": "M\u00f6bius", "outdoor_seating": "yes"}}, {"type": "node", "id": 11293284548, "lat": 36.8390586, "lon": 28.7671164, "tags": {"amenity": "cafe", "name": "BirTat Simit"}}, {"type": "node", "id": 11332655581, "lat": 36.8401308, "lon": 28.7715349, "tags": {"amenity": "restaurant", "cuisine": "turkish;kebab", "name": "Hanc\u0131 Et Mangal"}}, {"type": "node", "id": 11332658503, "lat": 36.9087556, "lon": 28.7708623, "tags": {"amenity": "cafe", "name": "Musti Kafe"}}, {"type": "node", "id": 11332705014, "lat": 36.7562128, "lon": 28.9327708, "tags": {"amenity": "restaurant", "name": "People's"}}, {"type": "node", "id": 11332705015, "lat": 36.7555912, "lon": 28.9383723, "tags": {"amenity": "restaurant", "name": "Dim Elit Restaurant"}}, {"type": "node", "id": 11332705016, "lat": 36.7530257, "lon": 28.9418125, "tags": {"amenity": "restaurant", "name": "Lotis Cafe Restaurant"}}, {"type": "node", "id": 11399877174, "lat": 36.842316, "lon": 28.7591652, "tags": {"amenity": "restaurant", "cuisine": "breakfast;turkish", "name": "Limon's"}}, {"type": "node", "id": 11399877175, "lat": 36.8370179, "lon": 28.7666416, "tags": {"amenity": "restaurant", "cuisine": "pizza", "name": "Chicago Pizza"}}, {"type": "node", "id": 11435103384, "lat": 36.8394097, "lon": 28.7578741, "tags": {"amenity": "cafe"}}, {"type": "node", "id": 11465728939, "lat": 36.8351741, "lon": 28.7660987, "tags": {"amenity": "cafe", "name": "Cafe Karamel"}}, {"type": "node", "id": 11472387880, "lat": 36.8110614, "lon": 28.8123711, "tags": {"amenity": "restaurant", "cuisine": "kebab;turkish", "name": "Torun Metin"}}, {"type": "node", "id": 11494487100, "lat": 36.8405501, "lon": 28.762786, "tags": {"amenity": "cafe", "brand": "Starbucks", "brand:wikidata": "Q37158", "cuisine": "coffee_shop", "name": "Starbucks", "official_name": "Starbucks Coffee", "takeaway": "yes"}}, {"type": "node", "id": 11513816386, "lat": 36.840186, "lon": 28.7713599, "tags": {"amenity": "cafe", "cuisine": "coffee_shop", "name": "Goodeer Coffee"}}, {"type": "node", "id": 11521355277, "lat": 36.7918258, "lon": 28.8088865, "tags": {"amenity": "cafe", "name": "Dalaman A\u00e7\u0131k Cezaevi Cafe", "opening_hours": "Mo-Su 09:00-20:00", "short_name": "DAC Cafe"}}, {"type": "node", "id": 11530140512, "lat": 36.8402898, "lon": 28.7659615, "tags": {"amenity": "cafe", "name": "Public"}}, {"type": "node", "id": 11563437703, "lat": 36.7315938, "lon": 28.9677411, "tags": {"amenity": "cafe"}}, {"type": "node", "id": 11862650508, "lat": 36.8433662, "lon": 28.7557548, "tags": {"amenity": "cafe", "name": "L' Cafeina"}}, {"type": "node", "id": 12086952109, "lat": 36.840713, "lon": 28.7670315, "tags": {"amenity": "cafe", "name": "La Bella"}}, {"type": "node", "id": 12086952110, "lat": 36.8399216, "lon": 28.766182, "tags": {"amenity": "restaurant", "name": "Begonvil Ev Yemekleri"}}, {"type": "node", "id": 12086952124, "lat": 36.839997, "lon": 28.7630514, "tags": {"amenity": "restaurant", "cuisine": "turkish;kebab;chicken;dessert", "name": "People's"}}, {"type": "node", "id": 12246159026, "lat": 36.7145431, "lon": 28.7042199, "tags": {"amenity": "cafe", "name": "Ol"}}, {"type": "node", "id": 12349488035, "lat": 36.7648616, "lon": 28.8070244, "tags": {"amenity": "restaurant", "name": "Karde\u015fler Pizza Salonu"}}, {"type": "node", "id": 12726850019, "lat": 36.7086433, "lon": 29.0328565}, {"type": "node", "id": 12726850020, "lat": 36.7085819, "lon": 29.0328547}, {"type": "node", "id": 12726850021, "lat": 36.7085793, "lon": 29.0329852}, {"type": "node", "id": 12726850022, "lat": 36.7086408, "lon": 29.0329871}, {"type": "node", "id": 12799646015, "lat": 36.6931791, "lon": 29.0405415}, {"type": "node", "id": 12799646016, "lat": 36.6932015, "lon": 29.0406096}, {"type": "node", "id": 12799646017, "lat": 36.6933211, "lon": 29.0405484}, {"type": "node", "id": 12799646018, "lat": 36.6932987, "lon": 29.0404803}, {"type": "node", "id": 12880545664, "lat": 36.7084042, "lon": 28.6966637, "tags": {"amenity": "restaurant", "cuisine": "barbecue", "name": "Flintstones Barbecue House"}}, {"type": "way", "id": 241505928, "nodes": [2491229492, 2491229489, 2491229488, 2491229482, 2491229483, 2491229479, 2491229480, 2491229494, 2491229493, 2491229495, 2491229492], "tags": {"amenity": "restaurant", "building": "house", "cuisine": "meat", "name": "G\u00fcnaydin Restaurant"}}, {"type": "way", "id": 241505946, "nodes": [2491229411, 2491229403, 2491229398, 4411621680, 2491229404, 2491229411], "tags": {"amenity": "restaurant", "building": "yes"}}, {"type": "way", "id": 241505961, "nodes": [2491229414, 2491229409, 2491229413, 2491229410, 2491229415, 2491229419, 2491229418, 2491229416, 2491229414], "tags": {"amenity": "restaurant", "building": "yes"}}, {"type": "way", "id": 527229544, "nodes": [5126058784, 5126058783, 5126058782, 5126058781, 5126058784], "tags": {"amenity": "restaurant", "cuisine": "turkish", "toilets": "yes"}}, {"type": "way", "id": 1079712504, "nodes": [9897033322, 9897033323, 9897033324, 9897033325, 9897033322], "tags": {"amenity": "restaurant", "building": "yes", "name": "A'la Turca"}}, {"type": "way", "id": 1079714814, "nodes": [9896922385, 9897035015, 9897035016, 9897050517, 9897050518, 9897050519, 9897050520, 9897050521, 9896922386, 9896922385], "tags": {"amenity": "restaurant", "building": "yes", "name": "Sarigerme Restaurant"}}, {"type": "way", "id": 1079716002, "nodes": [9897039467, 9897039476, 9897039468, 9897039469, 9897039470, 9897039471, 9897039472, 9897039473, 9897039474, 9897039475, 9897039467], "tags": {"amenity": "restaurant", "building": "yes", "name": "Vela Riverside Seafood Restaurant"}}, {"type": "way", "id": 1079716754, "nodes": [9896995847, 9896995848, 9896995849, 9896995850, 9896995847], "tags": {"amenity": "restaurant", "building": "yes", "name": "Vento Bistro & Bar"}}, {"type": "way", "id": 1108039165, "nodes": [10138431774, 10138431775, 10138431776, 10138431777, 10138431774], "tags": {"amenity": "restaurant", "building": "yes"}}, {"type": "way", "id": 1155706282, "nodes": [10747722899, 10747722900, 10747722901, 10747722902, 10747722899], "tags": {"amenity": "restaurant", "bar": "yes", "building": "yes", "name": "Alya"}}, {"type": "way", "id": 1157642689, "nodes": [10765801066, 10765801067, 10765801068, 10765801069, 10765801066], "tags": {"amenity": "cafe", "building": "yes"}}, {"type": "way", "id": 1157864992, "nodes": [10768058878, 10765801071, 10765801064, 10765801065, 10768058878], "tags": {"amenity": "cafe", "building": "yes"}}, {"type": "way", "id": 1160627151, "nodes": [10794757229, 10794757230, 10794757231, 10794757232, 10794757229], "tags": {"addr:housenumber": "60", "amenity": "cafe", "building": "yes", "name": "K\u00fclt\u00fcr Park Kafe", "source": "microsoft/BuildingFootprints"}}, {"type": "way", "id": 1174317163, "nodes": [10766813313, 10911672544, 10911672545, 11076458966, 11076458967, 10911672546, 11076458963, 11076458960, 10766813313], "tags": {"addr:housenumber": "69", "amenity": "restaurant", "bar": "yes", "name": "Tayfa Restaurant Cafe Bar", "outdoor_seating": "yes"}}, {"type": "way", "id": 1176896828, "nodes": [10933851529, 10933851530, 10933851531, 10933851532, 10961734097, 10961734096, 10933851529], "tags": {"addr:housenumber": "71", "amenity": "cafe", "name": "Su Kafe", "outdoor_seating": "yes"}}, {"type": "way", "id": 1180239217, "nodes": [10766813310, 10961795014, 10961795015, 10961795016, 10766813310], "tags": {"amenity": "restaurant", "building": "yes", "cuisine": "turkish", "delivery": "yes", "name": "Ziyafet Yemek ve Pide Salonu", "outdoor_seating": "yes", "phone": "+90 0252 2826565"}}, {"type": "way", "id": 1181989785, "nodes": [10976531460, 10976531461, 10976531462, 10976531463, 10976531460], "tags": {"amenity": "cafe", "building": "yes", "name": "Kafe Canlar", "outdoor_seating": "yes"}}, {"type": "way", "id": 1193275773, "nodes": [11076439710, 11076439711, 11076439712, 11076439713, 11076439710], "tags": {"amenity": "cafe", "building": "yes", "name": "K\u00f6yce\u011fiz Belediyesi Yuvarlak\u00e7ay Tesisi", "operator": "K\u00f6yce\u011fiz Belediyesi", "outdoor_seating": "yes"}}, {"type": "way", "id": 1374524280, "nodes": [12726850019, 12726850020, 12726850021, 12726850022, 12726850019], "tags": {"amenity": "cafe", "building": "yes"}}, {"type": "way", "id": 1382481545, "nodes": [12799646015, 12799646016, 12799646017, 12799646018, 12799646015], "tags": {"amenity": "cafe", "building": "yes"}}]}