{"version": 0.6, "generator": "Overpass API 0.7.62.7 375dc00a", "osm3s": {"timestamp_osm_base": "2025-06-14T13:18:00Z", "copyright": "The data included in this document is from www.openstreetmap.org. The data is made available under ODbL."}, "elements": [{"type": "node", "id": 266204854, "lat": 36.36409, "lon": 6.60881, "tags": {"addr:city": "\u0642\u0633\u0646\u0637\u064a\u0646\u0629", "addr:city:ar": "\u0642\u0633\u0646\u0637\u064a\u0646\u0629", "addr:street": "\u0633\u0627\u062d\u0629 \u0627\u0644\u0634\u0647\u062f\u0627\u0621", "addr:street:ar": "\u0633\u0627\u062d\u0629 \u0627\u0644\u0634\u0647\u062f\u0627\u0621", "amenity": "cafe", "name": "\u0627\u0644\u0628\u0627\u0634\u0627", "name:ar": "\u0627\u0644\u0628\u0627\u0634\u0627", "name:en": "El Pasha", "name:fr": "El Pasha", "wheelchair": "no"}}, {"type": "node", "id": 1788536373, "lat": 36.3621602, "lon": 6.641684, "tags": {"addr:country": "DZ", "amenity": "cafe", "designation": "CAFE GAMMA", "name": "El hayet", "name:en": "Elle hayet"}}, {"type": "node", "id": 1858114486, "lat": 36.3428291, "lon": 6.6211895}, {"type": "node", "id": 1858114494, "lat": 36.3429978, "lon": 6.6206686}, {"type": "node", "id": 1858114512, "lat": 36.3431971, "lon": 6.6214254}, {"type": "node", "id": 1858114515, "lat": 36.342838, "lon": 6.620857}, {"type": "node", "id": 1858114528, "lat": 36.3434285, "lon": 6.6208969}, {"type": "node", "id": 1858114529, "lat": 36.3433722, "lon": 6.6207769}, {"type": "node", "id": 1858114532, "lat": 36.3430853, "lon": 6.621432}, {"type": "node", "id": 1858114549, "lat": 36.3432862, "lon": 6.6206881}, {"type": "node", "id": 1858114553, "lat": 36.3433411, "lon": 6.6213333}, {"type": "node", "id": 1858114559, "lat": 36.3429785, "lon": 6.6213906}, {"type": "node", "id": 1858114573, "lat": 36.3428063, "lon": 6.6209902}, {"type": "node", "id": 1858114579, "lat": 36.3434452, "lon": 6.6210922}, {"type": "node", "id": 1858114583, "lat": 36.3429045, "lon": 6.6207453}, {"type": "node", "id": 1858114586, "lat": 36.3431065, "lon": 6.6206361}, {"type": "node", "id": 1858114590, "lat": 36.3431809, "lon": 6.6206412}, {"type": "node", "id": 1858114621, "lat": 36.3434102, "lon": 6.6212242}, {"type": "node", "id": 1858114643, "lat": 36.3428895, "lon": 6.6213064}, {"type": "node", "id": 2270769964, "lat": 36.2536442, "lon": 6.6105143, "tags": {"addr:country": "DZ", "amenity": "restaurant", "cuisine": "regional", "name": "La Pineraie"}}, {"type": "node", "id": 2421377841, "lat": 36.4502756, "lon": 6.2641089, "tags": {"addr:country": "DZ", "amenity": "restaurant", "name": "Top Chouai"}}, {"type": "node", "id": 3156628438, "lat": 36.3499985, "lon": 6.5999999, "tags": {"addr:country": "DZ", "amenity": "restaurant", "name": "Il gusto", "phone": "0550885131"}}, {"type": "node", "id": 3156628703, "lat": 36.3539391, "lon": 6.6059651, "tags": {"addr:country": "DZ", "amenity": "restaurant", "name": "Gondol"}}, {"type": "node", "id": 3189448990, "lat": 36.3447926, "lon": 6.6050094, "tags": {"addr:country": "DZ", "amenity": "restaurant", "name": "houssine2"}}, {"type": "node", "id": 3189450371, "lat": 36.3467426, "lon": 6.6054525, "tags": {"addr:country": "DZ", "amenity": "restaurant", "name": "Restaurant erriadi"}}, {"type": "node", "id": 3197225373, "lat": 36.4170205, "lon": 6.5976525, "tags": {"addr:country": "DZ", "amenity": "cafe", "internet_access": "wlan", "smoking": "yes"}}, {"type": "node", "id": 3264224969, "lat": 36.3884561, "lon": 6.4705467, "tags": {"addr:country": "DZ", "amenity": "restaurant", "name": "Resto", "name:fr": "Resto"}}, {"type": "node", "id": 3264224970, "lat": 36.3884096, "lon": 6.4704327, "tags": {"addr:country": "DZ", "amenity": "cafe"}}, {"type": "node", "id": 3264224971, "lat": 36.3883427, "lon": 6.4702744, "tags": {"addr:country": "DZ", "amenity": "cafe"}}, {"type": "node", "id": 3264224972, "lat": 36.3883146, "lon": 6.4702141, "tags": {"addr:country": "DZ", "amenity": "restaurant", "name": "Resto", "name:fr": "Resto"}}, {"type": "node", "id": 3285660576, "lat": 36.3173535, "lon": 6.275575, "tags": {"addr:country": "DZ", "amenity": "cafe", "name": "Caf\u00e9"}}, {"type": "node", "id": 3285660581, "lat": 36.4021668, "lon": 6.2428259}, {"type": "node", "id": 3285660582, "lat": 36.4022618, "lon": 6.2428044}, {"type": "node", "id": 3285660583, "lat": 36.4022445, "lon": 6.2427079}, {"type": "node", "id": 3285660584, "lat": 36.40221, "lon": 6.2425898}, {"type": "node", "id": 3285660585, "lat": 36.4021064, "lon": 6.2426542}, {"type": "node", "id": 3285660586, "lat": 36.4021369, "lon": 6.2427409}, {"type": "node", "id": 3307387996, "lat": 36.3448257, "lon": 6.6504307, "tags": {"addr:city": "\u0642\u0633\u0646\u0637\u064a\u0646\u0629", "addr:city:ar": "\u0642\u0633\u0646\u0637\u064a\u0646\u0629", "amenity": "cafe", "language:ar": "main"}}, {"type": "node", "id": 3615397562, "lat": 36.4219355, "lon": 6.5986058, "tags": {"addr:country": "DZ", "amenity": "cafe", "name": "El Khalidj"}}, {"type": "node", "id": 3615397576, "lat": 36.4228063, "lon": 6.5997593, "tags": {"addr:country": "DZ", "amenity": "cafe"}}, {"type": "node", "id": 3615397577, "lat": 36.4228249, "lon": 6.5996364, "tags": {"addr:country": "DZ", "amenity": "cafe"}}, {"type": "node", "id": 3615397578, "lat": 36.4171593, "lon": 6.5974227, "tags": {"addr:country": "DZ", "amenity": "cafe"}}, {"type": "node", "id": 3615418026, "lat": 36.4200332, "lon": 6.6100017, "tags": {"addr:country": "DZ", "amenity": "restaurant", "name": "MEHARZI"}}, {"type": "node", "id": 3615418027, "lat": 36.4189153, "lon": 6.6104893, "tags": {"addr:country": "DZ", "amenity": "restaurant", "name": "BRIHMAT"}}, {"type": "node", "id": 3723611588, "lat": 36.3459647, "lon": 6.6037775, "tags": {"addr:country": "DZ", "amenity": "cafe"}}, {"type": "node", "id": 3912879070, "lat": 36.4520205, "lon": 6.2543134}, {"type": "node", "id": 3912879071, "lat": 36.4519553, "lon": 6.2544127}, {"type": "node", "id": 3912879072, "lat": 36.4520189, "lon": 6.2544898}, {"type": "node", "id": 3912879073, "lat": 36.4520868, "lon": 6.2543846}, {"type": "node", "id": 3912904552, "lat": 36.452701, "lon": 6.2523732, "tags": {"addr:country": "DZ", "amenity": "cafe", "internet_access": "terminal", "name": "CYBER CAFE"}}, {"type": "node", "id": 3912967387, "lat": 36.4394775, "lon": 6.2628323, "tags": {"addr:country": "DZ", "amenity": "cafe", "name": "Caf\u00e9 Riche", "name:fr": "Caf\u00e9 Riche"}}, {"type": "node", "id": 3914853647, "lat": 36.4527224, "lon": 6.2513237, "tags": {"addr:country": "DZ", "amenity": "cafe", "name": "CYBER CAFE"}}, {"type": "node", "id": 3914857482, "lat": 36.4466434, "lon": 6.2617179, "tags": {"addr:country": "DZ", "amenity": "cafe", "name": "Cafeteria BENCHAOUI"}}, {"type": "node", "id": 3924267850, "lat": 36.4371474, "lon": 6.2754158, "tags": {"addr:country": "DZ", "amenity": "cafe", "name": "Cafeteria FAKIR"}}, {"type": "node", "id": 3924301887, "lat": 36.4436758, "lon": 6.2586465, "tags": {"addr:country": "DZ", "amenity": "cafe", "cuisine": "coffee_shop", "name": "Caf\u00e9 Boularess"}}, {"type": "node", "id": 4097038743, "lat": 36.2468916, "lon": 6.5719639}, {"type": "node", "id": 4097038744, "lat": 36.2466089, "lon": 6.5717997}, {"type": "node", "id": 4097038745, "lat": 36.2464162, "lon": 6.5722939}, {"type": "node", "id": 4097038746, "lat": 36.2465038, "lon": 6.5724958}, {"type": "node", "id": 4097038747, "lat": 36.2468658, "lon": 6.5723854}, {"type": "node", "id": 4097038748, "lat": 36.2469209, "lon": 6.5722232}, {"type": "node", "id": 4101065206, "lat": 36.2433424, "lon": 6.5649079}, {"type": "node", "id": 4101065217, "lat": 36.2433189, "lon": 6.5648252}, {"type": "node", "id": 4101065218, "lat": 36.2432627, "lon": 6.5647018}, {"type": "node", "id": 4101065219, "lat": 36.2431329, "lon": 6.564632}, {"type": "node", "id": 4101065220, "lat": 36.2430247, "lon": 6.5647179}, {"type": "node", "id": 4101065221, "lat": 36.2429814, "lon": 6.5648252}, {"type": "node", "id": 4101065222, "lat": 36.243122, "lon": 6.5649821}, {"type": "node", "id": 4101065240, "lat": 36.2435569, "lon": 6.5646535, "tags": {"addr:country": "DZ", "amenity": "restaurant", "capacity": "800", "delivery": "no", "name": "Restaurant RUAM", "opening_hours": "06:00-08:00,11:30-13:30,18:00-20:00", "smoking": "outside", "takeaway": "no"}}, {"type": "node", "id": 4114198989, "lat": 36.1648344, "lon": 6.1683252, "tags": {"addr:country": "DZ", "addr:housenumber": "\u0645\u0642\u0647\u0649", "addr:street": "Rue Palestine", "amenity": "cafe", "fixme": "Nom du caf\u00ea ?", "name": "Caf\u00e9", "name:ar": "\u0645\u0642\u0647\u0649"}}, {"type": "node", "id": 4131143592, "lat": 36.352036, "lon": 6.6256054, "tags": {"addr:country": "DZ", "amenity": "restaurant", "name": "Resto", "name:fr": "Resto"}}, {"type": "node", "id": 4131424355, "lat": 36.3626903, "lon": 6.6375813, "tags": {"addr:country": "DZ", "amenity": "cafe", "name": "Chamaye"}}, {"type": "node", "id": 4133985661, "lat": 36.3672285, "lon": 6.6444089, "tags": {"addr:city": "\u0642\u0633\u0646\u0637\u064a\u0646\u0629", "addr:city:ar": "\u0642\u0633\u0646\u0637\u064a\u0646\u0629", "amenity": "restaurant", "brand": "PizzaExpress", "brand:ar": "\u0628\u064a\u062a\u0632\u0627 \u0625\u0643\u0633\u0628\u0631\u0633", "brand:wikidata": "Q662845", "brand:wikipedia": "ar:\u0628\u064a\u062a\u0632\u0627 \u0625\u0643\u0633\u0628\u0631\u0633", "cuisine": "pizza", "language:ar": "main", "name": "PizzaExpress", "name:ar": "\u0628\u064a\u062a\u0632\u0627 \u0625\u0643\u0633\u0628\u0631\u0633", "name:en": "PizzaExpress", "name:fr": "Pizza Express"}}, {"type": "node", "id": 4133985662, "lat": 36.3672879, "lon": 6.644378, "tags": {"addr:country": "DZ", "amenity": "cafe"}}, {"type": "node", "id": 4134058619, "lat": 36.3483258, "lon": 6.6419926, "tags": {"addr:city": "\u0642\u0633\u0646\u0637\u064a\u0646\u0629", "addr:city:ar": "\u0642\u0633\u0646\u0637\u064a\u0646\u0629", "amenity": "restaurant", "name": "Resto", "name:fr": "Resto"}}, {"type": "node", "id": 4134058620, "lat": 36.3482998, "lon": 6.6420248, "tags": {"addr:city": "\u0642\u0633\u0646\u0637\u064a\u0646\u0629", "addr:city:ar": "\u0642\u0633\u0646\u0637\u064a\u0646\u0629", "amenity": "restaurant", "name": "Resto", "name:fr": "Resto"}}, {"type": "node", "id": 4134058621, "lat": 36.3481108, "lon": 6.6421978, "tags": {"addr:city": "\u0642\u0633\u0646\u0637\u064a\u0646\u0629", "addr:city:ar": "\u0642\u0633\u0646\u0637\u064a\u0646\u0629", "amenity": "restaurant", "brand": "Pizza Hut", "brand:ar": "\u0628\u064a\u062a\u0632\u0627 \u0647\u062a", "brand:wikidata": "Q191615", "brand:wikipedia": "ar:\u0628\u064a\u062a\u0632\u0627 \u0647\u062a", "cuisine": "pizza", "name": "Pizza Hut", "name:ar": "\u0628\u064a\u062a\u0632\u0627 \u0647\u062a", "name:en": "Pizza Hut", "name:fr": "Pizza Hut"}}, {"type": "node", "id": 4134058622, "lat": 36.3485018, "lon": 6.6409238, "tags": {"addr:city": "\u0642\u0633\u0646\u0637\u064a\u0646\u0629", "addr:city:ar": "\u0642\u0633\u0646\u0637\u064a\u0646\u0629", "amenity": "restaurant", "name": "Resto", "name:fr": "Resto"}}, {"type": "node", "id": 4134292547, "lat": 36.2614516, "lon": 6.57878, "tags": {"addr:country": "DZ", "amenity": "cafe", "name": "Caf\u00e9 Marhaba"}}, {"type": "node", "id": 4134314596, "lat": 36.2620245, "lon": 6.5761252, "tags": {"addr:country": "DZ", "amenity": "cafe", "name": "Caf\u00e9 Prestige"}}, {"type": "node", "id": 4140677763, "lat": 36.3528723, "lon": 6.6448462, "tags": {"addr:country": "DZ", "amenity": "cafe"}}, {"type": "node", "id": 4143356291, "lat": 36.1598773, "lon": 6.1639775, "tags": {"addr:country": "DZ", "addr:street": "Rue 1 Novembre", "amenity": "restaurant", "cuisine": "regional", "name": "Resto", "name:fr": "Resto", "opening_hours": "PH,Sa-Th 10:30-16:00"}}, {"type": "node", "id": 4143356295, "lat": 36.1632499, "lon": 6.1721106, "tags": {"addr:country": "DZ", "amenity": "cafe", "name": "caf\u00e9t\u00e9ria rachdi"}}, {"type": "node", "id": 4143356296, "lat": 36.1643858, "lon": 6.1867419, "tags": {"addr:country": "DZ", "amenity": "cafe", "name": "Caf\u00e9t\u00e9ria Abass"}}, {"type": "node", "id": 4145078594, "lat": 36.3851076, "lon": 6.6363506, "tags": {"addr:country": "DZ", "amenity": "cafe", "name": "\u0645\u0642\u0647\u0649 \u0627\u0644\u0632\u064a\u062a\u0648\u0646\u0629", "name:ar": "\u0645\u0642\u0647\u0649 \u0627\u0644\u0632\u064a\u062a\u0648\u0646\u0629", "name:fr": "Zaytouna"}}, {"type": "node", "id": 4148721206, "lat": 36.1632875, "lon": 6.1644942, "tags": {"addr:country": "DZ", "amenity": "cafe", "name": "Cafeteria"}}, {"type": "node", "id": 4148786794, "lat": 36.1608827, "lon": 6.1570833, "tags": {"addr:country": "DZ", "amenity": "cafe", "name": "Caf\u00e9t\u00e9ria El Quds"}}, {"type": "node", "id": 4148787391, "lat": 36.1539776, "lon": 6.1763183, "tags": {"addr:country": "DZ", "amenity": "restaurant", "name": "Salle des f\u00eates Zeggat"}}, {"type": "node", "id": 4148787793, "lat": 36.1396774, "lon": 6.1533159, "tags": {"addr:country": "DZ", "amenity": "cafe", "name": "caf\u00e9t\u00e9ria Aouras"}}, {"type": "node", "id": 4148788389, "lat": 36.1406982, "lon": 6.1541954, "tags": {"addr:country": "DZ", "amenity": "cafe", "name": "caf\u00e9t\u00e9ria Alhidabe"}}, {"type": "node", "id": 4157704791, "lat": 36.1613286, "lon": 6.1647818, "tags": {"addr:country": "DZ", "addr:street": "Rue khellifi", "amenity": "cafe", "name": "\u0645\u0642\u0647\u0649 \u0633\u064a \u0645\u062d\u0645\u0648\u062f", "name:ar": "\u0645\u0642\u0647\u0649 \u0633\u064a \u0645\u062d\u0645\u0648\u062f", "name:fr": "Caf\u00e9 Si Mahmoud", "opening_hours": "Mo-Su 05:00-20:00"}}, {"type": "node", "id": 4157778989, "lat": 36.1615832, "lon": 6.1631284, "tags": {"addr:country": "DZ", "addr:street": "Rue ben yahia zoubir", "amenity": "cafe", "name": "\u0642\u0647\u0648\u0629 \u0627\u0644\u062c\u0632\u0648\u0629", "name:ar": "\u0642\u0647\u0648\u0629 \u0627\u0644\u062c\u0632\u0648\u0629", "name:fr": "Caf\u00e9 el Djazwa"}}, {"type": "node", "id": 4221107789, "lat": 36.3935368, "lon": 6.6061095, "tags": {"addr:country": "DZ", "amenity": "cafe", "name": "Cafeteria", "name:ar": "\u0645\u0642\u0647\u0649 \u0645\u0646\u064a\u0631", "name:fr": "Caf\u00e9t\u00e9ria"}}, {"type": "node", "id": 4221107889, "lat": 36.3927388, "lon": 6.6071687, "tags": {"addr:country": "DZ", "amenity": "cafe", "name": "Cafeteria"}}, {"type": "node", "id": 4221107989, "lat": 36.3937237, "lon": 6.6105022, "tags": {"addr:country": "DZ", "amenity": "cafe", "name": "Cafeteria"}}, {"type": "node", "id": 4221108089, "lat": 36.393672, "lon": 6.6076809, "tags": {"addr:country": "DZ", "amenity": "cafe", "name": "caf\u00e9t\u00e9rias"}}, {"type": "node", "id": 4254344697, "lat": 36.331446, "lon": 6.5845064, "tags": {"addr:country": "DZ", "amenity": "cafe"}}, {"type": "node", "id": 4254467790, "lat": 36.3319103, "lon": 6.5838377, "tags": {"amenity": "cafe"}}, {"type": "node", "id": 4322174890, "lat": 36.1581028, "lon": 6.1668935, "tags": {"addr:country": "DZ", "amenity": "cafe", "name": "\u0642\u0647\u0648\u0629 \u062d\u0627\u064a\u0641\u064a", "name:ar": "\u062d\u064a\u0641\u0644\u0649", "name:en": "Caf\u00e9 Haif\u00ef", "name:fr": "Caf\u00e9 Haif\u00ef"}}, {"type": "node", "id": 4323936583, "lat": 36.3975851, "lon": 6.3233616, "tags": {"addr:country": "DZ", "amenity": "restaurant", "name": "Resto", "name:fr": "Resto"}}, {"type": "node", "id": 4323936746, "lat": 36.3966205, "lon": 6.3239677, "tags": {"addr:country": "DZ", "amenity": "cafe"}}, {"type": "node", "id": 4324001863, "lat": 36.3973795, "lon": 6.3233951, "tags": {"addr:country": "DZ", "amenity": "cafe"}}, {"type": "node", "id": 4324033308, "lat": 36.3962169, "lon": 6.3220541, "tags": {"addr:country": "DZ", "amenity": "cafe"}}, {"type": "node", "id": 4332484295, "lat": 36.3319344, "lon": 6.5837743, "tags": {"addr:country": "DZ", "amenity": "restaurant", "name": "La banquise"}}, {"type": "node", "id": 4334595635, "lat": 36.3396376, "lon": 6.583015, "tags": {"addr:country": "DZ", "amenity": "cafe", "name": "Caf\u00e9 amar"}}, {"type": "node", "id": 4334598493, "lat": 36.338625, "lon": 6.5842167, "tags": {"addr:country": "DZ", "amenity": "restaurant", "name": "Kerroud"}}, {"type": "node", "id": 4337095769, "lat": 36.4523766, "lon": 6.2579837}, {"type": "node", "id": 4337095770, "lat": 36.4526314, "lon": 6.2580704}, {"type": "node", "id": 4337095771, "lat": 36.4525744, "lon": 6.2582544}, {"type": "node", "id": 4337095772, "lat": 36.4523168, "lon": 6.2581607}, {"type": "node", "id": 4337097651, "lat": 36.451685, "lon": 6.2561574, "tags": {"addr:city": "\u0645\u064a\u0644\u0629", "addr:city:ar": "\u0645\u064a\u0644\u0629", "addr:postcode": "43000", "amenity": "cafe"}}, {"type": "node", "id": 4337539716, "lat": 36.446983, "lon": 6.2672315, "tags": {"addr:country": "DZ", "amenity": "cafe", "name": "Internet Cafe"}}, {"type": "node", "id": 4337592958, "lat": 36.4476954, "lon": 6.266104}, {"type": "node", "id": 4337592959, "lat": 36.44737, "lon": 6.2660613}, {"type": "node", "id": 4337592960, "lat": 36.4472278, "lon": 6.2660837}, {"type": "node", "id": 4337592961, "lat": 36.4471558, "lon": 6.2661142}, {"type": "node", "id": 4337592962, "lat": 36.4471836, "lon": 6.2662056}, {"type": "node", "id": 4337592963, "lat": 36.4473717, "lon": 6.2662931}, {"type": "node", "id": 4337592964, "lat": 36.4474959, "lon": 6.2663479}, {"type": "node", "id": 4337592965, "lat": 36.4475924, "lon": 6.2662951}, {"type": "node", "id": 4337592966, "lat": 36.447702, "lon": 6.266354}, {"type": "node", "id": 4338705062, "lat": 36.4513999, "lon": 6.258678, "tags": {"addr:country": "DZ", "amenity": "cafe", "name": "Cafeteria Wi-Fi"}}, {"type": "node", "id": 4340124145, "lat": 36.4556369, "lon": 6.2678127, "tags": {"addr:country": "DZ", "amenity": "cafe", "name": "Cafeteria BOUKARRECHE"}}, {"type": "node", "id": 4341516041, "lat": 36.4520733, "lon": 6.2641688, "tags": {"addr:country": "DZ", "amenity": "cafe", "cuisine": "caf\u00e9_HAMMA"}}, {"type": "node", "id": 4344584663, "lat": 36.450394, "lon": 6.2605677, "tags": {"addr:country": "DZ", "amenity": "cafe", "name": "Cafeteria BENKARA"}}, {"type": "node", "id": 4350783425, "lat": 36.3318261, "lon": 6.5837975, "tags": {"addr:country": "DZ", "amenity": "cafe"}}, {"type": "node", "id": 4360498613, "lat": 36.4551797, "lon": 6.2599221, "tags": {"addr:country": "DZ", "amenity": "cafe", "name": "Cafe ADEL"}}, {"type": "node", "id": 4360503664, "lat": 36.4572802, "lon": 6.2657313, "tags": {"addr:country": "DZ", "amenity": "restaurant", "cuisine": "pizza", "name": "Pizza ALI", "takeaway": "yes"}}, {"type": "node", "id": 4361973709, "lat": 36.4397018, "lon": 6.2629899, "tags": {"addr:country": "DZ", "amenity": "cafe", "name": "Caf\u00e9"}}, {"type": "node", "id": 4366704992, "lat": 36.4588578, "lon": 6.2633416, "tags": {"addr:city": "\u0645\u064a\u0644\u0629", "addr:city:ar": "\u0645\u064a\u0644\u0629", "addr:postcode": "43000", "amenity": "cafe"}}, {"type": "node", "id": 4371686723, "lat": 36.452562, "lon": 6.2596611}, {"type": "node", "id": 4371686724, "lat": 36.452225, "lon": 6.2590341}, {"type": "node", "id": 4371686725, "lat": 36.4523836, "lon": 6.259769}, {"type": "node", "id": 4371686726, "lat": 36.4525383, "lon": 6.2601136}, {"type": "node", "id": 4371686727, "lat": 36.4527483, "lon": 6.259818}, {"type": "node", "id": 4371686728, "lat": 36.4523935, "lon": 6.2601887}, {"type": "node", "id": 4371705574, "lat": 36.4525481, "lon": 6.259324, "tags": {"addr:city": "\u0645\u064a\u0644\u0629", "addr:city:ar": "\u0645\u064a\u0644\u0629", "addr:postcode": "43000", "amenity": "restaurant", "name": "Resto", "name:fr": "Resto"}}, {"type": "node", "id": 4371708340, "lat": 36.4529764, "lon": 6.2597833, "tags": {"addr:city": "\u0645\u064a\u0644\u0629", "addr:city:ar": "\u0645\u064a\u0644\u0629", "addr:postcode": "43000", "amenity": "cafe"}}, {"type": "node", "id": 4381364461, "lat": 36.2430507, "lon": 6.5649807}, {"type": "node", "id": 4381386273, "lat": 36.2467652, "lon": 6.5725075}, {"type": "node", "id": 4381386274, "lat": 36.2468222, "lon": 6.5718523}, {"type": "node", "id": 4425039490, "lat": 36.1704314, "lon": 6.1632577, "tags": {"addr:country": "DZ", "amenity": "restaurant", "name": "Resto", "name:fr": "Resto"}}, {"type": "node", "id": 4429072091, "lat": 36.2578092, "lon": 6.5880732, "tags": {"addr:country": "DZ", "amenity": "restaurant", "name": "Chicken House", "name:ar": "\u0643\u064a\u0646\u062a\u0627\u0643\u064a \u062f\u062c\u0627\u062c", "name:en": "Chicken House"}}, {"type": "node", "id": 4460370297, "lat": 36.4391064, "lon": 6.2721371, "tags": {"addr:country": "DZ", "amenity": "restaurant", "name": "Nounou", "name:fr": "Nounou"}}, {"type": "node", "id": 4463488791, "lat": 36.3576469, "lon": 6.6043873, "tags": {"addr:country": "DZ", "amenity": "restaurant", "name": "Restaurant DarDiaf", "name:en": "Restaurant DarDiaf", "toilets:wheelchair": "yes", "wheelchair": "yes"}}, {"type": "node", "id": 4492900391, "lat": 36.1637627, "lon": 6.1680377, "tags": {"addr:country": "DZ", "addr:housenumber": "o669433194", "addr:postcode": "43200", "amenity": "restaurant", "cuisine": "international", "internet_access": "wlan", "name": "\u0627\u0644\u0645\u0637\u0639\u0645 \u0627\u0644\u062f\u0645\u0634\u0642\u064a", "name:ar": "\u0627\u0644\u0645\u0637\u0639\u0645 \u0627\u0644\u062f\u0645\u0634\u0642\u064a", "name:fr": "Restaurant damasc\u00e8ne", "opening_hours": "Sa-Th 08:00-23:00", "phone": "0669433194"}}, {"type": "node", "id": 4499218191, "lat": 36.2655369, "lon": 6.4979782, "tags": {"addr:country": "DZ", "addr:postcode": "25000", "addr:street": "rue national", "amenity": "cafe", "cuisine": "coffee_shop", "internet_access": "wlan", "name": "\u0645\u0642\u0647\u0649 \u0631\u0634\u064a\u062f", "name:ar": "\u0645\u0642\u0647\u0649 \u0631\u0634\u064a\u062f", "name:en": "Caf\u00e9 rachid", "name:fr": "Caf\u00e9 rachid", "opening_hours": "24/7"}}, {"type": "node", "id": 4535047890, "lat": 36.3581828, "lon": 6.629396, "tags": {"addr:country": "DZ", "addr:street": "Rue Saighi Ahmed", "amenity": "cafe", "cuisine": "coffee_shop;tea;local;cake;breakfast", "name": "Cafe El Bahri", "name:en": "Cafe El Bahri"}}, {"type": "node", "id": 4536266593, "lat": 36.3514664, "lon": 6.6314979, "tags": {"addr:country": "DZ", "amenity": "cafe", "name": "Caf\u00e9 Brahim Mesfar", "name:fr": "Caf\u00e9 Brahim Mesfar"}}, {"type": "node", "id": 4555658189, "lat": 36.2858763, "lon": 6.518115, "tags": {"addr:country": "DZ", "amenity": "restaurant", "name": "\u0645\u0637\u0639\u0645 \u0648 \u0645\u0633\u0628\u062d \u0628\u0648\u0644\u0641\u062e\u0627\u062f", "name:ar": "\u0645\u0637\u0639\u0645 \u0648 \u0645\u0633\u0628\u062d \u0628\u0648\u0644\u0641\u062e\u0627\u062f", "name:fr": "Piscine et restaurants Boulefkhed"}}, {"type": "node", "id": 4560706103, "lat": 36.4303473, "lon": 6.1248529, "tags": {"addr:country": "DZ", "amenity": "cafe"}}, {"type": "node", "id": 4560706200, "lat": 36.430252, "lon": 6.1244978, "tags": {"addr:country": "DZ", "amenity": "restaurant", "name": "Resto", "name:fr": "Resto"}}, {"type": "node", "id": 4560706201, "lat": 36.4310211, "lon": 6.122354, "tags": {"addr:country": "DZ", "amenity": "cafe", "cuisine": "breakfast;ice_cream;tea;cake;coffee_shop", "name": "\u0645\u0642\u0647\u0649 \u0644\u0628\u0635\u064a\u0631", "name:ar": "\u0645\u0642\u0647\u0649 \u0644\u0628\u0635\u064a\u0631", "name:fr": "Caf\u00e9 Labsir", "opening_hours": "Mo-Su 05:00-00:00"}}, {"type": "node", "id": 4560706795, "lat": 36.4389697, "lon": 6.1635112, "tags": {"addr:country": "DZ", "amenity": "cafe", "name": "\u0645\u0642\u0647\u0649 \u0643\u0631\u064a\u0637\u0648\u0633", "name:ar": "\u0645\u0642\u0647\u0649 \u0643\u0631\u064a\u0637\u0648\u0633", "name:fr": "Caf\u00e9 Critous"}}, {"type": "node", "id": 4564961599, "lat": 36.2591632, "lon": 6.5867757, "tags": {"addr:country": "DZ", "addr:postcode": "25000", "addr:street": "13, lots, Ain El Bey 2 \u00e8me tranche, nouvelle ville, Ali Mendjeli", "amenity": "restaurant", "email": "belmilikhouloud@gmail.com", "internet_access": "wlan", "name": "Le Grand Bleu", "name:fr": "Le Grand Bleu", "phone": "0770379953"}}, {"type": "node", "id": 4570316417, "lat": 36.3843786, "lon": 6.6356316, "tags": {"addr:street": "\u0637\u0631\u064a\u0642 \u062c\u0628\u0644 \u0627\u0644\u0648\u062d\u0634", "addr:street:ar": "\u0637\u0631\u064a\u0642 \u062c\u0628\u0644 \u0627\u0644\u0648\u062d\u0634", "amenity": "cafe", "name": "\u0645\u0642\u0647\u0649 \u0633\u064a\u0631\u062a\u0627", "name:ar": "\u0645\u0642\u0647\u0649 \u0633\u064a\u0631\u062a\u0627", "name:fr": "Caf\u00e9 Cirta"}}, {"type": "node", "id": 4582751192, "lat": 36.439104, "lon": 6.1640835, "tags": {"addr:country": "DZ", "amenity": "cafe", "name": "\u0645\u0642\u0647\u0649 \u0627\u0644\u0627\u062e\u0648\u0629 \u0628\u0644\u0639\u0637\u0627\u0631", "name:ar": "\u0645\u0642\u0647\u0649 \u0627\u0644\u0627\u062e\u0648\u0629 \u0628\u0644\u0639\u0637\u0627\u0631", "name:fr": "Caf\u00e9 Fr\u00e8res Belattar"}}, {"type": "node", "id": 4588802293, "lat": 36.3915292, "lon": 6.1293057, "tags": {"addr:country": "DZ", "amenity": "cafe", "name": "\u0628\u0648\u0644\u0645\u0632\u0627\u0648\u062f", "name:ar": "\u0628\u0648\u0644\u0645\u0632\u0627\u0648\u062f", "name:fr": "Boulemzaoued.Caf\u00e9"}}, {"type": "node", "id": 4592531489, "lat": 36.3401379, "lon": 6.5951119, "tags": {"addr:country": "DZ", "addr:street": "Cit\u00e9 du 5 juillet 1962 a cot\u00e9 du batiment 01", "amenity": "cafe", "name": "Arabica caf\u00e9 resto", "name:fr": "Arabica caf\u00e9 resto"}}, {"type": "node", "id": 4620311991, "lat": 36.3921364, "lon": 6.1274054, "tags": {"addr:country": "DZ", "amenity": "cafe", "name": "\u0645\u0642\u0647\u064a \u0643\u0648\u0634\u0629", "name:ar": "\u0645\u0642\u0647\u064a \u0643\u0648\u0634\u0629", "name:fr": "Caf\u00e9 Koucha"}}, {"type": "node", "id": 4620311994, "lat": 36.3934954, "lon": 6.1293692, "tags": {"addr:country": "DZ", "amenity": "cafe"}}, {"type": "node", "id": 4620311995, "lat": 36.3931886, "lon": 6.1293218, "tags": {"addr:country": "DZ", "amenity": "cafe", "name": "\u0645\u0642\u0647\u0649 \u0632\u063a\u0645\u0627\u0631", "name:ar": "\u0632\u063a\u0645\u0627\u0631", "name:en": "zeghmar caf\u00e9", "name:fr": "Zeghmar"}}, {"type": "node", "id": 4620311997, "lat": 36.3925058, "lon": 6.1299985, "tags": {"addr:country": "DZ", "amenity": "cafe", "name": "\u0639\u062a\u0627\u0645\u0646\u0629", "name:ar": "\u0639\u062a\u0627\u0645\u0646\u0629", "name:fr": "Atamna"}}, {"type": "node", "id": 4620311999, "lat": 36.3905925, "lon": 6.1307036, "tags": {"addr:country": "DZ", "amenity": "cafe", "name": "\u0637\u0644\u0627\u0633", "name:ar": "\u0637\u0644\u0627\u0633", "name:fr": "Tlass"}}, {"type": "node", "id": 4620312001, "lat": 36.3879401, "lon": 6.1319885, "tags": {"addr:country": "DZ", "amenity": "cafe", "name": "\u062a\u064a\u062a\u0648\u062d", "name:ar": "\u062a\u064a\u062a\u0648\u062d", "name:fr": "Caf\u00e9 Titouh"}}, {"type": "node", "id": 4620312007, "lat": 36.3930979, "lon": 6.129673, "tags": {"addr:country": "DZ", "amenity": "restaurant", "name": "\u0637\u0631\u064a\u0642 \u062a\u0627\u0645\u062f\u0629", "name:ar": "\u0637\u0631\u064a\u0642 \u062a\u0627\u0645\u062f\u0629", "name:fr": "Resto"}}, {"type": "node", "id": 4620312008, "lat": 36.3931952, "lon": 6.1298642, "tags": {"addr:country": "DZ", "amenity": "cafe", "name": "\u0634\u0643\u0631\u0648\u062f", "name:ar": "\u0634\u0643\u0631\u0648\u062f", "name:fr": "Chakroud"}}, {"type": "node", "id": 4620337790, "lat": 36.3933523, "lon": 6.1290402, "tags": {"addr:country": "DZ", "amenity": "cafe", "name": "\u0628\u0648\u0641\u0627\u0631\u0633", "name:ar": "\u0628\u0648\u0641\u0627\u0631\u0633", "name:en": "boufares caf\u00e9", "name:fr": "Caf\u00e9 Boufares"}}, {"type": "node", "id": 4620337797, "lat": 36.3901598, "lon": 6.1308522, "tags": {"addr:country": "DZ", "amenity": "restaurant", "name": "\u0627\u0644\u062d\u0627\u062c\u0629", "name:ar": "\u0627\u0644\u062d\u0627\u062c\u0629", "name:fr": "al Haja"}}, {"type": "node", "id": 4620355194, "lat": 36.3915433, "lon": 6.1294842, "tags": {"addr:country": "DZ", "amenity": "cafe", "name": "\u0645\u0642\u0647\u0649 \u0628\u0648\u0644\u0645\u0632\u0627\u0648\u062f", "name:ar": "\u0645\u0642\u0647\u0649 \u0628\u0648\u0644\u0645\u0632\u0627\u0648\u062f", "name:fr": "Boulemzaoued.Caf\u00e9"}}, {"type": "node", "id": 4620355995, "lat": 36.391044, "lon": 6.1305417, "tags": {"addr:country": "DZ", "amenity": "cafe", "name": "\u0645\u0631\u0627\u0643\u0634\u0629", "name:ar": "\u0645\u0631\u0627\u0643\u0634\u0629", "name:fr": "Marrakecha"}}, {"type": "node", "id": 4620372395, "lat": 36.389207, "lon": 6.1306414, "tags": {"addr:country": "DZ", "amenity": "cafe", "name": "\u062d\u0645\u0627\u062f\u064a", "name:ar": "\u062d\u0645\u0627\u062f\u064a", "name:fr": "Caf\u00e9 Hammadi"}}, {"type": "node", "id": 4620372396, "lat": 36.391387, "lon": 6.1304834, "tags": {"addr:country": "DZ", "amenity": "cafe", "name": "\u0645\u0648\u0633\u0627\u0648\u064a", "name:ar": "\u0645\u0648\u0633\u0627\u0648\u064a", "name:fr": "Moussaoui"}}, {"type": "node", "id": 4620372491, "lat": 36.3873532, "lon": 6.1321926, "tags": {"addr:country": "DZ", "amenity": "cafe", "name": "\u0627\u0644\u0632\u0646\u0637\u0634", "name:ar": "\u0627\u0644\u0632\u0646\u0637\u0634", "name:fr": "Caf\u00e9 Zantch"}}, {"type": "node", "id": 4620372495, "lat": 36.3939801, "lon": 6.1300475, "tags": {"addr:country": "DZ", "amenity": "restaurant", "name": "Resto", "name:fr": "Resto"}}, {"type": "node", "id": 4620372496, "lat": 36.3947758, "lon": 6.1314341, "tags": {"addr:country": "DZ", "amenity": "cafe", "name": "\u0644\u0627\u0633\u064a\u062a\u064a", "name:ar": "\u0644\u0627\u0633\u064a\u062a\u064a", "name:fr": "la Cit\u00e9"}}, {"type": "node", "id": 4620372500, "lat": 36.3915592, "lon": 6.1303069, "tags": {"addr:country": "DZ", "amenity": "cafe", "name": "\u0643\u0628\u064a\u0631", "name:ar": "\u0643\u0628\u064a\u0631", "name:fr": "Kabir"}}, {"type": "node", "id": 4620374491, "lat": 36.3932423, "lon": 6.1299422, "tags": {"addr:country": "DZ", "amenity": "restaurant", "name": "Resto", "name:fr": "Resto"}}, {"type": "node", "id": 4620376489, "lat": 36.3943108, "lon": 6.1304329, "tags": {"addr:country": "DZ", "amenity": "restaurant", "name": "\u0645\u064a\u062f\u0648\u0643\u0627\u0644\u064a", "name:ar": "\u0645\u064a\u062f\u0648\u0643\u0627\u0644\u064a", "name:fr": "Midoukkali"}}, {"type": "node", "id": 4622073589, "lat": 36.4572263, "lon": 6.2683989, "tags": {"addr:country": "DZ", "addr:postcode": "43000", "addr:street": "\u0637\u0631\u064a\u0642 \u0642\u0631\u0627\u0631\u0645", "amenity": "cafe", "name": "Jack", "name:ar": "Jack"}}, {"type": "node", "id": 4624466607, "lat": 36.3402376, "lon": 6.5974308, "tags": {"addr:country": "DZ", "amenity": "cafe", "name": "Caf\u00e9"}}, {"type": "node", "id": 4637158692, "lat": 36.3918213, "lon": 6.1303081, "tags": {"addr:country": "DZ", "amenity": "restaurant", "name": "\u0628\u0648\u0639\u0646\u0642", "name:ar": "\u0628\u0648\u0639\u0646\u0642", "name:fr": "Bouank"}}, {"type": "node", "id": 4641654543, "lat": 36.3836564, "lon": 6.6349959, "tags": {"amenity": "cafe", "name": "\u0645\u0642\u0647\u0649 \u0627\u0644\u062c\u0632\u064a\u0631\u0629", "name:ar": "\u0645\u0642\u0647\u0649 \u0627\u0644\u062c\u0632\u064a\u0631\u0629", "name:fr": "Caf\u00e9 El Djazeera"}}, {"type": "node", "id": 4665387553, "lat": 36.3637257, "lon": 6.6366632, "tags": {"addr:country": "DZ", "amenity": "cafe"}}, {"type": "node", "id": 4665387554, "lat": 36.3632279, "lon": 6.6370116, "tags": {"addr:country": "DZ", "amenity": "cafe"}}, {"type": "node", "id": 4688516000, "lat": 36.1611593, "lon": 6.1710672, "tags": {"addr:country": "DZ", "addr:postcode": "43200", "addr:street": "Caf\u00e9 la vouteToute nationale N\u00b05", "amenity": "cafe", "cuisine": "coffee_shop", "name": "Caf\u00e9 la voute", "name:fr": "Caf\u00e9 la voute"}}, {"type": "node", "id": 4714992796, "lat": 36.3656954, "lon": 6.6369354, "tags": {"addr:country": "DZ", "amenity": "restaurant", "name": "piano piano", "name:en": "piano piano", "name:fr": "piano piano"}}, {"type": "node", "id": 4725034896, "lat": 36.1594204, "lon": 6.1667759, "tags": {"addr:country": "DZ", "amenity": "cafe", "name": "\u0642\u0647\u0648\u0629 \u0628\u0644\u062d\u064a", "name:ar": "\u0642\u0647\u0648\u0629 \u0628\u0644\u062d\u064a", "name:fr": "Caf\u00e9 Belhi"}}, {"type": "node", "id": 4753542423, "lat": 36.1680165, "lon": 6.1668413, "tags": {"addr:country": "DZ", "amenity": "cafe", "name:fr": "azzine"}}, {"type": "node", "id": 4773667121, "lat": 36.3649638, "lon": 6.6382323, "tags": {"addr:country": "DZ", "amenity": "restaurant", "name:fr": "La Mega Pizza"}}, {"type": "node", "id": 4773667221, "lat": 36.3647688, "lon": 6.6387088, "tags": {"addr:country": "DZ", "amenity": "restaurant", "name:fr": "tita lunch"}}, {"type": "node", "id": 4816503822, "lat": 36.3517047, "lon": 6.6125653, "tags": {"addr:country": "DZ", "amenity": "restaurant", "cuisine": "african;ice_cream;deli;arab;barbecue;coffee_shop", "name:fr": "Les platanes"}}, {"type": "node", "id": 4827541625, "lat": 36.3517851, "lon": 6.6127106, "tags": {"addr:country": "DZ", "amenity": "restaurant", "name": "Les platanes", "name:ar": "Les platanes"}}, {"type": "node", "id": 4832037225, "lat": 36.3638374, "lon": 6.6075635, "tags": {"addr:country": "DZ", "amenity": "cafe", "name": "Magic food", "wheelchair": "yes"}}, {"type": "node", "id": 4885639133, "lat": 36.244013, "lon": 6.5779232, "tags": {"addr:country": "DZ", "amenity": "cafe", "name": "CAFE ZENITH"}}, {"type": "node", "id": 4898543321, "lat": 36.3639363, "lon": 6.6075035, "tags": {"addr:country": "DZ", "amenity": "cafe", "name:fr": "Magic Plus", "wheelchair": "yes"}}, {"type": "node", "id": 4900390021, "lat": 36.4275471, "lon": 6.1211466, "tags": {"addr:country": "DZ", "addr:housenumber": "29", "addr:postcode": "43006", "addr:street": "\u062d\u064a 96 \u0645\u0633\u0643\u0646", "amenity": "cafe", "cuisine": "breakfast;ice_cream;tea;cake;coffee_shop", "internet_access": "wlan", "name": "\u0645\u0642\u0647\u0649 \u0628\u0646 \u062d\u0645\u0627\u062f\u0629 \u0631\u0627\u0628\u062d", "name:ar": "\u0645\u0642\u0647\u0649 \u0628\u0646 \u062d\u0645\u0627\u062f\u0629 \u0631\u0627\u0628\u062d", "name:en": "Caf\u00e9 ben hammada rabah", "name:fr": "Caf\u00e9 Rabah Benhammada", "opening_hours": "24/7"}}, {"type": "node", "id": 4946448621, "lat": 36.3068911, "lon": 6.6215248, "tags": {"addr:country": "DZ", "amenity": "cafe", "name:fr": "Caf\u00e9 bein sport"}}, {"type": "node", "id": 4949241555, "lat": 36.25006, "lon": 6.2935363, "tags": {"addr:country": "DZ", "amenity": "cafe", "name": "\u0627\u0644\u0645\u0642\u0647\u0649 \u0627\u0644\u062c\u062f\u064a\u062f", "name:ar": "\u0627\u0644\u0645\u0642\u0647\u0649 \u0627\u0644\u062c\u062f\u064a\u062f", "name:en": "New coffee", "name:fr": "Nouvelle Caf\u00e9"}}, {"type": "node", "id": 4957860021, "lat": 36.1841276, "lon": 6.3885829, "tags": {"addr:country": "DZ", "addr:postcode": "43031", "addr:street": "200 log", "amenity": "cafe", "internet_access": "wlan", "name": "Caf\u00e9 des g\u00e9meaux", "name:ar": "RueCaf\u00e9 des g\u00e9meaux", "opening_hours": "24/7"}}, {"type": "node", "id": 5038912710, "lat": 36.3612901, "lon": 6.6440737, "tags": {"addr:country": "DZ", "amenity": "cafe"}}, {"type": "node", "id": 5038912711, "lat": 36.361874, "lon": 6.6437917, "tags": {"addr:country": "DZ", "amenity": "cafe", "name": "\u0645\u0642\u0647\u0649 \u062d\u0631\u064a\u0643\u0648", "name:ar": "\u0645\u0642\u0647\u0649 \u062d\u0631\u064a\u0643\u0648", "name:fr": "Caf\u00e9 Harikou"}}, {"type": "node", "id": 5038912712, "lat": 36.3615562, "lon": 6.6436889, "tags": {"addr:country": "DZ", "amenity": "restaurant", "name": "Resto", "name:fr": "Resto"}}, {"type": "node", "id": 5139826123, "lat": 36.3128195, "lon": 6.6248151, "tags": {"addr:country": "DZ", "amenity": "restaurant", "name": "\u0639\u0628\u062f \u0627\u0644\u062d\u0642", "name:ar": "\u0639\u0628\u062f \u0627\u0644\u062d\u0642", "name:fr": "Chez abd el hak", "opening_hours": "Sa-Th 00:00-24:00"}}, {"type": "node", "id": 5144418721, "lat": 36.4296143, "lon": 6.2642914, "tags": {"addr:country": "DZ", "amenity": "cafe", "name:fr": "caf\u00e9 Arabica"}}, {"type": "node", "id": 5187365821, "lat": 36.4322942, "lon": 6.1216021, "tags": {"addr:country": "DZ", "amenity": "cafe", "name:fr": "CAF\u00c9 LAKNOUCH AMAR"}}, {"type": "node", "id": 5199473629, "lat": 36.3485104, "lon": 6.6001916, "tags": {"addr:country": "DZ", "addr:housenumber": "16", "addr:postcode": "25017", "addr:street": "ciloc", "amenity": "restaurant", "cuisine": "fish;oriental;burger;sandwich;hotdog;cake;mediterranean;local;pasta;donut;pizza;chicken;italian_pizza", "email": "touchotoucho@gmail.com", "name": "Coloc b\u00e2timent 1er", "name:fr": "TRAITEUR TOU'CHO!", "opening_hours": "Mo-Su 10:00-21:00", "phone": "0560961852"}}, {"type": "node", "id": 5206864422, "lat": 36.2642947, "lon": 6.5778177, "tags": {"addr:country": "DZ", "amenity": "cafe", "name": "\u0642\u0647\u0648\u0629 \u062a\u0627\u0639 \u0627\u0644\u062a\u0627\u064a", "name:ar": "\u0642\u0647\u0648\u0629 \u062a\u0627\u0639 \u0627\u0644\u062a\u0627\u064a", "name:fr": "Caf\u00e9 Taa Altay"}}, {"type": "node", "id": 5209043347, "lat": 36.251162, "lon": 6.5737763, "tags": {"addr:country": "DZ", "amenity": "restaurant", "name": "Pizzeria Roma"}}, {"type": "node", "id": 5209043349, "lat": 36.2511356, "lon": 6.5736899, "tags": {"addr:country": "DZ", "amenity": "restaurant", "name": "Pizzeria Roma"}}, {"type": "node", "id": 5209043350, "lat": 36.2511092, "lon": 6.5736338, "tags": {"addr:country": "DZ", "amenity": "restaurant", "name": "Pizzeria Roma"}}, {"type": "node", "id": 5209043351, "lat": 36.2510923, "lon": 6.5735754, "tags": {"addr:country": "DZ", "amenity": "restaurant", "name": "Resto", "name:fr": "Resto"}}, {"type": "node", "id": 5209043352, "lat": 36.2503824, "lon": 6.5735988, "tags": {"addr:country": "DZ", "amenity": "cafe"}}, {"type": "node", "id": 5209043353, "lat": 36.2509304, "lon": 6.5720227, "tags": {"addr:country": "DZ", "amenity": "cafe", "name": "Cafeteria vers l'entr\u00e9e"}}, {"type": "node", "id": 5209043391, "lat": 36.2513434, "lon": 6.5738155, "tags": {"addr:country": "DZ", "amenity": "restaurant", "name": "Resto", "name:fr": "Resto"}}, {"type": "node", "id": 5209043393, "lat": 36.2440597, "lon": 6.5720918, "tags": {"addr:country": "DZ", "amenity": "cafe"}}, {"type": "node", "id": 5209043397, "lat": 36.2438898, "lon": 6.5721779, "tags": {"addr:country": "DZ", "amenity": "cafe"}}, {"type": "node", "id": 5237548927, "lat": 36.348932, "lon": 6.2977593, "tags": {"addr:country": "DZ", "amenity": "restaurant", "name": "\u0645\u0637\u0639\u0645 \u0646\u062c\u0645", "name:ar": "\u0645\u0637\u0639\u0645 \u0646\u062c\u0645", "name:fr": "Restaurant nadjm"}}, {"type": "node", "id": 5246566772, "lat": 36.1266018, "lon": 6.3743901, "tags": {"addr:country": "DZ", "amenity": "cafe", "name": "\u0645\u0642\u0647\u0649 \u0627\u0644\u062d\u064a", "name:ar": "\u0645\u0642\u0647\u0649 \u0627\u0644\u062d\u064a", "name:fr": "Caf\u00e9 du quartier"}}, {"type": "node", "id": 5280532637, "lat": 36.3650472, "lon": 6.6095602}, {"type": "node", "id": 5280809280, "lat": 36.3631895, "lon": 6.6086124, "tags": {"addr:country": "DZ", "amenity": "cafe", "name": "Cafeteria Beyrout"}}, {"type": "node", "id": 5282592990, "lat": 36.4253218, "lon": 6.6162576, "tags": {"addr:country": "DZ", "amenity": "cafe", "name": "BADADI"}}, {"type": "node", "id": 5282652912, "lat": 36.4151651, "lon": 6.5969716, "tags": {"addr:country": "DZ", "amenity": "cafe", "name": "Op\u00e9ra"}}, {"type": "node", "id": 5318844604, "lat": 36.1164834, "lon": 6.3556079, "tags": {"addr:country": "DZ", "amenity": "cafe", "name": "Caf\u00e9 Chenini"}}, {"type": "node", "id": 5325718221, "lat": 36.2614795, "lon": 6.5780968, "tags": {"addr:country": "DZ", "amenity": "cafe", "name": "\u0645\u0642\u0647\u0649 \u0627\u0644\u0645\u0631\u062d\u0628\u0627", "name:ar": "\u0645\u0642\u0647\u0649 \u0627\u0644\u0645\u0631\u062d\u0628\u0627", "name:fr": "Caf\u00e9 el Marhaba"}}, {"type": "node", "id": 5364263025, "lat": 36.3502034, "lon": 6.6120728, "tags": {"addr:country": "DZ", "amenity": "cafe", "name:en": "Cafe Coin blue", "name:fr": "Caf\u00e9 coin bleue"}}, {"type": "node", "id": 5404321321, "lat": 36.3633163, "lon": 6.6374876, "tags": {"addr:country": "DZ", "addr:street": "cit\u00e9 des ap\u00f4tres, SMK", "amenity": "restaurant", "cuisine": "pizza", "delivery": "yes", "name": "\u0628\u064a\u063a \u0628\u064a\u062a\u0632\u0627", "name:ar": "\u0628\u064a\u063a \u0628\u064a\u062a\u0632\u0627", "name:en": "Big Pizza", "name:fr": "Big Pizza", "opening_hours": "11:00-23:00", "takeaway": "yes"}}, {"type": "node", "id": 5428923137, "lat": 36.3319243, "lon": 6.583771, "tags": {"addr:country": "DZ", "amenity": "restaurant", "name": "\u0645\u0627\u062c\u0643 \u0631\u0633\u062a\u0648\u0631\u0646\u062a", "name:ar": "\u0645\u0627\u062c\u0643 \u0631\u0633\u062a\u0648\u0631\u0646\u062a", "name:fr": "MAGIC RESTAURANT"}}, {"type": "node", "id": 5640132038, "lat": 36.3630257, "lon": 6.6085514, "tags": {"addr:country": "DZ", "amenity": "restaurant", "name": "Tiddis", "wheelchair": "yes"}}, {"type": "node", "id": 5734522421, "lat": 36.1387319, "lon": 6.6075785}, {"type": "node", "id": 5847682585, "lat": 36.1564454, "lon": 6.1786974, "tags": {"amenity": "restaurant", "name:fr": "Salle des f\u00eates Affas"}}, {"type": "node", "id": 5971546689, "lat": 36.4316825, "lon": 6.1214306, "tags": {"amenity": "cafe", "cuisine": "ice_cream;tea;cake;coffee_shop", "name": "\u0645\u0642\u0647\u0649 \u0644\u0639\u0648\u0631", "name:ar": "\u0645\u0642\u0647\u0649 \u0644\u0639\u0648\u0631", "name:fr": "Caf\u00e9 Laouar", "opening_hours": "Sa-Th 05:00-00:00"}}, {"type": "node", "id": 5971592091, "lat": 36.4302428, "lon": 6.121719, "tags": {"amenity": "cafe", "name": "\u0645\u0642\u0647\u0649", "name:ar": "\u0645\u0642\u0647\u0649", "name:fr": "Caf\u00e9"}}, {"type": "node", "id": 5971598489, "lat": 36.4295402, "lon": 6.1211737, "tags": {"amenity": "cafe", "name": "\u0645\u0642\u0647\u0649 \u0639\u0632\u064a\u0632\u0629", "name:ar": "\u0645\u0642\u0647\u0649 \u0639\u0632\u064a\u0632\u0629", "name:fr": "Caf\u00e9 Aziza"}}, {"type": "node", "id": 5971619889, "lat": 36.4313292, "lon": 6.1212981, "tags": {"amenity": "restaurant", "name": "\u0645\u0637\u0639\u0645", "name:ar": "\u0645\u0637\u0639\u0645", "name:fr": "Resto"}}, {"type": "node", "id": 5971646185, "lat": 36.4295979, "lon": 6.1200049, "tags": {"amenity": "cafe", "name": "\u0645\u0642\u0647\u0649 \u0633\u0648\u064a\u0639\u062f", "name:ar": "\u0645\u0642\u0647\u0649 \u0633\u0648\u064a\u0639\u062f", "name:fr": "Caf\u00e9 Souied"}}, {"type": "node", "id": 5972132786, "lat": 36.4301249, "lon": 6.1199108, "tags": {"amenity": "cafe", "name": "\u0645\u0642\u0647\u0649", "name:ar": "\u0645\u0642\u0647\u0649 \u0639\u0645\u0631\u064a", "name:fr": "Caf\u00e9 Amri"}}, {"type": "node", "id": 5972139186, "lat": 36.4312387, "lon": 6.1256843, "tags": {"amenity": "cafe", "name": "\u0645\u0642\u0647\u0649", "name:ar": "\u0645\u0642\u0647\u0649", "name:fr": "Caf\u00e9"}}, {"type": "node", "id": 6358921287, "lat": 36.3687076, "lon": 6.6197404, "tags": {"amenity": "restaurant"}}, {"type": "node", "id": 6733533385, "lat": 36.2311414, "lon": 6.5629709, "tags": {"amenity": "cafe"}}, {"type": "node", "id": 6806807286, "lat": 36.4270491, "lon": 6.3231925, "tags": {"amenity": "cafe", "name": "\u0645\u0642\u0647\u0649 \u0628\u0646 \u0633\u0644\u064a\u0645\u0627\u0646", "name:ar": "\u0645\u0642\u0647\u0649 \u0628\u0646 \u0633\u0644\u064a\u0645\u0627\u0646", "name:en": "Bensliman Cafeteria", "name:fr": "Caf\u00e9 Bensliman"}}, {"type": "node", "id": 6806836185, "lat": 36.4273387, "lon": 6.3206506, "tags": {"amenity": "cafe", "name": "\u0645\u0642\u0647\u0649 \u0639\u0632\u0648", "name:ar": "\u0645\u0642\u0647\u0649 \u0639\u0632\u0648", "name:en": "Azzou Cafeteria", "name:fr": "Caf\u00e9 Azzou", "phone": "0691 57 75 06"}}, {"type": "node", "id": 6806836187, "lat": 36.4277172, "lon": 6.3211343, "tags": {"amenity": "cafe", "name": "\u0645\u0642\u0647\u0649 \u0628\u0648\u0644\u0639\u0638\u0627\u0645", "name:ar": "\u0645\u0642\u0647\u0649 \u0628\u0648\u0644\u0639\u0638\u0627\u0645", "name:en": "Boulaadam Cafeteria", "name:fr": "Caf\u00e9 Boulaadam"}}, {"type": "node", "id": 6806869885, "lat": 36.4264289, "lon": 6.3199471, "tags": {"amenity": "cafe", "name": "\u0645\u0642\u0647\u0649 \u0628\u0648\u0642\u0637\u0648\u0634\u0629", "name:ar": "\u0645\u0642\u0647\u0649 \u0628\u0648\u0642\u0637\u0648\u0634\u0629", "name:en": "Bouguettoucha Cafeteria", "name:fr": "Caf\u00e9 Bouguettoucha"}}, {"type": "node", "id": 6983549389, "lat": 36.4095308, "lon": 6.5969235, "tags": {"amenity": "cafe", "name": "\u0645\u0642\u0647\u0649 \u0627\u0644\u062a\u0627\u062c", "name:ar": "\u0645\u0642\u0647\u0649 \u0627\u0644\u062a\u0627\u062c", "name:fr": "Caf\u00e9 de la Couronne"}}, {"type": "node", "id": 7104059085, "lat": 36.2835642, "lon": 6.5912108, "tags": {"addr:housenumber": "1", "addr:postcode": "25000", "addr:street": "Branchement A1-Nouvelle Ville", "amenity": "restaurant", "name": "Arena"}}, {"type": "node", "id": 7124982287, "lat": 36.3400226, "lon": 6.5977541, "tags": {"amenity": "cafe", "name": "\u0627\u062a\u0642\u0647\u0648\u0627 \u0648 \u0631\u0648\u062d \u062a\u0631\u0648\u062d", "name:ar": "\u0627\u062a\u0642\u0647\u0648\u0627 \u0648 \u0631\u0648\u062d \u062a\u0631\u0648\u062d", "name:fr": "Caf\u00e9 milkou"}}, {"type": "node", "id": 7313058787, "lat": 36.3076258, "lon": 6.6271032, "tags": {"amenity": "cafe", "name": "\u0628\u0627\u0628 \u062c\u062f\u064a\u062f", "name:ar": "\u0628\u0627\u0628 \u062c\u062f\u064a\u062f", "name:en": "Bab djedid", "name:fr": "Bab djedid"}}, {"type": "node", "id": 7313058788, "lat": 36.3076062, "lon": 6.6270491, "tags": {"amenity": "restaurant", "name": "Resto", "name:fr": "Resto"}}, {"type": "node", "id": 7408943413, "lat": 36.1614885, "lon": 6.1573119, "tags": {"addr:city": "Chelghoum la\u00eed", "addr:housenumber": "616", "addr:postcode": "43200", "addr:street": "Evitement Nord de Chelghoum La\u00eed", "amenity": "cafe", "name": "cyber Sofi@ne", "outdoor_seating": "yes"}}, {"type": "node", "id": 8037651485, "lat": 36.265118, "lon": 6.5813337, "tags": {"addr:street": "FNPOS", "amenity": "cafe", "name": "Yahia"}}, {"type": "node", "id": 8273544519, "lat": 36.3698549, "lon": 6.6150934, "tags": {"amenity": "restaurant", "name": "Bagoya"}}, {"type": "node", "id": 8450441617, "lat": 36.4493847, "lon": 6.2657816, "tags": {"amenity": "restaurant", "name": "viande"}}, {"type": "node", "id": 8518491767, "lat": 36.3755002, "lon": 6.6368368, "tags": {"amenity": "cafe"}}, {"type": "node", "id": 8535039669, "lat": 36.2333207, "lon": 6.5847975, "tags": {"amenity": "restaurant"}}, {"type": "node", "id": 8535039670, "lat": 36.2327836, "lon": 6.58435, "tags": {"amenity": "cafe"}}, {"type": "node", "id": 8535039727, "lat": 36.2507544, "lon": 6.5602147, "tags": {"amenity": "cafe", "name": "Caf\u00e9 Yanni", "name:ar": "\u0645\u0642\u0647\u0649 \u064a\u0627\u0646\u064a", "name:arq": "\u0645\u0642\u0647\u0649 \u064a\u0627\u0646\u064a"}}, {"type": "node", "id": 8535039728, "lat": 36.2507815, "lon": 6.5600434, "tags": {"amenity": "restaurant", "cuisine": "pizza"}}, {"type": "node", "id": 8535562925, "lat": 36.2626201, "lon": 6.5892459, "tags": {"amenity": "restaurant", "name": "El Gusto"}}, {"type": "node", "id": 8535562929, "lat": 36.2649333, "lon": 6.5882693, "tags": {"amenity": "restaurant", "cuisine": "pizza", "name": "Pizza Turtles", "name:ar": "\u0628\u064a\u0632\u064a\u0631\u064a\u0627 \u0633\u0644\u0627\u062d\u0641 \u0627\u0644\u0646\u064a\u0646\u062c\u0627", "name:arq": "\u0628\u064a\u0632\u064a\u0631\u064a\u0627 \u0633\u0644\u0627\u062d\u0641 \u0627\u0644\u0646\u064a\u0646\u062c\u0627"}}, {"type": "node", "id": 8540092651, "lat": 36.3363054, "lon": 6.6140908, "tags": {"amenity": "restaurant", "name": "Magic House"}}, {"type": "node", "id": 8597247566, "lat": 36.2579375, "lon": 6.5706922, "tags": {"amenity": "cafe", "cuisine": "coffee_shop", "name": "Caf\u00e9 Terra", "name:ar": "\u0645\u0642\u0647\u0649 \u062a\u064a\u0631\u0627", "name:arq": "\u0645\u0642\u0647\u0649 \u062a\u064a\u0631\u0627", "name:fr": "Caf\u00e9 Terra"}}, {"type": "node", "id": 8645159017, "lat": 36.2635913, "lon": 6.5880418, "tags": {"amenity": "restaurant", "name:fr": "restaurant nejma"}}, {"type": "node", "id": 9967058033, "lat": 36.4458274, "lon": 6.2506814, "tags": {"amenity": "cafe", "name": "\u0645\u0642\u0647\u0649 \u0632\u0648\u064a\u062f"}}, {"type": "node", "id": 9967070883, "lat": 36.4459341, "lon": 6.2508277, "tags": {"amenity": "cafe", "name": "\u0645\u0642\u0647\u0649 \u0627\u0644\u062a\u0648\u0647\u0627\u0645\u064a"}}, {"type": "node", "id": 10276486962, "lat": 36.3620638, "lon": 6.6077805, "tags": {"amenity": "restaurant", "cuisine": "pizza", "name": "Pizza Time Turtle Tacos"}}, {"type": "node", "id": 10278415600, "lat": 36.366694, "lon": 6.6145823, "tags": {"addr:city": "Constantine", "addr:housenumber": "58", "addr:postcode": "25000", "addr:state": "Algeria", "addr:street": "\u0634\u0627\u0631\u0639 \u0627\u0644\u0639\u0631\u0628\u064a \u0628\u0646 \u0645\u0647\u064a\u062f\u064a", "amenity": "restaurant", "contact:facebook": "DMTEX.IGHERSSAN", "contact:instagram": "restaurant_igherssan", "cuisine": "arab;pizza;regional", "email": "igherssan.restaurant@gmail.com", "name": "Restaurant Igherssan", "opening_hours": "Mo-Su 08:00-23:00", "outdoor_seating": "yes", "phone": "+213 560 906 580;+213 770 720 000;+213 31 877 357"}}, {"type": "node", "id": 10889173553, "lat": 36.3544282, "lon": 6.6120008, "tags": {"amenity": "cafe", "name": "Caf\u00e9 L'onu"}}, {"type": "node", "id": 10924724702, "lat": 36.365122, "lon": 6.6096436}, {"type": "node", "id": 10924724706, "lat": 36.3650065, "lon": 6.6098033}, {"type": "node", "id": 10924726450, "lat": 36.3649317, "lon": 6.6097199}, {"type": "node", "id": 10924757403, "lat": 36.391521, "lon": 6.640412}, {"type": "node", "id": 10924757571, "lat": 36.3914628, "lon": 6.6404583}, {"type": "node", "id": 10924758879, "lat": 36.3914413, "lon": 6.6405506}, {"type": "node", "id": 10924759588, "lat": 36.3914903, "lon": 6.6405116}, {"type": "node", "id": 10924759592, "lat": 36.3914861, "lon": 6.6403445}, {"type": "node", "id": 10924760422, "lat": 36.391379, "lon": 6.6404298}, {"type": "node", "id": 10966749687, "lat": 36.1388086, "lon": 6.6076615}, {"type": "node", "id": 10966751383, "lat": 36.1388964, "lon": 6.6079525}, {"type": "node", "id": 10966752634, "lat": 36.1388199, "lon": 6.6078525}, {"type": "node", "id": 10966753207, "lat": 36.1389036, "lon": 6.607734}, {"type": "node", "id": 10966753456, "lat": 36.1388989, "lon": 6.6077407}, {"type": "node", "id": 10966754231, "lat": 36.1388208, "lon": 6.6076442}, {"type": "node", "id": 10966756035, "lat": 36.1386604, "lon": 6.6076797}, {"type": "node", "id": 10966756086, "lat": 36.138813, "lon": 6.6078622}, {"type": "node", "id": 10966756442, "lat": 36.1389823, "lon": 6.6078311}, {"type": "node", "id": 12313190298, "lat": 36.1716236, "lon": 6.1692075, "tags": {"addr:country": "DZ", "amenity": "cafe", "name:fr": "lotissement Meghlaoui", "source": "Algrien Mapper Team"}}, {"type": "node", "id": 12369593301, "lat": 36.3687928, "lon": 6.6189598, "tags": {"amenity": "cafe", "name": "Caf\u00e9 & Djoussour"}}, {"type": "node", "id": 12392057677, "lat": 36.3904998, "lon": 6.6392518, "tags": {"amenity": "restaurant", "name": "sa3ed chway"}}, {"type": "way", "id": 175174161, "nodes": [1858114573, 1858114515, 1858114583, 1858114494, 1858114586, 1858114590, 1858114549, 1858114529, 1858114528, 1858114579, 1858114621, 1858114553, 1858114512, 1858114532, 1858114559, 1858114643, 1858114486, 1858114573], "tags": {"amenity": "restaurant", "building": "yes", "name": "Resto U"}}, {"type": "way", "id": 321798202, "nodes": [3285660581, 3285660582, 3285660583, 3285660584, 3285660585, 3285660586, 3285660581], "tags": {"amenity": "cafe", "building": "yes"}}, {"type": "way", "id": 388089062, "nodes": [3912879070, 3912879071, 3912879072, 3912879073, 3912879070], "tags": {"addr:city": "\u0645\u064a\u0644\u0629", "addr:city:ar": "\u0645\u064a\u0644\u0629", "addr:postcode": "43000", "amenity": "cafe", "building": "yes"}}, {"type": "way", "id": 407675463, "nodes": [4097038743, 4381386274, 4097038744, 4097038745, 4097038746, 4381386273, 4097038747, 4097038748, 4097038743], "tags": {"addr:city": "Ali Mendjeli", "amenity": "restaurant", "building": "yes", "name": "Resto univ", "name:ar": "\u0645\u0637\u0639\u0645 \u062c\u0627\u0645\u0639\u064a", "name:en": "U Resto", "name:fr": "Resto U", "smoking": "no"}}, {"type": "way", "id": 408090700, "nodes": [4101065217, 4101065218, 4101065219, 4101065220, 4101065221, 4381364461, 4101065222, 4101065206, 4101065217], "tags": {"amenity": "cafe", "building": "yes", "internet_access": "yes", "name": "Foyer RUAM04"}}, {"type": "way", "id": 435816897, "nodes": [4337095769, 4337095770, 4337095771, 4337095772, 4337095769], "tags": {"addr:city": "\u0645\u064a\u0644\u0629", "addr:city:ar": "\u0645\u064a\u0644\u0629", "addr:housenumber": "1", "addr:postcode": "43000", "amenity": "restaurant", "building": "yes", "cuisine": "pizza", "name": "\u0645\u0637\u0639\u0645 \u0627\u0644\u0633\u0644\u0637\u0627\u0646", "name:ar": "\u0645\u0637\u0639\u0645 \u0627\u0644\u0633\u0644\u0637\u0627\u0646", "name:fr": "RESTAURANT SOLTANE", "operator": "\u0645\u062c\u0645\u0648\u0639\u0629 \u0628\u0644\u062f\u064a", "operator:ar": "\u0645\u062c\u0645\u0648\u0639\u0629 \u0628\u0644\u062f\u064a", "takeaway": "yes"}}, {"type": "way", "id": 435867625, "nodes": [4337592958, 4337592959, 4337592960, 4337592961, 4337592962, 4337592963, 4337592964, 4337592965, 4337592966, 4337592958], "tags": {"amenity": "cafe", "building": "yes", "name": "Cafeteria Cr\u00e8merie"}}, {"type": "way", "id": 439542418, "nodes": [4371686723, 4371686724, 4371686725, 4371686728, 4371686726, 4371686727, 4371686723], "tags": {"addr:city": "MILA", "addr:housenumber": "01", "addr:postcode": "43000", "addr:street": "1er Novembre", "amenity": "cafe", "building": "commercial", "cuisine": "ice_cream;crepes;gaufre;creme_gelato;pancake;bubble_waffle;jus_nature;jus_glace;jus_fraiche;creme_cachete;gateaux;caf\u00e9;the_....", "internet_access": "yes", "name": "GELATERIA boulaiche", "outdoor_seating": "yes"}}, {"type": "way", "id": 1175703333, "nodes": [10924726450, 10924724706, 10924724702, 5280532637, 10924726450], "tags": {"addr:city": "\u0642\u0633\u0646\u0637\u064a\u0646\u0629", "addr:city:ar": "\u0642\u0633\u0646\u0637\u064a\u0646\u0629", "addr:street": "\u0646\u0647\u062c \u063a\u064a\u062a\u0648\u0631 \u0639\u0645\u0631", "addr:street:ar": "\u0646\u0647\u062c \u063a\u064a\u062a\u0648\u0631 \u0639\u0645\u0631", "amenity": "cafe", "building": "yes", "source": "Algrien Mapper Team", "toilets:wheelchair": "yes", "wheelchair": "yes"}}, {"type": "way", "id": 1175708532, "nodes": [10924759592, 10924760422, 10924758879, 10924759588, 10924757571, 10924757403, 10924759592], "tags": {"amenity": "cafe", "building": "yes", "cuisine": "pizza", "layer": "1", "name": "cafee hamoudi", "source": "FB: Algerie Mapper Team : (Superadlen)"}}, {"type": "way", "id": 1180830702, "nodes": [10966751383, 10966756442, 10966753456, 10966753207, 10966754231, 10966749687, 5734522421, 10966756035, 10966752634, 10966756086, 10966751383], "tags": {"addr:city": "\u0627\u0644\u0642\u0631\u0627\u062d", "addr:city:ar": "\u0627\u0644\u0642\u0631\u0627\u062d", "amenity": "cafe", "building": "yes", "source": "FB: Algerie Mapper Team"}}]}