{"version": 0.6, "generator": "Overpass API 0.7.62.7 375dc00a", "osm3s": {"timestamp_osm_base": "2025-06-14T13:51:30Z", "copyright": "The data included in this document is from www.openstreetmap.org. The data is made available under ODbL."}, "elements": [{"type": "node", "id": 3303648774, "lat": 30.3769331, "lon": 13.5852694}, {"type": "node", "id": 3303648775, "lat": 30.3768573, "lon": 13.585218}, {"type": "node", "id": 3303648776, "lat": 30.3769172, "lon": 13.5850993}, {"type": "node", "id": 3303648777, "lat": 30.376993, "lon": 13.5851507}, {"type": "node", "id": 3303648794, "lat": 30.3906953, "lon": 13.5980709, "tags": {"amenity": "cafe", "name": "\u0645\u0642\u0647\u0649 \u0648\u0645\u0637\u0639\u0645 \u0634\u0645\u0633 \u0627\u0644\u0627\u0635\u064a\u0644", "name:ar": "\u0645\u0642\u0647\u0649 \u0648\u0645\u0637\u0639\u0645", "name:en": "Cafe & Restaurant"}}, {"type": "node", "id": 4453916390, "lat": 30.375832, "lon": 13.5841816, "tags": {"addr:city": "\u0627\u0644\u0642\u0631\u064a\u0627\u062a", "amenity": "restaurant", "name": "\u0627\u0644\u0645\u0637\u0639\u0645 \u0627\u0644\u0633\u064a\u0627\u062d\u064a", "name:ar": "\u0627\u0644\u0645\u0637\u0639\u0645 \u0627\u0644\u0633\u064a\u0627\u062d\u064a", "name:en": "Truism Restaurant"}}, {"type": "node", "id": 5709568922, "lat": 30.3768886, "lon": 13.5852137, "tags": {"amenity": "cafe", "name": "\u0643\u0627\u0641\u064a", "name:ar": "\u0643\u0627\u0641\u064a", "name:en": "Coffee"}}, {"type": "way", "id": 323578481, "nodes": [3303648774, 3303648775, 3303648776, 3303648777, 3303648774], "tags": {"amenity": "restaurant", "building": "yes", "name": "\u0645\u0637\u0639\u0645", "name:ar": "\u0645\u0637\u0639\u0645", "name:en": "Restaurant"}}]}