{"version": 0.6, "generator": "Overpass API 0.7.62.7 375dc00a", "osm3s": {"timestamp_osm_base": "2025-06-14T15:38:25Z", "copyright": "The data included in this document is from www.openstreetmap.org. The data is made available under ODbL."}, "elements": [{"type": "node", "id": 5656629030, "lat": 13.6222952, "lon": 39.0010997, "tags": {"amenity": "restaurant", "name:en": "Birhan Salad"}}, {"type": "node", "id": 5657911021, "lat": 13.6257584, "lon": 38.9966176, "tags": {"amenity": "restaurant", "name:en": "Elsa Restaurant"}}, {"type": "node", "id": 5657911121, "lat": 13.6234697, "lon": 39.0007629, "tags": {"amenity": "restaurant", "name:en": "Makbel Restaurant"}}, {"type": "node", "id": 6166881788, "lat": 13.6520692, "lon": 39.1730363, "tags": {"amenity": "cafe", "name": "Inda Gual Ra'esom", "outdoor_seating": "yes"}}, {"type": "node", "id": 6199233699, "lat": 13.6503986, "lon": 39.1721334, "tags": {"amenity": "restaurant"}}, {"type": "node", "id": 8044679085, "lat": 13.6256575, "lon": 38.9966995, "tags": {"amenity": "cafe", "name": "Genet bun", "name:en": "Genet coffee abiy adi"}}, {"type": "node", "id": 10313976810, "lat": 13.6228226, "lon": 39.0009288, "tags": {"amenity": "cafe", "name": "\u1203\u1228\u130d \u12a5\u1295\u12f3 \u1261\u1295 -\u12d3\u1265\u12ea \u12d3\u12f2", "name:en": "Hareg Coffee House - Abiyi Adi"}}]}