{"version": 0.6, "generator": "Overpass API 0.7.62.7 375dc00a", "osm3s": {"timestamp_osm_base": "2025-06-14T14:58:44Z", "copyright": "The data included in this document is from www.openstreetmap.org. The data is made available under ODbL."}, "elements": [{"type": "node", "id": 280480660, "lat": 40.8984291, "lon": 29.1732704, "tags": {"amenity": "cafe", "created_by": "Potlatch 0.10", "name": "Beyaz K\u00f6sk", "name:ar": "\u0645\u0642\u0647\u0649 \u0628\u064a\u0627\u0632 \u0643\u0648\u0633\u0643"}}, {"type": "node", "id": 586452166, "lat": 40.8936126, "lon": 29.1708429, "tags": {"amenity": "restaurant", "cuisine": "turkish", "name": "K\u00f6z Kanat", "name:ar": "\u0645\u0637\u0639\u0645 \u0643\u0648\u0632 \u0643\u0627\u0646\u0627\u062a"}}, {"type": "node", "id": 1137617222, "lat": 40.8888932, "lon": 29.1824704, "tags": {"amenity": "cafe"}}, {"type": "node", "id": 1379749504, "lat": 40.7895179, "lon": 29.3404269, "tags": {"amenity": "restaurant", "cuisine": "turkish", "name": "Arzum Ev Yemekleri"}}, {"type": "node", "id": 1727642178, "lat": 41.0302833, "lon": 29.2588446, "tags": {"amenity": "cafe", "internet_access": "wlan", "internet_access:fee": "no", "name": "Harvest Cafe"}}, {"type": "node", "id": 1727642184, "lat": 41.031455, "lon": 29.259062, "tags": {"amenity": "cafe", "brand": "Caff\u00e8 Nero", "brand:wikidata": "Q675808", "brand:wikipedia": "en:Caff\u00e8 Nero", "cuisine": "coffee_shop", "internet_access": "wlan", "internet_access:fee": "no", "name": "Caff\u00e8 Nero", "takeaway": "yes"}}, {"type": "node", "id": 1727642226, "lat": 41.0317585, "lon": 29.2595179, "tags": {"amenity": "restaurant", "cuisine": "turkish", "name": "Akkol"}}, {"type": "node", "id": 1905650496, "lat": 40.8764003, "lon": 29.2425109, "tags": {"amenity": "cafe", "name": "Asmal\u0131 Cafe"}}, {"type": "node", "id": 1988225442, "lat": 40.9025075, "lon": 29.2159761, "tags": {"amenity": "restaurant", "cuisine": "turkish", "name": "Tepeli Restaturant"}}, {"type": "node", "id": 2032853035, "lat": 40.836336, "lon": 29.5152542}, {"type": "node", "id": 2032853036, "lat": 40.8364222, "lon": 29.515418}, {"type": "node", "id": 2032853037, "lat": 40.8364116, "lon": 29.5151848}, {"type": "node", "id": 2032853039, "lat": 40.8364977, "lon": 29.5153487}, {"type": "node", "id": 2258710184, "lat": 41.0279801, "lon": 29.1911301, "tags": {"amenity": "restaurant", "name": "Naml\u0131 Kebap", "opening_hours": "Mo-Su,PH 08:30-21:30"}}, {"type": "node", "id": 2258728307, "lat": 41.0217075, "lon": 29.1921334, "tags": {"amenity": "cafe", "cuisine": "turkish", "name": "Masal Pastanesi"}}, {"type": "node", "id": 2260490070, "lat": 41.0268714, "lon": 29.1809375, "tags": {"amenity": "restaurant"}}, {"type": "node", "id": 2264679073, "lat": 41.0147577, "lon": 29.1897774, "tags": {"amenity": "cafe", "name": "Konak Pastanesi"}}, {"type": "node", "id": 2268490408, "lat": 41.0136856, "lon": 29.1900765}, {"type": "node", "id": 2268490409, "lat": 41.0135018, "lon": 29.1900781}, {"type": "node", "id": 2268490410, "lat": 41.0136048, "lon": 29.1903891}, {"type": "node", "id": 2270768841, "lat": 41.0138373, "lon": 29.1892142, "tags": {"addr:city": "\u0130stanbul", "addr:district": "\u00dcmraniye", "addr:housenumber": "52/D", "addr:neighbourhood": "Madenler Mah.", "addr:street": "Serencebey Caddesi", "amenity": "cafe", "name": "Ye\u015filcam Kahve Evi", "opening_hours": "Mo-Su 09:00-19:00", "outdoor_seating": "yes", "phone": "+902165195221", "source": "local knowledge", "website": "https://www.yesilcamkahveevi.com/"}}, {"type": "node", "id": 2320228860, "lat": 40.8281544, "lon": 29.421967}, {"type": "node", "id": 2340473570, "lat": 41.0112463, "lon": 29.1796281, "tags": {"amenity": "cafe", "brand": "Starbucks", "brand:wikidata": "Q37158", "brand:wikipedia": "en:Starbucks", "cuisine": "coffee_shop", "name": "Starbucks", "official_name": "Starbucks Coffee", "takeaway": "yes"}}, {"type": "node", "id": 2340479895, "lat": 41.0126267, "lon": 29.1758247, "tags": {"amenity": "cafe", "cuisine": "coffee_shop", "name": "Cafe Fika"}}, {"type": "node", "id": 2352488621, "lat": 41.0319467, "lon": 29.2579434, "tags": {"amenity": "cafe", "brand": "Kahve D\u00fcnyas\u0131", "brand:wikidata": "Q28008050", "cuisine": "coffee_shop", "name": "Kahve D\u00fcnyas\u0131", "takeaway": "yes"}}, {"type": "node", "id": 2379571808, "lat": 40.7977767, "lon": 29.4311138, "tags": {"addr:city": "Gebze", "addr:country": "TR", "addr:housenumber": "34/A", "addr:street": "Hac\u0131 Halil \u0130smet Pa\u015fa Caddesi", "amenity": "cafe", "name": "Maksut Bey", "phone": "+90 262 6467916", "shop": "pastry", "website": "http://www.maksutbey.com.tr"}}, {"type": "node", "id": 2380579591, "lat": 40.7989692, "lon": 29.431954, "tags": {"addr:city": "Kocaeli", "addr:country": "TR", "addr:district": "Gebze", "addr:housenumber": "2", "addr:neighbourhood": "Hac\u0131halil", "addr:postcode": "41400", "addr:street": "H\u00fck\u00fcmet Caddesi", "amenity": "restaurant", "name": "Pa\u015fa \u0130skender", "phone": "+90 262 642 99 99"}}, {"type": "node", "id": 2380579595, "lat": 40.8513286, "lon": 29.4005636, "tags": {"addr:city": "\u015eekerpinar K\u00f6y\u00fc", "addr:country": "TR", "addr:housenumber": "150", "addr:street": "Fevzi \u00c7akmak Caddesi", "amenity": "restaurant", "name": "Ser\u00e7e\u015fme"}}, {"type": "node", "id": 2401026441, "lat": 40.8906568, "lon": 29.2536599, "tags": {"addr:city": "\u0130stanbul", "addr:country": "TR", "addr:district": "Pendik", "addr:neighbourhood": "Dumlup\u0131nar Mahallesi", "addr:postcode": "34896", "addr:street": "G\u00f6zda\u011f\u0131 Caddesi", "amenity": "restaurant", "drive_in": "yes", "internet_access": "wlan", "internet_access:fee": "yes", "name": "G\u00f6zda\u011f\u0131 Sosyal Tesisleri", "outdoor_seating": "yes", "phone": "+90 216 444 10 34", "smoking": "yes", "website": "https://tesislerimiz.ibb.istanbul/gozdagi-sosyal-tesisi/"}}, {"type": "node", "id": 2401027210, "lat": 40.876677, "lon": 29.240023, "tags": {"addr:city": "\u0130stanbul", "addr:country": "TR", "addr:postcode": "34890", "addr:province": "Pendik", "addr:state": "IST", "addr:street": "Ankara Caddesi", "amenity": "cafe", "internet_access": "wlan", "internet_access:fee": "yes", "name": "Marmara Aile \u00c7ay Bah\u00e7esi", "smoking": "outside", "website": "https://www.zomato.com/tr/istanbul/marmara-aile-cay-bahcesi-pendik-merkez-istanbul"}}, {"type": "node", "id": 2514720632, "lat": 41.010761, "lon": 29.1595454}, {"type": "node", "id": 2514720634, "lat": 41.0107748, "lon": 29.1596659}, {"type": "node", "id": 2514720635, "lat": 41.0107757, "lon": 29.1598171}, {"type": "node", "id": 2514720636, "lat": 41.0107635, "lon": 29.1598173}, {"type": "node", "id": 2514720637, "lat": 41.0107643, "lon": 29.1599424}, {"type": "node", "id": 2514720638, "lat": 41.0106509, "lon": 29.1599436}, {"type": "node", "id": 2514720639, "lat": 41.0106501, "lon": 29.1598155}, {"type": "node", "id": 2514720640, "lat": 41.0106308, "lon": 29.1598157}, {"type": "node", "id": 2514720641, "lat": 41.0106298, "lon": 29.1596623}, {"type": "node", "id": 2514720642, "lat": 41.0106485, "lon": 29.1596621}, {"type": "node", "id": 2514720643, "lat": 41.0106477, "lon": 29.1595467}, {"type": "node", "id": 2625801618, "lat": 40.9507569, "lon": 29.3915885}, {"type": "node", "id": 2625801619, "lat": 40.9509774, "lon": 29.3916004}, {"type": "node", "id": 2625801620, "lat": 40.9509554, "lon": 29.3920818}, {"type": "node", "id": 2625801621, "lat": 40.950775, "lon": 29.3920674}, {"type": "node", "id": 2641906726, "lat": 40.9752224, "lon": 29.1544603, "tags": {"amenity": "restaurant", "name": "Escape"}}, {"type": "node", "id": 2641906727, "lat": 40.9751859, "lon": 29.1543976, "tags": {"amenity": "restaurant", "cuisine": "pizza", "name": "Lucas Si"}}, {"type": "node", "id": 2842637283, "lat": 40.9020657, "lon": 29.1677151, "tags": {"amenity": "cafe", "name": "Hicret Pastanesi", "smoking": "outside"}}, {"type": "node", "id": 2843137846, "lat": 40.9020315, "lon": 29.1664397, "tags": {"amenity": "cafe", "name": "Mida Pastanesi"}}, {"type": "node", "id": 2850913391, "lat": 40.9598449, "lon": 29.1886761}, {"type": "node", "id": 2850913392, "lat": 40.959798, "lon": 29.1887924}, {"type": "node", "id": 2850913393, "lat": 40.959726, "lon": 29.1887414}, {"type": "node", "id": 2850913394, "lat": 40.959713, "lon": 29.1887737}, {"type": "node", "id": 2850913395, "lat": 40.9595673, "lon": 29.1886705}, {"type": "node", "id": 2850913396, "lat": 40.9595814, "lon": 29.1886355}, {"type": "node", "id": 2850913397, "lat": 40.9594695, "lon": 29.1885563}, {"type": "node", "id": 2850913398, "lat": 40.9595153, "lon": 29.1884429}, {"type": "node", "id": 2852671533, "lat": 40.9574481, "lon": 29.1833254}, {"type": "node", "id": 2852671534, "lat": 40.9574145, "lon": 29.1833067}, {"type": "node", "id": 2852671535, "lat": 40.9574011, "lon": 29.1833488}, {"type": "node", "id": 2852671536, "lat": 40.957313, "lon": 29.1832997}, {"type": "node", "id": 2852671537, "lat": 40.9573306, "lon": 29.1832445}, {"type": "node", "id": 2852671538, "lat": 40.9573035, "lon": 29.1832293}, {"type": "node", "id": 2852671539, "lat": 40.9573346, "lon": 29.1831315}, {"type": "node", "id": 2852671540, "lat": 40.9573644, "lon": 29.1831482}, {"type": "node", "id": 2852671541, "lat": 40.9573802, "lon": 29.1830984}, {"type": "node", "id": 2852671542, "lat": 40.9573868, "lon": 29.1831021}, {"type": "node", "id": 2852671543, "lat": 40.9574793, "lon": 29.1828119}, {"type": "node", "id": 2852671544, "lat": 40.9575633, "lon": 29.1828588}, {"type": "node", "id": 2852671545, "lat": 40.9574762, "lon": 29.1831321}, {"type": "node", "id": 2852671546, "lat": 40.957485, "lon": 29.183137}, {"type": "node", "id": 2852671547, "lat": 40.9574694, "lon": 29.1831861}, {"type": "node", "id": 2852671548, "lat": 40.957489, "lon": 29.183197}, {"type": "node", "id": 2855429037, "lat": 40.9577634, "lon": 29.1820467, "tags": {"amenity": "restaurant", "name": "W Cafe Brasserie", "smoking": "outside"}}, {"type": "node", "id": 2874373330, "lat": 40.8732055, "lon": 29.231313, "tags": {"amenity": "cafe", "internet_access": "yes", "name": "Cafe Eskaza", "smoking": "outside"}}, {"type": "node", "id": 2917201461, "lat": 40.8240009, "lon": 29.2781919}, {"type": "node", "id": 2917201481, "lat": 40.8238727, "lon": 29.2782917}, {"type": "node", "id": 2917201482, "lat": 40.824019, "lon": 29.2785943}, {"type": "node", "id": 2917201484, "lat": 40.8240371, "lon": 29.2782752}, {"type": "node", "id": 2917201488, "lat": 40.8241219, "lon": 29.278209}, {"type": "node", "id": 2917201493, "lat": 40.8241327, "lon": 29.2784984}, {"type": "node", "id": 2917201495, "lat": 40.8241411, "lon": 29.2785079}, {"type": "node", "id": 2917201499, "lat": 40.8242258, "lon": 29.2784417}, {"type": "node", "id": 3124422637, "lat": 40.6960721, "lon": 29.628402, "tags": {"amenity": "cafe", "name": "Denizy\u0131ld\u0131z\u0131 \u00c7ay Bah\u00e7esi"}}, {"type": "node", "id": 3124495529, "lat": 40.7025174, "lon": 29.6619131, "tags": {"amenity": "cafe", "name": "\u00c7ay Bah\u00e7esi"}}, {"type": "node", "id": 3126071947, "lat": 40.7019318, "lon": 29.6603342}, {"type": "node", "id": 3126071948, "lat": 40.7021939, "lon": 29.66092}, {"type": "node", "id": 3126071949, "lat": 40.7020228, "lon": 29.661064}, {"type": "node", "id": 3126071950, "lat": 40.7018335, "lon": 29.6605839}, {"type": "node", "id": 3126071951, "lat": 40.7017753, "lon": 29.6604543}, {"type": "node", "id": 3126156875, "lat": 40.7050906, "lon": 29.6845559, "tags": {"addr:street": "Barbaros Hayrettin Bulvar\u0131", "amenity": "restaurant", "cuisine": "Et_Mangal", "name": "Kadirin Yeri", "smoking": "outside", "wheelchair": "yes"}}, {"type": "node", "id": 3384735187, "lat": 40.9507968, "lon": 29.3915917}, {"type": "node", "id": 3465451511, "lat": 40.8901161, "lon": 29.3787108}, {"type": "node", "id": 3465526404, "lat": 40.8902596, "lon": 29.3786535}, {"type": "node", "id": 3465526405, "lat": 40.8902892, "lon": 29.3787923}, {"type": "node", "id": 3465526406, "lat": 40.8901554, "lon": 29.3788473}, {"type": "node", "id": 3465585304, "lat": 40.891466, "lon": 29.3802005, "tags": {"amenity": "cafe", "brand": "Starbucks", "brand:wikidata": "Q37158", "brand:wikipedia": "en:Starbucks", "cuisine": "coffee_shop", "name": "Starbucks", "takeaway": "yes"}}, {"type": "node", "id": 3465585305, "lat": 40.8914316, "lon": 29.3798733, "tags": {"amenity": "restaurant", "cuisine": "regional;sandwich;chicken", "name": "Dining Hall"}}, {"type": "node", "id": 3465585382, "lat": 40.8918552, "lon": 29.3814191, "tags": {"amenity": "cafe", "cuisine": "\u0131zgara_tavuk;\u0131zgara_k\u00f6fte;\u00e7\u0131t\u0131r_fetuccini", "name": "Piazza"}}, {"type": "node", "id": 3465585384, "lat": 40.8915734, "lon": 29.3814486, "tags": {"amenity": "cafe", "cuisine": "turkish", "name": "Espressolab", "outdoor_seating": "yes"}}, {"type": "node", "id": 3709697720, "lat": 40.8791751, "lon": 29.2351484, "tags": {"amenity": "restaurant", "name": "Uzunlar Kebap"}}, {"type": "node", "id": 3762317834, "lat": 40.768405, "lon": 29.4235675, "tags": {"amenity": "cafe"}}, {"type": "node", "id": 3762318174, "lat": 40.7683197, "lon": 29.4234441, "tags": {"amenity": "restaurant"}}, {"type": "node", "id": 3762318192, "lat": 40.6908329, "lon": 29.4345632, "tags": {"amenity": "cafe"}}, {"type": "node", "id": 4192312548, "lat": 40.8776788, "lon": 29.4833901, "tags": {"addr:street": "Gebze - Kocaeli", "amenity": "restaurant", "cuisine": "turkish", "internet_access": "wlan", "name": "Doga ciftligi", "opening_hours": "24/7", "phone": "+90 (262) 727 36 68"}}, {"type": "node", "id": 4344443587, "lat": 41.1352793, "lon": 29.2948318}, {"type": "node", "id": 4344443588, "lat": 41.1353331, "lon": 29.2949067}, {"type": "node", "id": 4344445089, "lat": 41.1352639, "lon": 29.2949909}, {"type": "node", "id": 4344445090, "lat": 41.13521, "lon": 29.2949058}, {"type": "node", "id": 4352698395, "lat": 40.9109214, "lon": 29.1962729, "tags": {"amenity": "restaurant", "cuisine": "fish", "name": "Mavi Sandal Balikcisi"}}, {"type": "node", "id": 4367630390, "lat": 40.8140857, "lon": 29.2886654, "tags": {"amenity": "restaurant", "name": "Hungry Ghost"}}, {"type": "node", "id": 4371188637, "lat": 41.1016598, "lon": 29.2903833, "tags": {"amenity": "cafe", "brand": "Starbucks", "brand:wikidata": "Q37158", "cuisine": "coffee_shop", "name": "Starbucks", "official_name": "Starbucks Coffee", "takeaway": "yes"}}, {"type": "node", "id": 4371188642, "lat": 41.0907899, "lon": 29.2872989, "tags": {"amenity": "cafe", "brand": "Starbucks", "brand:wikidata": "Q37158", "cuisine": "coffee_shop", "name": "Starbucks", "official_name": "Starbucks Coffee", "takeaway": "yes"}}, {"type": "node", "id": 4371188643, "lat": 41.0899632, "lon": 29.286834, "tags": {"amenity": "restaurant", "branch": "\u0130stanbul \u00d6merli YSS", "brand": "K\u00f6fteci Yusuf", "brand:wikidata": "Q126125081", "cuisine": "turkish", "name": "K\u00f6fteci Yusuf", "opening_hours": "Mo-Su 06:00-00:00"}}, {"type": "node", "id": 4375403789, "lat": 41.028279, "lon": 29.1891658, "tags": {"amenity": "restaurant", "name": "Chinese & Sushi Express", "name:en": "sushi express"}}, {"type": "node", "id": 4384312003, "lat": 40.8123863, "lon": 29.2675418}, {"type": "node", "id": 4384312004, "lat": 40.8125955, "lon": 29.267615}, {"type": "node", "id": 4384312005, "lat": 40.8125279, "lon": 29.2679361}, {"type": "node", "id": 4384312006, "lat": 40.8124786, "lon": 29.267928}, {"type": "node", "id": 4384312007, "lat": 40.8124571, "lon": 29.267993}, {"type": "node", "id": 4384312008, "lat": 40.8122417, "lon": 29.2679077}, {"type": "node", "id": 4384312009, "lat": 40.8123002, "lon": 29.2676434}, {"type": "node", "id": 4384312010, "lat": 40.8123648, "lon": 29.2676475}, {"type": "node", "id": 4384312011, "lat": 40.8120325, "lon": 29.2668628}, {"type": "node", "id": 4384312012, "lat": 40.8122479, "lon": 29.2669401}, {"type": "node", "id": 4384312013, "lat": 40.8122479, "lon": 29.2668954}, {"type": "node", "id": 4384312014, "lat": 40.8123186, "lon": 29.2669198}, {"type": "node", "id": 4384312015, "lat": 40.8123894, "lon": 29.2665986}, {"type": "node", "id": 4384312016, "lat": 40.8121432, "lon": 29.2665051}, {"type": "node", "id": 4384312017, "lat": 40.8121186, "lon": 29.2666027}, {"type": "node", "id": 4384312018, "lat": 40.8120848, "lon": 29.2665864}, {"type": "node", "id": 4411131290, "lat": 41.027371, "lon": 29.1799985, "tags": {"amenity": "cafe", "name:en": "Teras Cafe"}}, {"type": "node", "id": 4463605090, "lat": 41.1244157, "lon": 29.2844105, "tags": {"addr:housenumber": "7", "addr:postcode": "34799", "addr:street": "Dildar sok", "amenity": "restaurant", "email": "iletisim@piknikyeri.com", "internet_access": "wlan", "name:tr": "piknikyeri.com", "phone": "02164345865", "website": "http://www.piknikyeri.com"}}, {"type": "node", "id": 4502568641, "lat": 41.0278166, "lon": 29.1941581, "tags": {"amenity": "cafe", "name": "Do\u011fa Park Kafe"}}, {"type": "node", "id": 4517441289, "lat": 40.9638644, "lon": 29.2157298, "tags": {"amenity": "restaurant", "name": "Marmara Et", "name:en": "Marmara Meat", "name:tr": "Marmara Et", "phone": "02165610046"}}, {"type": "node", "id": 4538589103, "lat": 40.7961444, "lon": 29.4426951, "tags": {"amenity": "cafe", "name": "\u00d6zs\u00fct"}}, {"type": "node", "id": 4538597089, "lat": 40.7952703, "lon": 29.4428942, "tags": {"amenity": "restaurant", "cuisine": "kebab", "ele": "3", "name": "Hd \u0130skender"}}, {"type": "node", "id": 4538600092, "lat": 40.7961833, "lon": 29.4418385, "tags": {"amenity": "cafe", "cuisine": "coffee_shop", "ele": "0", "name": "Kahve D\u00fcnyas\u0131"}}, {"type": "node", "id": 4539652755, "lat": 40.9590536, "lon": 29.1842671}, {"type": "node", "id": 4539652756, "lat": 40.9589472, "lon": 29.1841876}, {"type": "node", "id": 4539652757, "lat": 40.9589022, "lon": 29.184293}, {"type": "node", "id": 4539652758, "lat": 40.9589154, "lon": 29.1843028}, {"type": "node", "id": 4539652759, "lat": 40.9588982, "lon": 29.184343}, {"type": "node", "id": 4539652760, "lat": 40.9589915, "lon": 29.1844127}, {"type": "node", "id": 4547838230, "lat": 41.008876, "lon": 29.2120007, "tags": {"amenity": "restaurant", "cuisine": "kebab", "name": "\u015fark kebap salonu", "smoking": "no"}}, {"type": "node", "id": 4547888216, "lat": 40.906871, "lon": 29.1779474, "tags": {"amenity": "cafe", "cuisine": "pasta", "internet_access": "yes", "name": "An\u00e7era Pastanesi", "smoking": "no"}}, {"type": "node", "id": 4548015246, "lat": 41.0328137, "lon": 29.1767216, "tags": {"addr:city": "\u0130stanbul \u00c7ekmek\u00f6y", "addr:postcode": "34782", "addr:street": "Mimar Sinan Caddesi", "amenity": "restaurant", "name": "Naz Bal\u0131k"}}, {"type": "node", "id": 4548017790, "lat": 41.0328055, "lon": 29.1765253, "tags": {"addr:city": "\u0130stanbul", "addr:district": "\u00c7ekmek\u00f6y", "addr:neighbourhood": "Mimar Sinan Mahallesi", "addr:postcode": "34782", "addr:street": "Mimar Sinan Caddesi", "amenity": "restaurant", "capacity": "20", "cuisine": "turkish", "delivery": "yes", "name": "G\u00fcne\u015f Patso", "outdoor_seating": "yes", "phone": "+90 216 641 23 48", "smoking": "outside", "takeaway": "yes"}}, {"type": "node", "id": 4549040570, "lat": 41.0512488, "lon": 29.2400655, "tags": {"amenity": "restaurant", "name": "Karadeniz Pidecisi Macit Usta"}}, {"type": "node", "id": 4549492799, "lat": 41.0086861, "lon": 29.2130668, "tags": {"amenity": "restaurant", "name": "Keyif restoran", "wheelchair": "yes"}}, {"type": "node", "id": 4549498593, "lat": 41.0093864, "lon": 29.2121363, "tags": {"amenity": "restaurant", "cuisine": "kebab", "name": "\u00c7ukur Ova D\u00fcr\u00fcmc\u00fc"}}, {"type": "node", "id": 4549507619, "lat": 41.0100794, "lon": 29.2113106, "tags": {"amenity": "restaurant", "cuisine": "steak_house", "name": "Zeki D\u00f6ner"}}, {"type": "node", "id": 4549509320, "lat": 41.0100683, "lon": 29.2113742, "tags": {"amenity": "restaurant", "cuisine": "kebab", "name": "Narin"}}, {"type": "node", "id": 4550664590, "lat": 40.9016545, "lon": 29.1471276, "tags": {"amenity": "restaurant", "name": "\u0130BB Dragos Sosyal Tesisleri", "name:tr": "\u0130BB Dragos Sosyal Tesisleri"}}, {"type": "node", "id": 4551323033, "lat": 41.008552, "lon": 29.2111737, "tags": {"amenity": "cafe", "internet_access": "yes", "name": "Emre Pastanesi"}}, {"type": "node", "id": 4551332733, "lat": 41.0089963, "lon": 29.2161846, "tags": {"amenity": "cafe", "cuisine": "coffee", "internet_access": "no", "name": "Gelincik K\u0131rathanesi", "smoking": "no", "wheelchair": "limited"}}, {"type": "node", "id": 4560468885, "lat": 41.0078951, "lon": 29.216045, "tags": {"amenity": "cafe", "internet_access": "wlan", "name": "Sar\u0131gazi Taxi", "smoking": "no"}}, {"type": "node", "id": 4560484921, "lat": 40.9214968, "lon": 29.1567305}, {"type": "node", "id": 4560484922, "lat": 40.9214489, "lon": 29.1568905}, {"type": "node", "id": 4560484923, "lat": 40.9212496, "lon": 29.156786}, {"type": "node", "id": 4560484924, "lat": 40.921313, "lon": 29.1565745}, {"type": "node", "id": 4565566037, "lat": 41.0086121, "lon": 29.214324, "tags": {"amenity": "cafe", "internet_access": "wlan", "name": "Asl\u0131 cafe", "smoking": "no", "wheelchair": "yes"}}, {"type": "node", "id": 4565574897, "lat": 41.0112662, "lon": 29.217575, "tags": {"amenity": "cafe", "cuisine": "coffee_shop", "internet_access": "no", "name": "Cemre cafe", "smoking": "no"}}, {"type": "node", "id": 4570507705, "lat": 40.8961108, "lon": 29.1851499, "tags": {"amenity": "restaurant", "name": "Ali\u015fan Usta"}}, {"type": "node", "id": 4570889595, "lat": 41.0099302, "lon": 29.2155188, "tags": {"amenity": "cafe", "brand": "Simit Saray\u0131", "brand:wikidata": "Q28042608", "internet_access": "wlan", "name": "Simit Saray\u0131", "outdoor_seating": "terrace", "shop": "bakery", "smoking": "no"}}, {"type": "node", "id": 4571489350, "lat": 41.0086713, "lon": 29.2089429, "tags": {"amenity": "cafe", "cuisine": "coffee", "name": "\u00d6m\u00fcr Kahvesi"}}, {"type": "node", "id": 4571511807, "lat": 41.0092234, "lon": 29.2092401, "tags": {"amenity": "cafe", "name": "Twins"}}, {"type": "node", "id": 4571513186, "lat": 41.0100568, "lon": 29.2095427, "tags": {"amenity": "cafe", "name": "Kordon Kafe"}}, {"type": "node", "id": 4571515279, "lat": 41.0091371, "lon": 29.2084932, "tags": {"amenity": "restaurant", "cuisine": "kebab", "name": "Kolcuo\u011flu", "outdoor_seating": "terrace", "smoking": "no"}}, {"type": "node", "id": 4572951471, "lat": 41.0099165, "lon": 29.2130037, "tags": {"amenity": "cafe", "name": "Ye\u015fil kafe"}}, {"type": "node", "id": 4573254499, "lat": 40.7985429, "lon": 29.4396654, "tags": {"amenity": "restaurant", "cuisine": "fast_food", "name": "Kumrucu U\u011fur", "outdoor_seating": "yes", "smoking": "outside", "takeaway": "yes"}}, {"type": "node", "id": 4573304676, "lat": 40.7986782, "lon": 29.4400929, "tags": {"amenity": "restaurant", "cuisine": "regional", "name": "Konya Lezzetleri", "outdoor_seating": "no", "smoking": "no"}}, {"type": "node", "id": 4574510553, "lat": 41.0088355, "lon": 29.2152454, "tags": {"amenity": "cafe", "cuisine": "coffee", "internet_access": "wlan", "name": "Sandoz Kafe", "smoking": "isolated", "wheelchair": "no"}}, {"type": "node", "id": 4577201683, "lat": 40.9573286, "lon": 29.1816943, "tags": {"amenity": "cafe", "name": "Molero"}}, {"type": "node", "id": 4579847814, "lat": 40.7951008, "lon": 29.442609, "tags": {"amenity": "cafe"}}, {"type": "node", "id": 4579908863, "lat": 40.7956023, "lon": 29.4333678}, {"type": "node", "id": 4579908864, "lat": 40.7956768, "lon": 29.4336055}, {"type": "node", "id": 4579908865, "lat": 40.7955267, "lon": 29.4336876}, {"type": "node", "id": 4579908866, "lat": 40.7954522, "lon": 29.4334499}, {"type": "node", "id": 4579908875, "lat": 40.7957445, "lon": 29.4336257}, {"type": "node", "id": 4579908876, "lat": 40.7957931, "lon": 29.4338557}, {"type": "node", "id": 4579908877, "lat": 40.7955991, "lon": 29.433944}, {"type": "node", "id": 4579908878, "lat": 40.7955356, "lon": 29.433714}, {"type": "node", "id": 4580466292, "lat": 40.8895868, "lon": 29.1811472, "tags": {"amenity": "cafe", "name": "Nehir pastanesi", "name:tr": "Nehir pastanesi"}}, {"type": "node", "id": 4580489289, "lat": 40.889747, "lon": 29.1789816, "tags": {"amenity": "cafe", "name": "Manolya pastanesi", "name:tr": "Manolya pastanesi"}}, {"type": "node", "id": 4580491390, "lat": 40.8886413, "lon": 29.1859143, "tags": {"amenity": "restaurant", "name": "Intiba", "name:tr": "Intiba"}}, {"type": "node", "id": 4631874289, "lat": 40.887012, "lon": 29.1889127, "tags": {"addr:housenumber": "11", "amenity": "restaurant", "name": "Sahil Mercan Balik", "name:en": "Sahil Mercan  Fish", "name:tr": "Sahil Mercan Balik", "phone": "02165172710"}}, {"type": "node", "id": 4681000089, "lat": 40.7550131, "lon": 29.384487, "tags": {"amenity": "restaurant", "name:en": "Dar\u0131ca Sahil \u0645\u0637\u0639\u0645", "toilets:wheelchair": "yes", "wheelchair": "yes"}}, {"type": "node", "id": 4681005189, "lat": 40.8173802, "lon": 29.3178759, "tags": {"amenity": "restaurant", "name": "Develi kebap", "name:en": "Develi kebap tuzla \u0645\u0637\u0639\u0645  \u062a\u0648\u0632\u0644\u0627"}}, {"type": "node", "id": 4820985190, "lat": 40.8462789, "lon": 29.2948767}, {"type": "node", "id": 4820985191, "lat": 40.8465019, "lon": 29.2943706}, {"type": "node", "id": 4820985192, "lat": 40.8463016, "lon": 29.2942318}, {"type": "node", "id": 4820985193, "lat": 40.8461728, "lon": 29.2944824}, {"type": "node", "id": 4820985194, "lat": 40.8460467, "lon": 29.2943909}, {"type": "node", "id": 4820985195, "lat": 40.8459775, "lon": 29.2946023}, {"type": "node", "id": 4826854524, "lat": 40.9011268, "lon": 29.1468254, "tags": {"amenity": "restaurant"}}, {"type": "node", "id": 4826857222, "lat": 40.8966091, "lon": 29.16401, "tags": {"amenity": "cafe", "name": "Palmiye Cafe"}}, {"type": "node", "id": 4831180302, "lat": 40.9665264, "lon": 29.2639292, "tags": {"amenity": "restaurant", "name": "Hanedan Kebap"}}, {"type": "node", "id": 4831180307, "lat": 40.9664214, "lon": 29.2642112, "tags": {"amenity": "cafe", "name": "Pipa Cafe"}}, {"type": "node", "id": 4834853516, "lat": 40.9673584, "lon": 29.2667287, "tags": {"amenity": "restaurant", "name": "Nacio\u011flu"}}, {"type": "node", "id": 4853116364, "lat": 40.9676797, "lon": 29.2672112, "tags": {"amenity": "cafe", "internet_access": "yes", "internet_access:fee": "no", "name": "Osmanl\u0131 Ota\u011f\u0131"}}, {"type": "node", "id": 4853252953, "lat": 40.9661585, "lon": 29.2689354, "tags": {"amenity": "restaurant", "name": "Fatih Kebap Salonu"}}, {"type": "node", "id": 4869592390, "lat": 40.9652096, "lon": 29.268208, "tags": {"amenity": "cafe", "name": "Camelot"}}, {"type": "node", "id": 4927027524, "lat": 40.8906574, "lon": 29.2703921, "tags": {"amenity": "cafe"}}, {"type": "node", "id": 4978044099, "lat": 40.8689877, "lon": 29.2644117, "tags": {"amenity": "restaurant", "cuisine": "barbecue;meat", "name": "Yali Mangal", "outdoor_seating": "no"}}, {"type": "node", "id": 5010829824, "lat": 40.9232569, "lon": 29.301137, "tags": {"addr:city": "\u0130stanbul", "addr:district": "Pendik", "addr:neighbourhood": "Yeni\u015fehir Mahallesi", "addr:street": "Millet Caddesi", "amenity": "cafe", "cuisine": "coffee_shop;breakfast;turkish", "name": "Park Cafe", "outdoor_seating": "yes"}}, {"type": "node", "id": 5031730440, "lat": 41.0897558, "lon": 29.2867255, "tags": {"amenity": "restaurant"}}, {"type": "node", "id": 5112234424, "lat": 40.9391309, "lon": 29.3242776, "tags": {"amenity": "cafe", "brand": "Starbucks", "brand:wikidata": "Q37158", "brand:wikipedia": "en:Starbucks", "cuisine": "coffee_shop", "name": "Starbucks", "name:en": "Starbucks", "official_name": "Starbucks Coffee", "takeaway": "yes"}}, {"type": "node", "id": 5126989527, "lat": 40.9158731, "lon": 29.2050985, "tags": {"amenity": "restaurant", "name": "Karadeniz Pide Kebab Salonu", "name:en": "Karadeniz Turkish Pizza", "phone": "02164524343"}}, {"type": "node", "id": 5139200626, "lat": 41.0140181, "lon": 29.1774352, "tags": {"amenity": "cafe", "brand": "Starbucks", "brand:wikidata": "Q37158", "brand:wikipedia": "en:Starbucks", "cuisine": "coffee_shop", "internet_access": "wlan", "name": "Starbucks", "official_name": "Starbucks Coffee", "opening_hours": "Mo-Su 10:00-22:00", "takeaway": "yes"}}, {"type": "node", "id": 5139922621, "lat": 40.8751476, "lon": 29.2316829, "tags": {"addr:city": "\u0130stanbul", "addr:district": "Pendik", "addr:street": "Gezi Boyu Caddesi", "amenity": "cafe", "cuisine": "breakfast;grill;tea;mediterranean;coffee_shop;local;chicken;turkish", "name": "Yemen Kahvesi", "operator": "yemenkahvesipendik", "phone": "02163545253", "website": "https://www.yemenkahvesi.com.tr/"}}, {"type": "node", "id": 5240436921, "lat": 40.9199604, "lon": 29.2170445, "tags": {"amenity": "restaurant", "name": "Yakac\u0131k \u0130nci Eczanesi", "phone": "0216 451 90 91"}}, {"type": "node", "id": 5247597390, "lat": 41.0407224, "lon": 29.1829982, "tags": {"addr:city": "\u0130stanbul", "addr:district": "\u00c7ekmek\u00f6y", "addr:neighbourhood": "Merkez Mahallesi", "addr:postcode": "34782", "addr:street": "K\u00f6ro\u011flu Caddesi", "amenity": "restaurant", "cuisine": "turkish", "name": "Arsemia \u00c7i\u011fk\u00f6fte", "outdoor_seating": "no", "smoking": "outside"}}, {"type": "node", "id": 5247681035, "lat": 41.0409687, "lon": 29.1819764, "tags": {"addr:city": "\u0130stanbul", "addr:district": "\u00c7ekmek\u00f6y", "addr:neighbourhood": "Merkez Mahallesi", "addr:postcode": "34782", "addr:street": "K\u00f6ro\u011flu Caddesi", "amenity": "restaurant", "name": "\u00c7i\u011fk\u00f6fteci \u00d6mer Usta"}}, {"type": "node", "id": 5255962240, "lat": 41.0308276, "lon": 29.1723924, "tags": {"amenity": "restaurant", "name": "Limon \u00c7i\u00e7e\u011fi Restaurant", "opening_hours": "Mo-Su 07:00-22:00"}}, {"type": "node", "id": 5255962261, "lat": 41.0305828, "lon": 29.1726928, "tags": {"amenity": "cafe", "name": "Asl\u0131 B\u00f6rek Cafe"}}, {"type": "node", "id": 5255962262, "lat": 41.0305165, "lon": 29.17266, "tags": {"amenity": "cafe", "name": "Hasan Usta S\u00fctl\u00fc Tatl\u0131lar\u0131"}}, {"type": "node", "id": 5255962264, "lat": 41.0304518, "lon": 29.1726338, "tags": {"amenity": "cafe", "name": "Manolya"}}, {"type": "node", "id": 5255988087, "lat": 41.040653, "lon": 29.1822324, "tags": {"amenity": "cafe", "name": "\u00c7ekmek\u00f6y B\u00f6rek\u00e7isi"}}, {"type": "node", "id": 5257539405, "lat": 40.8935074, "lon": 29.1711327, "tags": {"amenity": "restaurant", "name": "Vesta"}}, {"type": "node", "id": 5259665241, "lat": 41.0013112, "lon": 29.1639613, "tags": {"amenity": "restaurant", "name": "Nevazen T\u00fcrk Mutfa\u011f\u0131"}}, {"type": "node", "id": 5260622734, "lat": 41.0427463, "lon": 29.1770403, "tags": {"amenity": "cafe", "name": "Giardino Cappuccino Cafe & Bistro"}}, {"type": "node", "id": 5262246762, "lat": 41.0153353, "lon": 29.190167}, {"type": "node", "id": 5262246763, "lat": 41.0153616, "lon": 29.1900865}, {"type": "node", "id": 5262246764, "lat": 41.0152705, "lon": 29.1900302}, {"type": "node", "id": 5262246765, "lat": 41.0152381, "lon": 29.1901348}, {"type": "node", "id": 5262246771, "lat": 41.015649, "lon": 29.1902072, "tags": {"amenity": "restaurant", "name": "Ero\u011flu Aile \u0130\u015fkembe Salonu"}}, {"type": "node", "id": 5262246777, "lat": 41.0167883, "lon": 29.1904567, "tags": {"amenity": "restaurant", "name": "\u015eirin Mutfak Ev Yemekleri"}}, {"type": "node", "id": 5262246780, "lat": 41.0172214, "lon": 29.1909368, "tags": {"amenity": "cafe", "name": "Damla Kafe"}}, {"type": "node", "id": 5263372348, "lat": 40.9444057, "lon": 29.1536456}, {"type": "node", "id": 5263372349, "lat": 40.944482, "lon": 29.1537489}, {"type": "node", "id": 5263372350, "lat": 40.9443777, "lon": 29.153884}, {"type": "node", "id": 5263372351, "lat": 40.9443013, "lon": 29.1537806}, {"type": "node", "id": 5263514540, "lat": 40.7610748, "lon": 29.3839062, "tags": {"amenity": "restaurant", "name": "Kiremit Mangalba\u015f\u0131"}}, {"type": "node", "id": 5263655926, "lat": 40.758968, "lon": 29.3840841, "tags": {"amenity": "restaurant", "name": "Esnaf Lokantas\u0131"}}, {"type": "node", "id": 5265594577, "lat": 40.7591879, "lon": 29.3855364, "tags": {"amenity": "restaurant"}}, {"type": "node", "id": 5265594782, "lat": 40.7574675, "lon": 29.3838451}, {"type": "node", "id": 5265594783, "lat": 40.7573679, "lon": 29.3838609}, {"type": "node", "id": 5265594784, "lat": 40.7573921, "lon": 29.3841258}, {"type": "node", "id": 5265594785, "lat": 40.7574917, "lon": 29.3841099}, {"type": "node", "id": 5265594795, "lat": 40.75823, "lon": 29.3844406, "tags": {"amenity": "restaurant", "name": "Nostalji Mant\u0131"}}, {"type": "node", "id": 5266593604, "lat": 40.9086061, "lon": 29.2417794}, {"type": "node", "id": 5266593605, "lat": 40.9085462, "lon": 29.2417184}, {"type": "node", "id": 5266593606, "lat": 40.9084002, "lon": 29.2420071}, {"type": "node", "id": 5266593607, "lat": 40.9084632, "lon": 29.2420559}, {"type": "node", "id": 5267551129, "lat": 40.7586667, "lon": 29.3843935, "tags": {"amenity": "restaurant", "name": "Gaziantep Lokantas\u0131"}}, {"type": "node", "id": 5268566103, "lat": 40.8752346, "lon": 29.2543606, "tags": {"amenity": "restaurant", "name": "Beyo\u011flu \u00c7orbac\u0131s\u0131"}}, {"type": "node", "id": 5268566921, "lat": 40.8753586, "lon": 29.2538622, "tags": {"amenity": "restaurant", "name": "Halis \u015eef"}}, {"type": "node", "id": 5268566940, "lat": 40.8754145, "lon": 29.2551109, "tags": {"amenity": "restaurant", "name": "\u00d6zeyvan"}}, {"type": "node", "id": 5269969246, "lat": 40.8949357, "lon": 29.1832973, "tags": {"addr:housenumber": "3a", "amenity": "cafe", "name": "D\u00fckkanlar"}}, {"type": "node", "id": 5270316074, "lat": 40.879303, "lon": 29.2422359, "tags": {"amenity": "restaurant", "name": "\u00d6zkaradeniz"}}, {"type": "node", "id": 5270316075, "lat": 40.8793838, "lon": 29.2425269, "tags": {"amenity": "restaurant", "name": "Arsemia \u00c7i\u011fk\u00f6fte"}}, {"type": "node", "id": 5270316086, "lat": 40.8808045, "lon": 29.24078, "tags": {"amenity": "restaurant", "name": "Lalezar D\u00f6ner"}}, {"type": "node", "id": 5270316096, "lat": 40.8758098, "lon": 29.2482962, "tags": {"amenity": "cafe", "name": "Botanik Cafe"}}, {"type": "node", "id": 5270387393, "lat": 40.8049702, "lon": 29.3874944}, {"type": "node", "id": 5270387394, "lat": 40.8050027, "lon": 29.3875697}, {"type": "node", "id": 5270387395, "lat": 40.8049501, "lon": 29.3876123}, {"type": "node", "id": 5270387396, "lat": 40.8049138, "lon": 29.3875369}, {"type": "node", "id": 5275513487, "lat": 40.7631275, "lon": 29.3907971, "tags": {"amenity": "restaurant", "name": "Uzunyayla D\u00f6ner"}}, {"type": "node", "id": 5275513493, "lat": 40.7634902, "lon": 29.390974, "tags": {"amenity": "restaurant", "name": "Polat Izgara"}}, {"type": "node", "id": 5279814611, "lat": 41.0324329, "lon": 29.1812866, "tags": {"amenity": "restaurant", "cuisine": "turkish", "name": "\u00c7ekmek\u00f6y Nefist D\u00f6ner", "opening_hours": "Mo-Su 08:00-20:00", "phone": "+90 216 642 90 85"}}, {"type": "node", "id": 5279814612, "lat": 41.0322518, "lon": 29.1813523, "tags": {"addr:city": "\u0130stanbul", "addr:district": "\u00c7ekmek\u00f6y", "addr:neighbourhood": "Mimar Sinan Mahallesi", "addr:postcode": "34782", "addr:street": "Selim Dede Caddesi", "addr:unit": "50/A1", "amenity": "cafe", "name": "Geyik Cafe", "opening_hours": "Mo-Su 08:00-00:00"}}, {"type": "node", "id": 5279814822, "lat": 41.0406905, "lon": 29.1798691}, {"type": "node", "id": 5279814823, "lat": 41.0407218, "lon": 29.1797484}, {"type": "node", "id": 5279814824, "lat": 41.0405934, "lon": 29.179692}, {"type": "node", "id": 5279814825, "lat": 41.0405741, "lon": 29.1797484}, {"type": "node", "id": 5279814826, "lat": 41.0405529, "lon": 29.1798396}, {"type": "node", "id": 5280791169, "lat": 40.796411, "lon": 29.3700819, "tags": {"amenity": "cafe", "name": "\u00c7ay Oca\u011f\u0131"}}, {"type": "node", "id": 5281555058, "lat": 40.8856658, "lon": 29.2355395, "tags": {"addr:city": "Pendik, \u0130stanbul", "addr:housenumber": "5", "addr:neighbourhood": "bah\u00e7elievler mah.", "addr:street": "ka\u015fmir sokak", "amenity": "restaurant", "capacity": "100", "cuisine": "turkish", "delivery": "yes", "name": "Han\u0131meli Bo\u015fnak B\u00f6rek\u00e7isi", "opening_hours": "Mo-Su 10:00-22:00", "outdoor_seating": "yes", "smoking": "outside", "takeaway": "yes"}}, {"type": "node", "id": 5282849947, "lat": 40.9016109, "lon": 29.1738875, "tags": {"amenity": "cafe", "name": "Roka Pastanesi"}}, {"type": "node", "id": 5282877620, "lat": 40.907492, "lon": 29.1775509, "tags": {"amenity": "cafe", "name": "K\u0131y\u0131 Pasta Cafe"}}, {"type": "node", "id": 5282877660, "lat": 40.9072568, "lon": 29.1778299, "tags": {"amenity": "cafe", "name": "Marvelatte"}}, {"type": "node", "id": 5282880599, "lat": 40.9064216, "lon": 29.1764137, "tags": {"amenity": "cafe", "name": "T!REN34 Cafe"}}, {"type": "node", "id": 5282920287, "lat": 40.8994865, "lon": 29.170811, "tags": {"amenity": "cafe", "name": "Nargile Cafe"}}, {"type": "node", "id": 5282920303, "lat": 40.8991573, "lon": 29.1693534, "tags": {"amenity": "cafe", "name": "Pe\u00e7ko"}}, {"type": "node", "id": 5282929205, "lat": 40.8989354, "lon": 29.1701061, "tags": {"amenity": "restaurant", "name": "Atalar Kordor"}}, {"type": "node", "id": 5282932801, "lat": 40.8987162, "lon": 29.1706918, "tags": {"amenity": "restaurant", "name": "Mangalc\u0131"}}, {"type": "node", "id": 5282938550, "lat": 40.8965333, "lon": 29.1663176, "tags": {"amenity": "cafe", "name": "Mavi Cafe"}}, {"type": "node", "id": 5282941884, "lat": 40.8967655, "lon": 29.1689364, "tags": {"amenity": "cafe", "name": "Ata Cafe"}}, {"type": "node", "id": 5283704769, "lat": 40.8968915, "lon": 29.1678371, "tags": {"amenity": "cafe", "name": "Ye\u015fil Bah\u00e7e"}}, {"type": "node", "id": 5283717938, "lat": 40.8967067, "lon": 29.1676005, "tags": {"amenity": "cafe", "name": "Serez Dondurma"}}, {"type": "node", "id": 5283734190, "lat": 40.8972277, "lon": 29.1653611}, {"type": "node", "id": 5283734191, "lat": 40.8970655, "lon": 29.165691}, {"type": "node", "id": 5283734192, "lat": 40.8972602, "lon": 29.1658707}, {"type": "node", "id": 5283734193, "lat": 40.8974102, "lon": 29.1655381}, {"type": "node", "id": 5283737954, "lat": 40.8971129, "lon": 29.1648367, "tags": {"amenity": "cafe", "name": "Papatya \u00c7ay Bah\u00e7esi"}}, {"type": "node", "id": 5284675951, "lat": 40.8819253, "lon": 29.2385688, "tags": {"amenity": "restaurant", "name": "\u00f6zeyvan"}}, {"type": "node", "id": 5285621785, "lat": 41.0337545, "lon": 29.1752639, "tags": {"amenity": "restaurant", "cuisine": "turkish", "delivery": "yes", "name": "Elif Kokore\u00e7", "outdoor_seating": "yes", "phone": "+90 216 642 75 35", "takeaway": "yes"}}, {"type": "node", "id": 5285621786, "lat": 41.0338131, "lon": 29.1752672, "tags": {"amenity": "restaurant", "cuisine": "turkish", "name": "Alta\u015f Et Mangal"}}, {"type": "node", "id": 5286777905, "lat": 40.7966616, "lon": 29.3682392, "tags": {"amenity": "cafe", "cuisine": "turkish;burger;coffee_shop", "name": "UZUN Cafe"}}, {"type": "node", "id": 5287973689, "lat": 40.8885357, "lon": 29.2314894, "tags": {"addr:neighbourhood": "bah\u00e7elievler", "addr:street": "mutluluk sokak", "amenity": "restaurant", "capacity": "100", "cuisine": "turkish", "delivery": "yes", "name": "mevlana simit f\u0131r\u0131n", "opening_hours": "Mo-Su 08:00-22:00", "outdoor_seating": "yes", "smoking": "outside", "takeaway": "only"}}, {"type": "node", "id": 5288043211, "lat": 40.8932362, "lon": 29.1714978, "tags": {"amenity": "restaurant", "name": "Kumluk Restaurant"}}, {"type": "node", "id": 5288048361, "lat": 40.8944203, "lon": 29.1698938, "tags": {"amenity": "cafe", "name": "Pelit"}}, {"type": "node", "id": 5288048362, "lat": 40.8921231, "lon": 29.1718172, "tags": {"amenity": "cafe", "name": "Beltur", "toilets:wheelchair": "yes", "wheelchair": "yes"}}, {"type": "node", "id": 5288063311, "lat": 40.8916344, "lon": 29.1744482, "tags": {"amenity": "cafe", "name": "Mart\u0131 Cafe Restaurant"}}, {"type": "node", "id": 5288364836, "lat": 40.8969139, "lon": 29.1853823, "tags": {"amenity": "cafe"}}, {"type": "node", "id": 5288593730, "lat": 41.0063738, "lon": 29.1896715, "tags": {"amenity": "cafe"}}, {"type": "node", "id": 5288593791, "lat": 41.0133009, "lon": 29.1970244}, {"type": "node", "id": 5288593792, "lat": 41.0131595, "lon": 29.1969783}, {"type": "node", "id": 5288593794, "lat": 41.0132935, "lon": 29.1972864}, {"type": "node", "id": 5290135993, "lat": 40.9040144, "lon": 29.1794909, "tags": {"amenity": "cafe", "name": "Zeytinlik Cafe"}}, {"type": "node", "id": 5292639055, "lat": 40.7975434, "lon": 29.3681199, "tags": {"amenity": "cafe", "name": "HASAT unlu mam\u00fclleri"}}, {"type": "node", "id": 5292639165, "lat": 40.7992525, "lon": 29.3679616, "tags": {"amenity": "restaurant", "name": "\u00d6rnek lokantas\u0131"}}, {"type": "node", "id": 5292698146, "lat": 40.7818569, "lon": 29.37428, "tags": {"amenity": "restaurant", "name": "Kanatc\u0131 Adana Sofras\u0131"}}, {"type": "node", "id": 5293754885, "lat": 40.7878986, "lon": 29.3462594, "tags": {"amenity": "cafe", "name": "Sar\u0131yer Cafe"}}, {"type": "node", "id": 5293754887, "lat": 40.7880833, "lon": 29.3457797, "tags": {"amenity": "cafe", "name": "Mikonun Yeri"}}, {"type": "node", "id": 5293824451, "lat": 40.7897973, "lon": 29.3377438, "tags": {"amenity": "cafe", "name": "Cad\u0131 Kazan\u0131 Cafe Butik"}}, {"type": "node", "id": 5293824453, "lat": 40.7890508, "lon": 29.3395925, "tags": {"amenity": "cafe", "name": "Limon Cafe"}}, {"type": "node", "id": 5293915434, "lat": 40.7964751, "lon": 29.3685952, "tags": {"amenity": "cafe", "name": "Uzunca Cafe"}}, {"type": "node", "id": 5294058867, "lat": 40.7860454, "lon": 29.3743221, "tags": {"amenity": "cafe", "name": "Royal Cafe"}}, {"type": "node", "id": 5294090625, "lat": 40.790184, "lon": 29.373534, "tags": {"amenity": "restaurant", "name": "G\u00f6zde Lokanta"}}, {"type": "node", "id": 5294588402, "lat": 40.9058761, "lon": 29.190398}, {"type": "node", "id": 5294588403, "lat": 40.9057636, "lon": 29.1902966}, {"type": "node", "id": 5294611409, "lat": 40.7790524, "lon": 29.3889531, "tags": {"amenity": "cafe", "name": "Yayla Pasta ve Cafe"}}, {"type": "node", "id": 5296343843, "lat": 40.782236, "lon": 29.3971823, "tags": {"amenity": "restaurant", "name": "Karata\u015f Lahmacun Pide"}}, {"type": "node", "id": 5296343849, "lat": 40.7810878, "lon": 29.39406, "tags": {"amenity": "restaurant", "name": "Kadiro\u011flu Kebap ve Lahmacun Salonu"}}, {"type": "node", "id": 5298383930, "lat": 40.7627454, "lon": 29.3894047, "tags": {"amenity": "restaurant", "name": "Ate\u015f Ev Yemekleri"}}, {"type": "node", "id": 5298403830, "lat": 40.7606123, "lon": 29.3872787, "tags": {"amenity": "restaurant", "name": "K\u00fcmes Tavuk"}}, {"type": "node", "id": 5298415429, "lat": 40.7954858, "lon": 29.4335571, "tags": {"amenity": "cafe", "name": "pusula"}}, {"type": "node", "id": 5298415430, "lat": 40.7956213, "lon": 29.4337761, "tags": {"amenity": "cafe", "name": "de\u011firmen"}}, {"type": "node", "id": 5298416365, "lat": 40.7696594, "lon": 29.4285368, "tags": {"amenity": "restaurant", "name": "Sahil Sofras\u0131"}}, {"type": "node", "id": 5298416366, "lat": 40.7696621, "lon": 29.4283262, "tags": {"amenity": "restaurant", "name": "Sahil Restaurant"}}, {"type": "node", "id": 5298486046, "lat": 40.7819635, "lon": 29.4159997}, {"type": "node", "id": 5298486047, "lat": 40.7819836, "lon": 29.4161555}, {"type": "node", "id": 5298486048, "lat": 40.781926, "lon": 29.4161643}, {"type": "node", "id": 5298486049, "lat": 40.7819072, "lon": 29.4161236}, {"type": "node", "id": 5298486050, "lat": 40.7818147, "lon": 29.4161218}, {"type": "node", "id": 5298486051, "lat": 40.7817853, "lon": 29.4160068}, {"type": "node", "id": 5298486052, "lat": 40.7817933, "lon": 29.4159714}, {"type": "node", "id": 5298486053, "lat": 40.7819059, "lon": 29.4159254}, {"type": "node", "id": 5298486054, "lat": 40.7819219, "lon": 29.4159891}, {"type": "node", "id": 5298486059, "lat": 40.7822318, "lon": 29.4146815}, {"type": "node", "id": 5298486060, "lat": 40.7822241, "lon": 29.4147588}, {"type": "node", "id": 5298486061, "lat": 40.7822457, "lon": 29.414771}, {"type": "node", "id": 5298486062, "lat": 40.7822257, "lon": 29.4148279}, {"type": "node", "id": 5298486063, "lat": 40.7821195, "lon": 29.4147771}, {"type": "node", "id": 5298486064, "lat": 40.7821426, "lon": 29.4146368}, {"type": "node", "id": 5298486072, "lat": 40.7832658, "lon": 29.4140596, "tags": {"amenity": "restaurant"}}, {"type": "node", "id": 5298486077, "lat": 40.783901, "lon": 29.4142495, "tags": {"amenity": "restaurant", "name": "mert d\u00f6ner"}}, {"type": "node", "id": 5298487734, "lat": 40.7817309, "lon": 29.4110879, "tags": {"amenity": "restaurant", "name": "karata\u015f"}}, {"type": "node", "id": 5298487887, "lat": 40.7908743, "lon": 29.4146818}, {"type": "node", "id": 5298487888, "lat": 40.7907554, "lon": 29.4149482}, {"type": "node", "id": 5298487889, "lat": 40.7906054, "lon": 29.4147877}, {"type": "node", "id": 5298487890, "lat": 40.7907502, "lon": 29.4145384}, {"type": "node", "id": 5298509502, "lat": 40.7974562, "lon": 29.4400025, "tags": {"amenity": "restaurant", "name": "dostlar sofras\u0131"}}, {"type": "node", "id": 5298509516, "lat": 40.7972916, "lon": 29.4378161, "tags": {"amenity": "cafe", "name": "simit saray\u0131"}}, {"type": "node", "id": 5298509526, "lat": 40.7977192, "lon": 29.4325971, "tags": {"amenity": "cafe"}}, {"type": "node", "id": 5299260694, "lat": 40.8894718, "lon": 29.180596, "tags": {"amenity": "cafe"}}, {"type": "node", "id": 5299260697, "lat": 40.8892096, "lon": 29.1808489, "tags": {"amenity": "cafe"}}, {"type": "node", "id": 5300762907, "lat": 40.8758099, "lon": 29.2506148, "tags": {"amenity": "cafe", "name": "Cafe'E"}}, {"type": "node", "id": 5300762909, "lat": 40.875812, "lon": 29.2510422, "tags": {"amenity": "cafe", "name": "Loya"}}, {"type": "node", "id": 5300762913, "lat": 40.8756538, "lon": 29.2551546, "tags": {"amenity": "cafe", "name": "Ravza \u00e7ayevi"}}, {"type": "node", "id": 5300762921, "lat": 40.8824102, "lon": 29.2350097, "tags": {"amenity": "restaurant", "name": "Ad\u0131yaman \u00e7i\u011fk\u00f6fte"}}, {"type": "node", "id": 5300946949, "lat": 40.9074394, "lon": 29.22599, "tags": {"addr:city": "\u0130stanbul", "addr:district": "Kartal", "addr:neighbourhood": "H\u00fcrriyet Mahallesi", "addr:street": "Adnan Kahveci Caddesi", "amenity": "cafe", "cuisine": "turkish", "internet_access": "no", "name": "Ilgaz Pastanesi", "smoking": "no"}}, {"type": "node", "id": 5300958416, "lat": 40.9376217, "lon": 29.2132681, "tags": {"amenity": "cafe", "name": "Reis Kafe"}}, {"type": "node", "id": 5300961998, "lat": 40.9358082, "lon": 29.2147638, "tags": {"addr:neighbourhood": "Ugurmumcu Mahallesi", "addr:street": "Ak\u015femsettin Caddesi", "amenity": "cafe", "name": "Nergiz Kace"}}, {"type": "node", "id": 5300978609, "lat": 40.9348142, "lon": 29.2153954, "tags": {"amenity": "restaurant", "fixme": "Uzun s\u00fcre \u00f6nce eklenmi\u015f g\u00fcncelli\u011fi kontrol edilmeli", "name": "K\u00f6fteci Nuri"}}, {"type": "node", "id": 5302517290, "lat": 40.8738208, "lon": 29.2278332}, {"type": "node", "id": 5302517291, "lat": 40.8738818, "lon": 29.2280267}, {"type": "node", "id": 5302517292, "lat": 40.8736888, "lon": 29.2281332}, {"type": "node", "id": 5303724427, "lat": 40.9062285, "lon": 29.2262347, "tags": {"addr:city": "\u0130stanbul", "addr:district": "Kartal", "addr:neighbourhood": "H\u00fcrriyet Mahallesi", "amenity": "restaurant", "delivery": "yes", "name": "Ad\u0131yaman \u00c7i\u011f K\u00f6ftecisi", "smoking": "outside", "takeaway": "yes"}}, {"type": "node", "id": 5303724428, "lat": 40.9061918, "lon": 29.2265952, "tags": {"addr:city": "\u0130stanbul", "addr:district": "Kartal", "addr:neighbourhood": "H\u00fcrriyet Mahallesi", "amenity": "restaurant", "delivery": "yes", "name": "\u00c7orbac\u0131 Mecit Usta", "smoking": "outside", "takeaway": "yes"}}, {"type": "node", "id": 5303724440, "lat": 40.9035866, "lon": 29.2269303, "tags": {"addr:city": "\u0130stanbul", "addr:district": "Kartal", "addr:neighbourhood": "H\u00fcrriyet Mahallesi", "addr:street": "T\u00fcrkeli Sokak", "amenity": "restaurant", "name": "Merkez B\u00f6rek Cafe", "takeaway": "yes"}}, {"type": "node", "id": 5303813248, "lat": 40.9141657, "lon": 29.2190282, "tags": {"addr:city": "\u0130stanbul", "addr:district": "Kartal", "addr:street": "Kartal Caddesi", "amenity": "restaurant", "name": "Korkmaz Kebap & Restaurant"}}, {"type": "node", "id": 5313431486, "lat": 40.819546, "lon": 29.3054494, "tags": {"amenity": "restaurant"}}, {"type": "node", "id": 5314761570, "lat": 40.8886703, "lon": 29.1852057, "tags": {"amenity": "cafe", "name": "Saman Cafe"}}, {"type": "node", "id": 5314762029, "lat": 40.8885628, "lon": 29.186064, "tags": {"amenity": "cafe", "name": "Cafe Mocha"}}, {"type": "node", "id": 5314934140, "lat": 40.8902267, "lon": 29.1898218, "tags": {"amenity": "cafe", "name": "Hobi B\u00f6rek"}}, {"type": "node", "id": 5314977580, "lat": 40.8904802, "lon": 29.1912192, "tags": {"addr:housenumber": "27/D", "addr:postcode": "34873", "addr:street": "Yakac\u0131k Caddesi", "amenity": "restaurant", "internet_access": "wlan", "name": "Merkez Lokantas\u0131", "name:tr": "Kartal Ar\u00e7elik Servisi", "opening_hours": "24/7", "phone": "02164730888"}}, {"type": "node", "id": 5314977992, "lat": 40.8893285, "lon": 29.1909483, "tags": {"amenity": "cafe", "name": "Do\u011fa Pastanesi"}}, {"type": "node", "id": 5314981810, "lat": 40.8894583, "lon": 29.1908571, "tags": {"amenity": "cafe", "name": "Viking Cafe"}}, {"type": "node", "id": 5316309414, "lat": 40.9120114, "lon": 29.1725573, "tags": {"addr:postcode": "34865", "amenity": "cafe", "cuisine": "bagel;breakfast;coffee_shop;pancake;sausage;turkish", "internet_access": "wlan", "name": "Muhabbet Cafe", "opening_hours": "Mo-Sa 07:00-21:00"}}, {"type": "node", "id": 5316319710, "lat": 40.9103381, "lon": 29.1820294, "tags": {"amenity": "restaurant", "name": "Yaprak D\u00f6ner"}}, {"type": "node", "id": 5316342520, "lat": 40.91167, "lon": 29.180369, "tags": {"amenity": "cafe", "brand": "Mado", "brand:wikidata": "Q17116336", "brand:wikipedia": "en:Mado (food company)", "cuisine": "coffee_shop", "name": "Mado", "takeaway": "yes"}}, {"type": "node", "id": 5316344554, "lat": 40.9123506, "lon": 29.1788465, "tags": {"amenity": "cafe", "name": "Cafe 1453"}}, {"type": "node", "id": 5316344717, "lat": 40.9116314, "lon": 29.1806027, "tags": {"amenity": "cafe", "brand": "Starbucks", "brand:wikidata": "Q37158", "brand:wikipedia": "en:Starbucks", "cuisine": "coffee_shop", "name": "Starbucks", "official_name": "Starbucks Coffee", "takeaway": "yes"}}, {"type": "node", "id": 5316345136, "lat": 40.9115651, "lon": 29.1808219, "tags": {"amenity": "cafe", "name": "Ku\u015fhane Restaurant Cafe"}}, {"type": "node", "id": 5316346824, "lat": 40.9124206, "lon": 29.1787769, "tags": {"amenity": "cafe", "name": "Faruk G\u00fcll\u00fco\u011flu"}}, {"type": "node", "id": 5329297613, "lat": 40.9710682, "lon": 29.2694106, "tags": {"addr:city": "Istanbul", "addr:district": "Sultanbeyli", "addr:street": "\u015eeyh \u015eamil Caddesi", "amenity": "restaurant", "name": "\u00d6z S\u00fcper Pide Salonu", "name:ar": "\u0645\u0637\u0639\u0645 \u0641\u0637\u0627\u0626\u0631", "phone": "02164985205"}}, {"type": "node", "id": 5329298056, "lat": 40.945242, "lon": 29.2709575, "tags": {"addr:city": "Istanbul", "addr:district": "Sultanbeyli", "addr:street": "\u015ealgaml\u0131 Caddesi", "amenity": "cafe", "name": "Canlar k\u0131raa Thanesi", "name:ar": "\u0642\u0647\u0648\u0629 (\u062c\u064a\u0646\u0631\u0627\u0644)"}}, {"type": "node", "id": 5329298067, "lat": 40.9501418, "lon": 29.2736135, "tags": {"addr:city": "Istanbul", "addr:district": "Sultanbeyli", "addr:street": "Pamuk Soka\u011f\u0131", "amenity": "restaurant", "name": "Be\u015f Karde\u015flar Kafeterya", "name:ar": "\u0645\u0637\u0639\u0645 \u0628\u064a\u0634 \u0643\u0627\u0631\u062f\u0634\u0644\u0627\u0631"}}, {"type": "node", "id": 5329298105, "lat": 40.9438264, "lon": 29.2722103, "tags": {"addr:city": "Istanbul", "addr:district": "Sultanbeyli", "addr:street": "Eyyubi Caddesi", "amenity": "cafe", "name": "Huzur K\u0131raathanesi", "name:ar": "\u0645\u0642\u0647\u0649 \u0642\u0631\u0627\u0621\u0627\u062a \u0647\u0648\u0632\u0648\u0631"}}, {"type": "node", "id": 5329298449, "lat": 40.9498892, "lon": 29.2742978, "tags": {"addr:city": "Istanbul", "addr:district": "Sultanbeyli", "addr:street": "Pamuk Soka\u011f\u0131", "amenity": "cafe", "name": "I\u015f\u0131l Cafe", "name:ar": "\u0645\u0642\u0647\u0649 \u0625\u0634\u064a\u0644", "phone": "05374370402"}}, {"type": "node", "id": 5329298463, "lat": 40.9643345, "lon": 29.2797999, "tags": {"addr:city": "Istanbul", "addr:district": "Sultanbeyli", "addr:street": "Fatih Bulvar\u0131", "amenity": "restaurant", "name": "Zahret Halep", "name:ar": "\u0645\u0637\u0639\u0645 \u0632\u0647\u0631\u0629 \u062d\u0644\u0628"}}, {"type": "node", "id": 5329298464, "lat": 40.964569, "lon": 29.2798429, "tags": {"addr:city": "Istanbul", "addr:district": "Sultanbeyli", "addr:street": "Fatih Bulvar\u0131", "amenity": "restaurant", "name": "Layali Halep", "name:ar": "\u0647\u0627\u0646\u064a\u062f\u0627\u0646 \u0643\u0627\u0641\u064a"}}, {"type": "node", "id": 5329298498, "lat": 40.9498747, "lon": 29.2821089, "tags": {"addr:city": "Istanbul", "addr:district": "Sultanbeyli", "addr:street": "M\u00fcjde Soka\u011f\u0131", "amenity": "cafe", "name": "Etzincan", "name:ar": "\u0642\u0647\u0648\u0629 ( \u0627\u064a\u062a\u0632\u0646\u062c\u0627\u0646)"}}, {"type": "node", "id": 5329311623, "lat": 40.9676841, "lon": 29.275011, "tags": {"addr:city": "Istanbul", "addr:district": "Sultanbeyli", "addr:street": "\u00c7aml\u0131k Caddesi", "amenity": "restaurant", "name": "Doneri Ye", "name:ar": "\u0634\u0627\u0648\u0631\u0645\u0627", "phone": "02164988123"}}, {"type": "node", "id": 5329311650, "lat": 40.9456234, "lon": 29.2840788, "tags": {"addr:city": "Istanbul", "addr:district": "Sultanbeyli", "addr:street": "Bayraktar Soka\u011f\u0131", "amenity": "restaurant", "name": "\u00c7avu\u015fo\u011fullar\u0131", "name:ar": "\u0645\u0637\u0639\u0645 \u062a\u0634\u0627\u0641\u0648\u0634\u0648\u063a\u0644\u0648\u0644\u0627\u0631\u064a"}}, {"type": "node", "id": 5329311671, "lat": 40.9675838, "lon": 29.2749372, "tags": {"addr:city": "Istanbul", "addr:district": "Sultanbeyli", "addr:street": "\u00c7aml\u0131k Caddesi", "amenity": "cafe", "name": "\u00c7aml\u0131k K\u0131raat Hanesi", "name:ar": "\u0645\u0642\u0647\u0649 \u0642\u0631\u0627\u0621\u0627\u062a \u062a\u0634\u0627\u0645\u0644\u0643"}}, {"type": "node", "id": 5329311681, "lat": 40.974407, "lon": 29.2731753, "tags": {"addr:city": "Istanbul", "addr:district": "Sultanbeyli", "addr:street": "Kaptani Derya Caddesi", "amenity": "cafe", "name": "Yavla\u00e7 K\u0131raat Hanesi", "name:ar": "\u0645\u0642\u0647\u0649 \u0642\u0631\u0627\u0621\u0627\u062a \u064a\u0627\u0644\u0641\u0627\u062a\u0634"}}, {"type": "node", "id": 5329311688, "lat": 40.9733655, "lon": 29.2744668, "tags": {"addr:city": "Istanbul", "addr:district": "Sultanbeyli", "addr:street": "Kaptan\u0131 Derya Cadeesi", "amenity": "restaurant", "cuisine": "turkish", "name": "Ela B\u00f6rek", "name:ar": "\u0641\u0637\u0627\u0626\u0631 \u0625\u064a\u0644\u0627", "phone": "02165928000"}}, {"type": "node", "id": 5329311699, "lat": 40.9712576, "lon": 29.2738476, "tags": {"addr:city": "Istanbul", "addr:district": "Sultanbeyli", "addr:street": "Kaptani Derya Caddesi", "amenity": "restaurant", "cuisine": "ice_cream", "name": "Oney Dondurma", "name:ar": "\u0627\u0648\u0646\u064a \u062f\u0648\u0646\u062f\u0648\u0631\u0645\u0627"}}, {"type": "node", "id": 5329311713, "lat": 40.9723039, "lon": 29.2689177, "tags": {"addr:city": "Istanbul", "addr:district": "Sultanbeyli", "addr:street": "Se\u00e7kin Soka\u011f\u0131", "amenity": "cafe", "name": "Sohbet K\u0131raat Hanesi", "name:ar": "\u0645\u0642\u0647\u0649 \u0643\u064a\u0631\u0627\u062a \u0647\u0627\u0646\u0629 \u0633\u064a"}}, {"type": "node", "id": 5329312229, "lat": 40.9440772, "lon": 29.2734121, "tags": {"addr:city": "Istanbul", "addr:district": "Sultanbeyli", "addr:street": "Eyyubi Caddesi", "amenity": "cafe", "name": "M.talip K\u0131raathanesi", "name:ar": "\u0645\u0642\u0647\u0649 \u0642\u0631\u0627\u0621\u0627\u062a \u0645 \u0637\u0627\u0644\u0628"}}, {"type": "node", "id": 5329312232, "lat": 40.9717869, "lon": 29.2738066, "tags": {"addr:city": "Istanbul", "addr:district": "Sultanbeyli", "addr:street": "Kaptani Derya Caddesi", "amenity": "restaurant", "cuisine": "turkish", "name": "D\u00f6nerci C\u00fcneyt Usta", "name:ar": "\u062f\u0648\u0646\u0631\u062c\u064a \u062c\u0648\u0646\u064a\u062a \u0627\u0648\u0633\u0637\u0627", "phone": "05388234242"}}, {"type": "node", "id": 5329312238, "lat": 40.9745293, "lon": 29.2727157, "tags": {"addr:city": "Istanbul", "addr:district": "Sultanbeyli", "addr:street": "Kaptani Derya Caddesi", "amenity": "cafe", "name": "Ad\u0131yaman Bitlis", "name:ar": "\u0627\u062f\u064a\u0627\u0645\u0627\u0646 \u0628\u064a\u062a\u0644\u0633 (\u0623\u0631\u0627\u062c\u064a\u0644)", "phone": "05536162966"}}, {"type": "node", "id": 5329312242, "lat": 40.9670196, "lon": 29.2752911, "tags": {"addr:city": "Istanbul", "addr:district": "Sultanbeyli", "addr:street": "Cinnah Soka\u011f\u0131", "amenity": "restaurant", "cuisine": "turkish", "name": "Turuncu D\u00f6ner Salonu", "name:ar": "\u0635\u0627\u0644\u0648\u0646 \u0634\u0627\u0648\u0631\u0645\u0627 \u062a\u0648\u0631\u0648\u0646\u062c\u0648", "phone": "02164192665"}}, {"type": "node", "id": 5329319359, "lat": 40.9438802, "lon": 29.3031913, "tags": {"addr:city": "Istanbul", "addr:district": "Sultanbeyli", "addr:street": "Su KEnarl", "amenity": "restaurant", "name": "Etsiz \u00c7i\u011fk\u00f6fte", "name:ar": "\u0643\u0628\u0629 \u0628\u0644\u0627 \u0644\u062d\u0645\u0647"}}, {"type": "node", "id": 5329319535, "lat": 40.9821575, "lon": 29.2595278, "tags": {"addr:city": "Istanbul", "addr:district": "Sultanbeyli", "addr:street": "Irvan Soka\u011f\u0131", "amenity": "restaurant", "name": "Padi\u015fah", "name:ar": "\u0645\u0637\u0639\u0645 \u0628\u0627\u062f\u064a\u0634\u0627\u0647"}}, {"type": "node", "id": 5329319537, "lat": 40.9752888, "lon": 29.2597808, "tags": {"addr:city": "Istanbul", "addr:district": "Sultanbeyli", "addr:street": "Susam Soka\u011f\u0131", "amenity": "cafe", "name": "Nazl\u0131n\u0131n", "name:ar": "\u0645\u0642\u0647\u0649 \u0646\u0627\u0632\u0644\u064a"}}, {"type": "node", "id": 5329319538, "lat": 40.9758278, "lon": 29.2613457, "tags": {"addr:city": "Istanbul", "addr:district": "Sultanbeyli", "addr:street": "Beykoz Gaddesi", "amenity": "cafe", "name": "Ev yemekleri", "name:ar": "\u0628\u064a\u062a \u0627\u0644\u0627\u0643\u0644 (\u062a\u0631\u0643\u064a)"}}, {"type": "node", "id": 5329319558, "lat": 40.981022, "lon": 29.2561658, "tags": {"addr:city": "Istanbul", "addr:district": "Sultanbeyli", "addr:street": "Said Nursi Caddesi", "amenity": "cafe", "name": "Yeditepe unlun mam\u00fclleri", "name:ar": "\u0645\u0642\u0647\u0649 \u064a\u062f\u064a\u062a\u064a\u0628\u064a"}}, {"type": "node", "id": 5329319569, "lat": 40.9801945, "lon": 29.2656131, "tags": {"addr:city": "Istanbul", "addr:district": "Sultanbeyli", "addr:street": "Bosna Bulvar\u0131", "amenity": "restaurant", "name": "\u00d6z \u015eark Kebap ve Pide", "name:ar": "\u0645\u0637\u0639\u0645 \u0643\u0628\u0627\u0628 \u0627\u0648\u0632 \u0634\u0627\u0631\u0643"}}, {"type": "node", "id": 5329319571, "lat": 40.9794781, "lon": 29.2643893, "tags": {"addr:city": "Istanbul", "addr:district": "Sultanbeyli", "addr:street": "Vahdet Caddesi", "amenity": "cafe", "name": "Arif cafe", "name:ar": "\u0645\u0642\u0647\u0649 \u0639\u0631\u064a\u0641"}}, {"type": "node", "id": 5329319584, "lat": 40.9830203, "lon": 29.2615966, "tags": {"addr:city": "Istanbul", "addr:district": "Sultanbeyli", "addr:street": "Salihler Caddesi", "amenity": "restaurant", "name": "K\u00f6fteci", "name:ar": "\u0645\u0637\u0639\u0645 \u0643\u0648\u0641\u062a\u0627\u062c\u064a"}}, {"type": "node", "id": 5329319589, "lat": 40.975303, "lon": 29.2615602, "tags": {"addr:city": "Istanbul", "addr:district": "Sultanbeyli", "addr:street": "\u00c7i\u00c7EKLi", "amenity": "restaurant", "name": "Nebol", "name:ar": "\u0645\u0637\u0639\u0645 \u0646\u064a\u0628\u0648\u0644", "operator": "\u062e\u0627\u0635"}}, {"type": "node", "id": 5329319602, "lat": 40.9822051, "lon": 29.2598274, "tags": {"addr:city": "Istanbul", "addr:district": "Sultanbeyli", "addr:street": "Irvan Soka\u011f\u0131", "amenity": "restaurant", "name": "Nsb", "name:ar": "\u0645\u0637\u0639\u0645 \u0627\u0646 \u0627\u0633 \u0628\u064a"}}, {"type": "node", "id": 5329319825, "lat": 40.9538482, "lon": 29.2825724, "tags": {"addr:city": "Istanbul", "addr:district": "Sultanbeyli", "addr:street": "Eyyubi caddesi", "amenity": "cafe", "name": "Ak\u00e7a", "name:ar": "\u0627\u0643\u0634\u0627 \u0643\u0627\u0641\u064a"}}, {"type": "node", "id": 5329320521, "lat": 40.9791193, "lon": 29.2632708, "tags": {"addr:city": "Istanbul", "addr:district": "Sultanbeyli", "addr:street": "Ar\u015f\u0131n Soka\u011f\u0131", "amenity": "cafe", "name": "k\u00f6yl\u00fc yand\u0131r lava\u015f", "name:ar": "\u0645\u0642\u0647\u0649 \u062a\u0631\u0643\u064a \u0643\u0648\u064a\u0648\u0644 \u064a\u0627\u0646\u062f\u0631"}}, {"type": "node", "id": 5329320529, "lat": 40.9806835, "lon": 29.2618764, "tags": {"addr:city": "Istanbul", "addr:district": "Sultanbeyli", "addr:street": "Vanik\u00f6y Soka\u011f\u0131", "amenity": "cafe", "name": "Yunus Emre cafe", "name:ar": "\u0645\u0642\u0647\u0649 \u064a\u0648\u0646\u0633 \u0627\u0645\u0631\u064a"}}, {"type": "node", "id": 5329320541, "lat": 40.9824625, "lon": 29.2608745, "tags": {"addr:city": "Istanbul", "addr:district": "Sultanbeyli", "addr:street": "Hamidiye Caddesi", "amenity": "restaurant", "name": "Meydan Kebap", "name:ar": "\u0645\u0637\u0639\u0645 \u0645\u064a\u062f\u0627\u0646 \u0627\u0644\u0643\u0628\u0627\u0628"}}, {"type": "node", "id": 5329320545, "lat": 40.9757858, "lon": 29.2614347, "tags": {"addr:city": "Istanbul", "addr:district": "Sultanbeyli", "addr:street": "Beykoz Gaddesi", "amenity": "cafe", "name": "Belluga", "name:ar": "\u0645\u0642\u0647\u0649 \u062a\u0631\u0643\u064a \u0628\u064a\u0644\u064a\u0648\u063a\u0627"}}, {"type": "node", "id": 5329320546, "lat": 40.9772864, "lon": 29.2650618, "tags": {"addr:city": "Istanbul", "addr:district": "Sultanbeyli", "addr:street": "Bosna Bulvar\u0131", "amenity": "restaurant", "name": "Pa\u015fa D\u00f6ner", "name:ar": "\u0634\u0627\u0648\u0631\u0645\u0627 Pa\u015fa"}}, {"type": "node", "id": 5329320557, "lat": 40.9820147, "lon": 29.2592439, "tags": {"addr:city": "Istanbul", "addr:district": "Sultanbeyli", "addr:street": "Irvan Soka\u011f\u0131", "amenity": "restaurant", "name": "Kasap\u00e7\u0131m2", "name:ar": "\u0645\u0637\u0639\u0645 \u0643\u0627\u0633\u0627\u0628\u062c\u064a \u0662", "phone": "05425176669"}}, {"type": "node", "id": 5329320560, "lat": 40.9797855, "lon": 29.2655698, "tags": {"addr:city": "Istanbul", "addr:district": "Sultanbeyli", "addr:street": "Bosna Bulvar\u0131", "amenity": "restaurant", "name": "Damla Et", "name:ar": "\u0645\u0637\u0639\u0645 \u062f\u0627\u0645\u0644\u0627 \u0643\u0648\u0632\u0648 \u0634\u064a\u0641\u0631\u0645\u064a"}}, {"type": "node", "id": 5329320577, "lat": 40.9860534, "lon": 29.258555, "tags": {"addr:city": "Istanbul", "addr:district": "Sultanbeyli", "addr:housenumber": "70/A", "addr:neighbourhood": "Adil Mahallesi", "addr:street": "Yakuphan Caddesi", "amenity": "restaurant", "cuisine": "turkish", "name": "Cemile Sultan Ev Yemekleri", "phone": "0551 442 64 15"}}, {"type": "node", "id": 5329320585, "lat": 40.9805555, "lon": 29.2549172, "tags": {"addr:city": "Istanbul", "addr:district": "Sultanbeyli", "addr:street": "Ivan Soka\u011f\u0131", "amenity": "restaurant", "name": "Ziyafet \u00c7i\u011fk\u00f6fte", "name:ar": "\u0645\u0637\u0639\u0645 \u0638\u064a\u0627\u0641\u0629 \u0634\u064a \u0643\u0648\u0641\u062a\u0627"}}, {"type": "node", "id": 5329320589, "lat": 40.9805353, "lon": 29.2635032, "tags": {"addr:city": "Istanbul", "addr:district": "Sultanbeyli", "addr:street": "Vahdet Caddesi", "amenity": "restaurant", "name": "\u00c7i\u011fk\u00f6fte", "name:ar": "\u0645\u0637\u0639\u0645 \u0634\u064a\u0643\u0648\u0641\u062a\u0627"}}, {"type": "node", "id": 5329320604, "lat": 40.9820861, "lon": 29.2594332, "tags": {"addr:city": "Istanbul", "addr:district": "Sultanbeyli", "addr:street": "Irvan Soka\u011f\u0131", "amenity": "restaurant", "name": "Lapinbalik et", "name:ar": "\u0645\u0637\u0639\u0645 \u0644\u0627\u0628\u064a\u0646 \u0628\u0627\u0644\u064a\u0643 \u0627\u064a\u062a"}}, {"type": "node", "id": 5329335335, "lat": 40.9673187, "lon": 29.2679595, "tags": {"addr:city": "Istanbul", "addr:district": "Sultanbeyli", "addr:street": "Yusuf islam soka\u011f\u0131", "amenity": "restaurant", "name": "Harput kebap", "name:ar": "\u0645\u0637\u0639\u0645 \u0643\u0628\u0627\u0628 \u0647\u0627\u0631\u0628\u0648\u062a", "phone": "02163981397"}}, {"type": "node", "id": 5329335339, "lat": 40.9652124, "lon": 29.2726802, "tags": {"addr:city": "Istanbul", "addr:district": "Sultanbeyli", "addr:street": "Erdo\u011fan caddesi", "amenity": "cafe", "name": "Nehir cafe", "name:ar": "\u0645\u0642\u0647\u0649 \u0646\u0647\u064a\u0631", "phone": "05320645304"}}, {"type": "node", "id": 5329335343, "lat": 40.9672215, "lon": 29.2672514, "tags": {"addr:city": "Istanbul", "addr:district": "Sultanbeyli", "addr:street": "Fatih bulvar\u0131", "amenity": "restaurant", "name": "Koclar restaurant", "name:ar": "\u0645\u0637\u0639\u0645 \u0643\u0648\u062c\u0644\u0627\u0631", "phone": "02163982699"}}, {"type": "node", "id": 5329335344, "lat": 40.9671, "lon": 29.2675733, "tags": {"addr:city": "Istanbul", "addr:district": "Sultanbeyli", "addr:street": "Fatih bulvar\u0131", "amenity": "restaurant", "name": "Bal\u0131m", "name:ar": "\u0645\u0637\u0639\u0645 \u0628\u0627\u0644\u064a\u0645", "phone": "02164194698"}}, {"type": "node", "id": 5329335351, "lat": 40.9940148, "lon": 29.2744397, "tags": {"addr:city": "Istanbul", "addr:district": "Sultanbeyli", "addr:street": "Sel\u00e7ukhan caddesi", "amenity": "cafe", "name": "Akarsu cafe", "name:ar": "\u0645\u0642\u0647\u0649 \u0627\u0643\u0627\u0631\u0633\u0648", "phone": "02165927455"}}, {"type": "node", "id": 5329335360, "lat": 40.9645886, "lon": 29.2631101, "tags": {"addr:city": "Istanbul", "addr:district": "Sultanbeyli", "addr:street": "Kale caddesi", "amenity": "cafe", "name": "Gonul bag\u0131", "name:ar": "\u0645\u0642\u0647\u0649 \u063a\u0648\u0646\u0648\u0644", "phone": "02164194831"}}, {"type": "node", "id": 5329335365, "lat": 40.964864, "lon": 29.2711352, "tags": {"addr:city": "Istanbul", "addr:district": "Sultanbeyli", "addr:street": "Ziya-\u00fcl hak caddesi", "amenity": "restaurant", "name": "Berekat doner", "name:ar": "\u0645\u0637\u0639\u0645 \u0628\u0631\u0643\u0627\u062a", "phone": "05354047164"}}, {"type": "node", "id": 5329335372, "lat": 40.9641349, "lon": 29.2651915, "tags": {"addr:city": "Istanbul", "addr:district": "Sultanbeyli", "addr:street": "Cami caddesi", "amenity": "restaurant", "name": "Kad\u0131o\u011flu yemek . d\u00f6ner", "name:ar": "\u0645\u0637\u0639\u0645 \u0642\u0627\u0636\u064a \u0627\u0648\u063a\u0644\u0648"}}, {"type": "node", "id": 5329335374, "lat": 40.9671972, "lon": 29.2690753, "tags": {"addr:city": "Istanbul", "addr:district": "Sultanbeyli", "addr:street": "Sar\u0131yer sokak", "amenity": "cafe", "name": "Cazibe playstation", "name:ar": "\u0645\u0642\u0647\u0649 \u062c\u0627\u0632\u064a\u0628\u0627"}}, {"type": "node", "id": 5329335383, "lat": 40.963268, "lon": 29.2640542, "tags": {"addr:city": "Istanbul", "addr:district": "Sultanbeyli", "addr:street": "\u015een caddesi", "amenity": "restaurant", "name": "Pa\u015fam zurna d\u00fcr\u00fcm", "name:ar": "\u0645\u0637\u0639\u0645 \u0628\u0627\u0634\u0627\u0645", "phone": "05374029858"}}, {"type": "node", "id": 5329335389, "lat": 40.9628792, "lon": 29.2702769, "tags": {"addr:city": "Istanbul", "addr:district": "Sultanbeyli", "addr:street": "Ziya-\u00fcl hak caddise", "amenity": "restaurant", "name": "Grand house", "name:ar": "\u063a\u0631\u0627\u0646\u062f \u0647\u0627\u0648\u0633"}}, {"type": "node", "id": 5329335393, "lat": 40.9677919, "lon": 29.2663552, "tags": {"addr:city": "Istanbul", "addr:district": "Sultanbeyli", "addr:street": "Y\u0131lmaz soka\u011f\u0131", "amenity": "cafe", "name": "Kosebasi internet cafe", "name:ar": "\u0645\u0642\u0647\u0649 \u0627\u0646\u062a\u0631\u0646\u062a \u0643\u0648\u0633\u0628\u0627\u0633\u064a", "phone": "02164193333"}}, {"type": "node", "id": 5329335405, "lat": 40.9982418, "lon": 29.2651486, "tags": {"addr:city": "Istanbul", "addr:district": "Sultanbeyli", "addr:street": "Mimar sinan caddesi", "amenity": "restaurant", "name": "Oru\u00e7 karde\u015fler lahmacun", "name:ar": "\u0645\u0637\u0639\u0645 \u0627\u0648\u0631\u0648\u062c \u0643\u0627\u0631\u062f\u064a\u0634\u0644\u0627\u0631", "phone": "02165927415"}}, {"type": "node", "id": 5329335414, "lat": 40.9625713, "lon": 29.2700624, "tags": {"addr:city": "Istanbul", "addr:district": "Sultanbeyli", "addr:street": "Ziya-\u00fcl hak caddise", "amenity": "restaurant", "name": "Abu tavfik lokanta", "name:ar": "\u0645\u0637\u0639\u0645 \u0627\u0628\u0648 \u062a\u0648\u0641\u064a\u0642", "operator": "\u0627\u0628\u0648 \u062a\u0648\u0641\u064a\u0642"}}, {"type": "node", "id": 5329335415, "lat": 40.9636893, "lon": 29.263153, "tags": {"addr:city": "Istanbul", "addr:district": "Sultanbeyli", "addr:street": "Yi\u011fit soka\u011f\u0131", "amenity": "cafe", "name": "Sakl\u0131 koru cafe restaurant", "name:ar": "\u0645\u0642\u0647\u0649 \u0633\u0627\u0643\u0644\u0647 \u0643\u0648\u0631\u0648", "phone": "02164196113"}}, {"type": "node", "id": 5329335924, "lat": 40.9654736, "lon": 29.272327, "tags": {"addr:city": "Istanbul", "addr:district": "Sultanbeyli", "addr:street": "G\u00fcne\u015f caddesi", "amenity": "restaurant", "name": "D\u00f6nerci halim", "name:ar": "\u0645\u0637\u0639\u0645 \u062f\u0648\u0646\u0631\u062c\u064a \u0647\u0627\u0644\u064a\u0645"}}, {"type": "node", "id": 5329335929, "lat": 40.9625227, "lon": 29.2635607, "tags": {"addr:city": "Istanbul", "addr:district": "Sultanbeyli", "addr:street": "Petrol yolu caddesi", "amenity": "cafe", "name": "\u00c7ibar cafe Restaurant sultanbeyli", "name:ar": "\u0645\u0642\u0647\u0649 \u062a\u0634\u064a\u0646\u0627\u0631", "phone": "05382791121"}}, {"type": "node", "id": 5329335936, "lat": 40.9652286, "lon": 29.2634749, "tags": {"addr:city": "Istanbul", "addr:district": "Sultanbeyli", "addr:street": "Kale caddesi", "amenity": "cafe", "name": "Baraka cafe", "name:ar": "\u0645\u0642\u0647\u0649 \u0628\u0631\u0643\u0629", "phone": "02164192070"}}, {"type": "node", "id": 5329335941, "lat": 40.9681775, "lon": 29.2695045, "tags": {"addr:city": "Istanbul", "addr:district": "Sultanbeyli", "addr:street": "Atat\u00fcrk caddesi", "amenity": "restaurant", "name": "\u00c7a\u011f kebap ocak ba\u015f\u0131", "name:ar": "\u0645\u0637\u0639\u0645 \u0643\u0628\u0627\u0628 \u0627\u0644\u0637\u0627\u0626\u0631\u0629", "phone": "02164961125"}}, {"type": "node", "id": 5329335943, "lat": 40.9662575, "lon": 29.2652988, "tags": {"addr:city": "Istanbul", "addr:district": "Sultanbeyli", "addr:street": "\u015een caddesi", "amenity": "restaurant", "name": "Tan\u0131d\u0131k d\u00fcr\u00fcm evi", "name:ar": "\u0645\u0637\u0639\u0645 \u062a\u0627\u0646\u064a\u062f\u064a\u0643", "phone": "02164962221"}}, {"type": "node", "id": 5329335945, "lat": 40.9640539, "lon": 29.2704915, "tags": {"addr:city": "Istanbul", "addr:district": "Sultanbeyli", "addr:street": "Ziya-\u00fcl hak caddesi", "amenity": "restaurant", "name": "Kap\u0131 shahba", "name:ar": "\u0645\u0637\u0639\u0645 \u0628\u0648\u0627\u0628\u0629 \u0627\u0644\u0634\u0647\u0628\u0627\u0621"}}, {"type": "node", "id": 5329335948, "lat": 40.9654312, "lon": 29.2635607, "tags": {"addr:city": "Istanbul", "addr:district": "Sultanbeyli", "addr:street": "Hayat caddesi", "amenity": "cafe", "name": "Ye\u015fil\u00e7am \u00e7ay evi", "name:ar": "\u0645\u0642\u0647\u0649 \u064a\u0634\u064a\u0644 \u062a\u0634\u0627\u0645"}}, {"type": "node", "id": 5329335951, "lat": 40.9907084, "lon": 29.2660129, "tags": {"addr:city": "Istanbul", "addr:district": "Sultanbeyli", "addr:street": "Basra caddesi", "amenity": "cafe", "brand": "Mado", "brand:wikidata": "Q17116336", "brand:wikipedia": "en:Mado (food company)", "cuisine": "coffee_shop", "name": "Mado", "name:ar": "\u0645\u0637\u0639\u0645 \u0645\u0627\u062f\u0648", "takeaway": "yes"}}, {"type": "node", "id": 5329335955, "lat": 40.9637622, "lon": 29.2664146, "tags": {"addr:city": "Istanbul", "addr:district": "Sultanbeyli", "addr:street": "Berat caddesi", "amenity": "cafe", "name": "Ye\u015fil\u00e7am", "name:ar": "\u0645\u0642\u0647\u0649 \u064a\u0634\u064a\u0644 \u062a\u0634\u0627\u0645", "phone": "05342413330"}}, {"type": "node", "id": 5329335956, "lat": 40.9652448, "lon": 29.2656421, "tags": {"addr:city": "Istanbul", "addr:district": "Sultanbeyli", "addr:street": "Cami caddesi", "amenity": "restaurant", "name": "Hanedan pilav", "name:ar": "\u0645\u0637\u0639\u0645 \u0647\u0627\u0646\u062f\u064a\u0646", "phone": "05377393352"}}, {"type": "node", "id": 5329335961, "lat": 40.9645967, "lon": 29.2671227, "tags": {"addr:city": "Istanbul", "addr:district": "Sultanbeyli", "addr:street": "Mira\u00e7 caddesi", "amenity": "restaurant", "name": "D\u00f6nerci l\u00fctf\u00fc usta", "name:ar": "\u0645\u0637\u0639\u0645 \u0644\u0637\u0641\u0648 \u0627\u0648\u0633\u0637\u0647", "operator": "\u0644\u0637\u0641\u0648 \u0627\u0633\u0637\u0647", "phone": "02163983672"}}, {"type": "node", "id": 5329335969, "lat": 40.9679182, "lon": 29.2688393, "tags": {"addr:city": "Istanbul", "addr:district": "Sultanbeyli", "addr:street": "P\u0131narba\u015f\u0131 soka\u011f\u0131", "amenity": "restaurant", "name": "\u00c7a\u011f kebap\u00e7i davut usta", "name:ar": "\u0645\u0637\u0639\u0645 \u0643\u0628\u0627\u0628 \u062f\u0627\u0648\u0648\u062f \u0627\u0648\u0633\u0637\u0647", "phone": "02164196894"}}, {"type": "node", "id": 5329335978, "lat": 40.9626118, "lon": 29.262123, "tags": {"addr:city": "Istanbul", "addr:district": "Sultanbeyli", "addr:street": "Kale caddesi", "amenity": "restaurant", "name": "Hanedan", "name:ar": "\u0645\u0637\u0639\u0645 \u0647\u0627\u0646\u062f\u064a\u0646", "phone": "02164190506"}}, {"type": "node", "id": 5329335981, "lat": 40.9630655, "lon": 29.269998, "tags": {"addr:city": "Istanbul", "addr:district": "Sultanbeyli", "addr:street": "Ziya-\u00fcl hak caddise", "amenity": "restaurant", "name": "Skoop", "name:ar": "\u0645\u0637\u0639\u0645 \u0633\u0643\u0648\u0628"}}, {"type": "node", "id": 5329335998, "lat": 40.9899171, "lon": 29.2628311, "tags": {"addr:city": "Istanbul", "addr:district": "Sultanbeyli", "addr:street": "Hikmetyar caddesi", "amenity": "restaurant", "name": "\u00d6Z karadeniz sofras\u0131", "name:ar": "\u0645\u0637\u0639\u0645 \u0627\u0648\u0632 \u0643\u0627\u0631\u062f\u0627\u0646\u064a\u0632 \u0633\u0648\u0641\u0631\u0627\u0633\u064a", "phone": "05464142615"}}, {"type": "node", "id": 5329336001, "lat": 40.9675838, "lon": 29.2670434, "tags": {"addr:city": "Istanbul", "addr:district": "Sultanbeyli", "addr:street": "Ak soka\u011f\u0131", "amenity": "restaurant", "name": "Ak\u00e7a saraylim", "name:ar": "\u0645\u0637\u0639\u0645 \u0627\u0643\u062c\u0627 \u0633\u0631\u0627\u064a\u0644\u0645"}}, {"type": "node", "id": 5329336005, "lat": 40.9978207, "lon": 29.2654919, "tags": {"addr:city": "Istanbul", "addr:district": "Sultanbeyli", "addr:street": "Mazlum soka\u011f\u0131", "amenity": "cafe", "name": "Aras pasta cafe", "name:ar": "\u0645\u0642\u0647\u0649 \u0627\u0631\u0627\u0633"}}, {"type": "node", "id": 5329336012, "lat": 40.9676104, "lon": 29.2669725, "tags": {"addr:city": "Istanbul", "addr:district": "Sultanbeyli", "addr:street": "Fatih bulvar\u0131", "amenity": "restaurant", "name": "Me\u015fhur karadeniz pidesi", "name:ar": "\u0645\u0637\u0639\u0645 \u0645\u0634\u0648\u0627\u0631", "phone": "02164190444"}}, {"type": "node", "id": 5329336019, "lat": 40.9902411, "lon": 29.2685174, "tags": {"addr:city": "Istanbul", "addr:district": "Sultanbeyli", "addr:street": "Ba\u011fdag\u00fcl soka\u011f\u0131", "amenity": "restaurant", "name": "Etiler marmaris", "name:ar": "\u0645\u0637\u0639\u0645 \u0627\u064a\u062a\u064a\u0644\u064a\u0631 \u0645\u0627\u0631\u0645\u0627\u0631\u064a\u0633", "phone": "02164072727"}}, {"type": "node", "id": 5329336531, "lat": 40.9675051, "lon": 29.2674874, "tags": {"addr:city": "Istanbul", "addr:district": "Sultanbeyli", "addr:street": "Merkez soka\u011f\u0131", "amenity": "cafe", "name": "Eksen internet kafe", "name:ar": "\u0645\u0642\u0647\u0649 \u0627\u0646\u062a\u0631\u0646\u062a \u0627\u0643\u0633\u0627\u0646", "phone": "02164193368"}}, {"type": "node", "id": 5329336535, "lat": 40.9626118, "lon": 29.2701053, "tags": {"addr:city": "Istanbul", "addr:district": "Sultanbeyli", "addr:street": "Ziya-\u00fcl hak caddise", "amenity": "restaurant", "name": "Al\u015fark restoran", "name:ar": "\u0645\u0637\u0639\u0645 \u0627\u0644\u0634\u0631\u0642"}}, {"type": "node", "id": 5329336542, "lat": 40.9939402, "lon": 29.2716613, "tags": {"addr:city": "Istanbul", "addr:district": "Sultanbeyli", "addr:street": "\u015eenkaya soka\u011f\u0131", "amenity": "cafe", "name": "Theras cafe", "name:ar": "\u0645\u0642\u0647\u0649 \u062b\u064a\u0631\u0627\u0633", "phone": "05462758265"}}, {"type": "node", "id": 5329336545, "lat": 40.9663952, "lon": 29.2653631, "tags": {"addr:city": "Istanbul", "addr:district": "Sultanbeyli", "addr:street": "\u015een caddesi", "amenity": "cafe", "name": "Elma cafe", "name:ar": "\u0645\u0642\u0647\u0649 \u0627\u064a\u0644\u0645\u0627", "phone": "05382436304"}}, {"type": "node", "id": 5329336550, "lat": 40.9635678, "lon": 29.2670154, "tags": {"addr:city": "Istanbul", "addr:district": "Sultanbeyli", "addr:street": "G\u00fcl caddesi", "amenity": "restaurant", "name": "K\u00f6\u015fe ba\u015fi", "name:ar": "\u0645\u0637\u0639\u0645 \u0643\u0648\u0634\u0627 \u0628\u0627\u0634\u064a \u0644\u0644\u0648\u062c\u0628\u0627\u062a \u0627\u0644\u0633\u0631\u064a\u0639\u0629"}}, {"type": "node", "id": 5329336553, "lat": 40.9654439, "lon": 29.2684437, "tags": {"addr:city": "Istanbul", "addr:district": "Sultanbeyli", "addr:street": "\u015eanl\u0131urfa caddesi", "amenity": "restaurant", "name": "Hedef 12", "name:ar": "\u0645\u0637\u0639\u0645 \u0647\u062f\u0641", "phone": "05326296340"}}, {"type": "node", "id": 5329337976, "lat": 40.9666183, "lon": 29.2698161, "tags": {"addr:city": "Istanbul", "addr:district": "Sultanbeyli", "addr:street": "Cahar Dudayev Sk", "amenity": "restaurant", "name": "K\u00f6y\u00fcmce iskender", "name:ar": "\u0627\u0633\u0643\u0646\u062f\u0631", "phone": "02163985004"}}, {"type": "node", "id": 5329337977, "lat": 40.9664276, "lon": 29.2719721, "tags": {"addr:city": "\u0130stanbul", "addr:district": "Sultanbeyli", "addr:street": "Hekimler Soka\u011f\u0131", "amenity": "cafe", "name": "Huzur"}}, {"type": "node", "id": 5329337980, "lat": 40.9661991, "lon": 29.2712401, "tags": {"addr:city": "Istanbul", "addr:district": "Sultanbeyli", "addr:street": "Saray\u0131 Sk.", "amenity": "cafe", "name": "Tak\u0131l\u0131yoz Cafe", "name:ar": "\u0645\u0642\u0647\u0649 \u064a\u0627\u0643\u0644\u064a\u0648\u0632"}}, {"type": "node", "id": 5329337981, "lat": 40.9660101, "lon": 29.2713113, "tags": {"addr:city": "Istanbul", "addr:district": "Sultanbeyli", "addr:street": "Faith Bulvar\u0131", "amenity": "cafe", "name": "Paris Cafe", "name:ar": "\u0645\u0642\u0647\u0649 \u0628\u0627\u0631\u064a\u0633"}}, {"type": "node", "id": 5329337982, "lat": 40.9661815, "lon": 29.2706858, "tags": {"addr:city": "Istanbul", "addr:district": "Sultanbeyli", "addr:street": "Faith Bulvar\u0131", "amenity": "restaurant", "name": "Rainbow Cafe Restaurant", "name:ar": "\u0645\u0642\u0647\u0649 \u0648\u0645\u0637\u0639\u0645 \u0642\u0648\u0633 \u0642\u0632\u062d", "phone": "02164964345"}}, {"type": "node", "id": 5329337990, "lat": 40.9663362, "lon": 29.2691257, "tags": {"addr:city": "Istanbul", "addr:district": "Sultanbeyli", "addr:street": "Fatih bulvar\u0131", "amenity": "restaurant", "name": "Adakl\u0131 \u0130skender Kebab", "name:ar": "\u0645\u0637\u0639\u0645 \u0627\u0633\u0643\u0646\u062f\u0631", "phone": "02163980429"}}, {"type": "node", "id": 5329337997, "lat": 40.9549714, "lon": 29.2640113, "tags": {"addr:city": "Istanbul", "addr:district": "Sultanbeyli", "addr:street": "Akabe caddesi", "amenity": "restaurant", "name": "U\u011furlu cafe restorant", "name:ar": "\u0645\u0637\u0639\u0645 \u0627\u0648\u062c\u0648\u0631\u0644\u0648", "phone": "02164198526"}}, {"type": "node", "id": 5329338001, "lat": 40.9950918, "lon": 29.2666077, "tags": {"addr:city": "Istanbul", "addr:district": "Sultanbeyli", "addr:street": "Bakkalo\u011flu caddesi", "amenity": "restaurant", "name": "Salas lahmacun", "name:ar": "\u0645\u0637\u0639\u0645 \u0633\u0627\u0644\u0627\u0633"}}, {"type": "node", "id": 5329338016, "lat": 40.9644914, "lon": 29.2661142, "tags": {"addr:city": "Istanbul", "addr:district": "Sultanbeyli", "addr:street": "Kuran kursu caddesi", "amenity": "cafe", "name": "Miss d\u00f6ner pida b\u00f6rek", "name:ar": "\u0645\u0642\u0647\u0649 \u0645\u064a\u0633", "phone": "05352551287"}}, {"type": "node", "id": 5329338137, "lat": 40.9653663, "lon": 29.2721438, "tags": {"addr:city": "Istanbul", "addr:district": "Sultanbeyli", "addr:street": "Erdo\u011fan caddesi", "amenity": "restaurant", "name": "Mekan kokore\u00e7", "name:ar": "\u0645\u0637\u0639\u0645 \u0645\u064a\u0643\u0627\u0646 \u0643\u0648\u0643\u0648\u0631\u064a\u062a\u0634", "phone": "05358133322"}}, {"type": "node", "id": 5329338139, "lat": 40.9689552, "lon": 29.2679166, "tags": {"addr:city": "Istanbul", "addr:district": "Sultanbeyli", "addr:street": "Yusuf islam soka\u011f\u0131", "amenity": "restaurant", "name": "Tek\u00e7e kanat", "name:ar": "\u0645\u0637\u0639\u0645 \u062a\u0634\u064a\u0643\u0646 \u0648\u064a\u0646\u062c\u0632", "phone": "02164191373"}}, {"type": "node", "id": 5329338142, "lat": 40.9676428, "lon": 29.2658352, "tags": {"addr:city": "Istanbul", "addr:district": "Sultanbeyli", "addr:street": "Fatih bulvar\u0131", "amenity": "cafe", "name": "Main street cafe", "name:ar": "\u0645\u0642\u0647\u0649 \u0627\u0644\u0634\u0627\u0631\u0639 \u0627\u0644\u0631\u0626\u064a\u0633\u064a", "phone": "02164191012"}}, {"type": "node", "id": 5329338157, "lat": 40.9667841, "lon": 29.2671656, "tags": {"addr:city": "Istanbul", "addr:district": "Sultanbeyli", "addr:street": "Kuran kursu caddesi", "amenity": "restaurant", "name": "\u00d6z firat", "name:ar": "\u0645\u0637\u0639\u0645 \u0627\u0648\u0632 \u0641\u0631\u0627\u062a", "phone": "02163980119"}}, {"type": "node", "id": 5329338158, "lat": 40.9675458, "lon": 29.2661638, "tags": {"addr:city": "Istanbul", "addr:district": "Sultanbeyli", "addr:street": "Fatih bulvar\u0131", "amenity": "restaurant", "name": "Tutkun d\u00f6nercim", "name:ar": "\u0645\u0637\u0639\u0645 \u062a\u0648\u062a\u0643\u0627\u0646", "phone": "02164198021"}}, {"type": "node", "id": 5344919579, "lat": 40.9531237, "lon": 29.2816387, "tags": {"addr:city": "Istanbul", "addr:district": "Sultanbeyli", "addr:street": "Eyyubi caddesi", "amenity": "cafe", "name": "Ortakent", "name:ar": "\u0627\u0648\u0631\u062a\u0627\u0643\u0646\u062a", "phone": "05334491158"}}, {"type": "node", "id": 5344919588, "lat": 40.9582743, "lon": 29.2963817, "tags": {"addr:city": "Istanbul", "addr:district": "Sultanbeyli", "addr:street": "Fatih Bulvar\u0131", "amenity": "restaurant", "name": "mara\u00e7", "name:ar": "\u0645\u0637\u0639\u0645 \u0645\u0627\u0631\u0627\u0634"}}, {"type": "node", "id": 5474427046, "lat": 41.007533, "lon": 29.1813598}, {"type": "node", "id": 5474427047, "lat": 41.0073689, "lon": 29.1813227}, {"type": "node", "id": 5474427048, "lat": 41.0073464, "lon": 29.1814976}, {"type": "node", "id": 5474427049, "lat": 41.0074901, "lon": 29.1815301}, {"type": "node", "id": 5474427050, "lat": 41.0075164, "lon": 29.1814885}, {"type": "node", "id": 5482100786, "lat": 41.0154868, "lon": 29.1901285, "tags": {"amenity": "cafe", "internet_access": "yes", "internet_access:fee": "no", "name": "Simidin Tad\u0131", "outdoor_seating": "yes", "smoking": "isolated"}}, {"type": "node", "id": 5483268808, "lat": 41.008788, "lon": 29.1606255}, {"type": "node", "id": 5483268809, "lat": 41.0087131, "lon": 29.1608052}, {"type": "node", "id": 5483268810, "lat": 41.0086441, "lon": 29.1607452}, {"type": "node", "id": 5483268811, "lat": 41.008714, "lon": 29.1605643}, {"type": "node", "id": 5485110447, "lat": 41.0217288, "lon": 29.1930521, "tags": {"amenity": "cafe", "name": "Etiler B\u00f6rek"}}, {"type": "node", "id": 5485804497, "lat": 41.0225186, "lon": 29.1935411, "tags": {"amenity": "cafe", "name": "Cafe Mor"}}, {"type": "node", "id": 5489334557, "lat": 41.0175652, "lon": 29.1950509, "tags": {"amenity": "cafe", "name": "Big\u015fah Mant\u0131 & Cafe"}}, {"type": "node", "id": 5489334649, "lat": 41.0178323, "lon": 29.1920415, "tags": {"amenity": "cafe", "name": "Kahvalt\u0131 Keyfi"}}, {"type": "node", "id": 5494846181, "lat": 41.0138834, "lon": 29.2547721}, {"type": "node", "id": 5494846182, "lat": 41.0138679, "lon": 29.2549551}, {"type": "node", "id": 5494846183, "lat": 41.0139535, "lon": 29.255089}, {"type": "node", "id": 5494846184, "lat": 41.0138068, "lon": 29.2550668}, {"type": "node", "id": 5494846185, "lat": 41.0136744, "lon": 29.2551206}, {"type": "node", "id": 5494846186, "lat": 41.0135657, "lon": 29.2550303}, {"type": "node", "id": 5494846187, "lat": 41.0135795, "lon": 29.2548728}, {"type": "node", "id": 5494846188, "lat": 41.0136848, "lon": 29.2547425}, {"type": "node", "id": 5494974708, "lat": 41.0091228, "lon": 29.1665187}, {"type": "node", "id": 5494974709, "lat": 41.0090188, "lon": 29.1664365}, {"type": "node", "id": 5494974710, "lat": 41.0089764, "lon": 29.1665521}, {"type": "node", "id": 5494974711, "lat": 41.0090835, "lon": 29.1666261}, {"type": "node", "id": 5537877621, "lat": 40.931168, "lon": 29.3051593, "tags": {"addr:city": "\u0130stanbul", "addr:district": "Pendik", "addr:housenumber": "118/A", "addr:neighbourhood": "Yeni\u015fehir Mahallesi", "addr:postcode": "34912", "addr:street": "Cumhuriyet Blv.", "amenity": "cafe", "cuisine": "turkish", "internet_access": "wlan", "name": "Marmaris B\u00fcfe", "name:en": "Marmaris Buffet", "name:tr": "Marmaris B\u00fcfe", "official_name": "Marmaris B\u00fcfe 1964", "opening_hours": "Mo-Su 09:00-01:00", "operator": "Marmaris B\u00fcfe", "phone": "02125100032", "website": "https://www.marmarisbufe.com.tr/"}}, {"type": "node", "id": 5542883357, "lat": 40.9640021, "lon": 29.2821225, "tags": {"addr:city": "Istanbul", "addr:district": "Sultanbeyli", "addr:street": "Fatih Bulvar\u0131 Caddesi", "amenity": "restaurant", "name": "Miss B\u00f6rek ve Pide Salonu"}}, {"type": "node", "id": 5542883359, "lat": 40.9769558, "lon": 29.2655316, "tags": {"addr:city": "Istanbul", "addr:district": "Sultanbeyli", "addr:street": "Sel\u00e7\u0131kan Caddesi", "amenity": "restaurant", "cuisine": "steak_house", "name": "Kasap", "name:ar": "\u0642\u0635\u0627\u0628"}}, {"type": "node", "id": 5542883379, "lat": 40.9681283, "lon": 29.2544031, "tags": {"addr:city": "Istanbul", "addr:district": "Sultanbeyli", "addr:street": "\u015eanl\u0131urfa Caddesi", "amenity": "restaurant", "name": "Tekin Malik Restaurant", "name:ar": "\u0645\u0637\u0639\u0645 \u062a\u064a\u0643\u064a\u0646", "phone": "02163981572"}}, {"type": "node", "id": 5542883382, "lat": 40.9684604, "lon": 29.2761612, "tags": {"addr:city": "Istanbul", "addr:district": "Sultanbeyli", "addr:street": "\u00e7amlik Caddesi", "amenity": "restaurant", "name": "Yufkacibkafkas", "name:ar": "\u0645\u0637\u0639\u0645 \u064a\u0627\u0641\u0627\u0643\u0627\u062c\u064a", "phone": "05427801210"}}, {"type": "node", "id": 5542883384, "lat": 40.9684118, "lon": 29.276011, "tags": {"addr:city": "Istanbul", "addr:district": "Sultanbeyli", "addr:street": "\u00e7amlik Caddesi", "amenity": "restaurant", "name": "\u00c7i\u011fk\u00f6fte Omar uosta", "name:ar": "\u0645\u0637\u0639\u0645 \u0639\u0645\u0631 \u0627\u0648\u0633\u0637\u0627"}}, {"type": "node", "id": 5542883390, "lat": 40.9447325, "lon": 29.3002304, "tags": {"addr:city": "Istanbul", "addr:district": "Sultanbeyli", "addr:street": "Fatih blv", "amenity": "restaurant", "name": "Tiryaki kebap", "name:ar": "\u0645\u0637\u0639\u0645 \u0643\u0628\u0627\u0628"}}, {"type": "node", "id": 5542883393, "lat": 40.9783105, "lon": 29.2708611, "tags": {"addr:city": "Istanbul", "addr:district": "Sultanbeyli", "addr:street": "kaptan\u0131 derya Caddesi", "amenity": "restaurant", "name": "Hvi", "name:ar": "\u0645\u0637\u0639\u0645 \u0647\u0627\u0641\u064a"}}, {"type": "node", "id": 5542883395, "lat": 40.9675531, "lon": 29.2751312, "tags": {"addr:city": "Istanbul", "addr:district": "Sultanbeyli", "addr:street": "\u00e7amlik Cadde", "amenity": "restaurant", "name": "Safranblu borek\u00e7isi", "name:ar": "\u0645\u0637\u0639\u0645 \u0633\u0627\u0641\u0631\u0627\u0646\u0628\u0648\u0644\u0648"}}, {"type": "node", "id": 5542883407, "lat": 40.9762612, "lon": 29.27423, "tags": {"addr:city": "Istanbul", "addr:district": "Sultanbeyli", "addr:street": "yildirim Caddesi", "amenity": "restaurant", "name": "Dogus yemek", "name:ar": "\u0645\u0637\u0639\u0645 \u062f\u0648\u0643\u0648\u0632"}}, {"type": "node", "id": 5542883411, "lat": 40.9648871, "lon": 29.2785574, "tags": {"addr:city": "Istanbul", "addr:district": "Sultanbeyli", "addr:street": "Fatih Bulvar\u0131 Caddesi", "amenity": "cafe", "name": "\u00c7ay Oca\u011f\u0131", "name:ar": "\u0645\u062d\u0644 \u0627\u0644\u0642\u0647\u0648\u0629 \u0648\u0627\u0644\u0634\u0627\u064a"}}, {"type": "node", "id": 5542883413, "lat": 40.9692806, "lon": 29.2581984, "tags": {"addr:city": "Istanbul", "addr:district": "Sultanbeyli", "addr:street": "faith Caddesi", "amenity": "restaurant", "name": "\u015eehr-i saraylim", "name:ar": "\u0645\u0637\u0639\u0645 \u0634\u064a\u0647\u0631", "phone": "02164198616"}}, {"type": "node", "id": 5542883416, "lat": 40.9526046, "lon": 29.2971164, "tags": {"addr:city": "Istanbul", "addr:district": "Sultanbeyli", "addr:street": "Fatih bulguru", "amenity": "restaurant", "name": "lezzet", "name:ar": "\u0644\u0648\u0632\u064a\u062a", "phone": "05616160034"}}, {"type": "node", "id": 5542883419, "lat": 40.9670739, "lon": 29.2532711, "tags": {"addr:city": "Istanbul", "addr:district": "Sultanbeyli", "addr:street": "Dumlupinar caddesi \u062f\u0648\u0645\u0644\u0648 \u0628\u064a\u0646\u0627\u0631 \u062c\u0627\u062f\u064a\u0633\u064a", "amenity": "cafe", "name": "Bi \u00e7ay", "name:ar": "\u0628\u064a \u0634\u0627\u064a"}}, {"type": "node", "id": 5542883525, "lat": 40.976035, "lon": 29.2714484, "tags": {"addr:city": "Istanbul", "addr:district": "Sultanbeyli", "addr:street": "yildirim Caddesi", "amenity": "restaurant", "name": "Atakl\u0131 pide", "name:ar": "\u0645\u0637\u0639\u0645 \u0627\u062f\u0627\u0643\u0627\u0644\u064a \u0628\u064a\u062f\u064a"}}, {"type": "node", "id": 5542883526, "lat": 40.9686209, "lon": 29.2527391, "tags": {"addr:city": "Istanbul", "addr:district": "Sultanbeyli", "addr:street": "faith bulvar\u0131 Caddesi", "amenity": "restaurant", "name": "U\u011fur i\u015fkembe salonu", "name:ar": "\u0645\u0637\u0639\u0645 \u0627\u0648\u063a\u0648\u0631", "phone": "02164194039"}}, {"type": "node", "id": 5542883527, "lat": 40.9829281, "lon": 29.2730261, "tags": {"addr:city": "Istanbul", "addr:district": "Sultanbeyli", "addr:street": "kubbe Caddesi", "amenity": "restaurant", "name": "Tazedo", "name:ar": "\u0645\u0637\u0639\u0645 \u062a\u0627\u0632\u064a\u062f\u0648", "phone": "02163989898"}}, {"type": "node", "id": 5542883530, "lat": 40.9520936, "lon": 29.296681, "tags": {"addr:city": "Istanbul", "addr:district": "Sultanbeyli", "addr:street": "E\u015frefbey caddese", "amenity": "restaurant", "name": "\u015eorba salinu", "name:ar": "\u0634\u0648\u0631\u0628\u0647 \u0633\u0627\u0644\u0648\u0646\u0648", "phone": "4874454"}}, {"type": "node", "id": 5542883533, "lat": 40.9819897, "lon": 29.2665766, "tags": {"addr:city": "Istanbul", "addr:district": "Sultanbeyli", "addr:street": "Kubbe Caddesi", "amenity": "restaurant", "name": "Foto burak", "name:ar": "\u0645\u0637\u0639\u0645 \u0641\u0648\u062a\u0648 \u0628\u0648\u0631\u0627\u0643", "phone": "05349186010"}}, {"type": "node", "id": 5542883534, "lat": 40.9624532, "lon": 29.2876137, "tags": {"addr:city": "Istanbul", "addr:district": "Sultanbeyli", "addr:street": "Fatih Bulvar\u0131 Caddesi", "amenity": "restaurant", "name": "Positive Catering", "name:ar": "\u0645\u0637\u0639\u0645 \u062c\u0627\u062a\u064a\u0631\u064a\u0646", "phone": "02164985001"}}, {"type": "node", "id": 5542883539, "lat": 40.9432494, "lon": 29.2973981, "tags": {"addr:city": "Istanbul", "addr:district": "Sultanbeyli", "addr:street": "Turabi Soka\u011f\u0131", "amenity": "restaurant", "name": "ihsan vakfi ilme hizmet a\u015fevi", "name:ar": "\u0645\u0637\u0628\u062e \u0627\u062d\u0633\u0627\u0646", "phone": "05359894608"}}, {"type": "node", "id": 5542883548, "lat": 40.9710073, "lon": 29.2493752, "tags": {"addr:city": "Istanbul", "addr:district": "Sultanbeyli", "addr:street": "fatih bulvar\u0131", "amenity": "restaurant", "name": "\u015e\u00f6len \u00c7orba", "name:ar": "\u0634\u0648\u0644\u064a\u0646 \u0634\u0648\u0631\u0628\u0629"}}, {"type": "node", "id": 5542883556, "lat": 40.9770955, "lon": 29.2659473, "tags": {"addr:city": "Istanbul", "addr:district": "Sultanbeyli", "addr:street": "sel\u00e7ukhan Caddesi", "amenity": "restaurant", "name": "Yavuz lar", "name:ar": "\u0645\u0637\u0639\u0645 \u064a\u0627\u0641\u0632\u0644\u0627\u0631", "phone": "02165920237"}}, {"type": "node", "id": 5542883560, "lat": 40.9706152, "lon": 29.2591453, "tags": {"addr:city": "Istanbul", "addr:district": "Sultanbeyli", "addr:street": "Belediye Caddesi", "amenity": "cafe", "name": "\u0130mrem cafe", "name:ar": "\u0645\u0642\u0647\u0649 \u0627\u064a\u0645\u0631\u064a\u0645", "phone": "02163984411"}}, {"type": "node", "id": 5542883564, "lat": 40.9683713, "lon": 29.2547035, "tags": {"addr:city": "Istanbul", "addr:district": "Sultanbeyli", "addr:street": "Fatih Bulvar\u0131 Caddesi", "amenity": "restaurant", "name": "Eyy\u00fcpo\u011flu", "name:ar": "\u0645\u0637\u0639\u0645 \u0623\u064a\u0648\u0628 \u0627\u0648\u063a\u0644\u0648", "phone": "02163989027"}}, {"type": "node", "id": 5542883567, "lat": 40.9671736, "lon": 29.2752743, "tags": {"addr:city": "Istanbul", "addr:district": "Sultanbeyli", "addr:street": "huzur Cadde", "amenity": "restaurant", "name": "Acicik \u00e7i\u011f k\u00f6fte", "name:ar": "\u0645\u0637\u0639\u0645 \u0627\u062c\u064a\u062c\u064a\u0643", "phone": "02163720000"}}, {"type": "node", "id": 5542883573, "lat": 40.9449263, "lon": 29.2846502, "tags": {"addr:city": "Istanbul", "addr:district": "Sultanbeyli", "addr:street": "Semanur Soka\u011f\u0131", "amenity": "restaurant", "name": "Be\u015fey\u00fcl k\u00f6fte", "name:ar": "\u0645\u0637\u0639\u0645 \u0643\u0641\u062a\u0647 \u0628\u064a\u0634\u0627\u064a\u0648\u0644"}}, {"type": "node", "id": 5542883579, "lat": 40.9473214, "lon": 29.2994213, "tags": {"addr:city": "Istanbul", "addr:district": "Sultanbeyli", "addr:street": "Fatih bulvar\u0131", "amenity": "cafe", "name": "Pastanesi", "name:ar": "\u0628\u0633\u062a\u0627\u0646\u0627\u0633\u064a"}}, {"type": "node", "id": 5542883581, "lat": 40.9771927, "lon": 29.2662048, "tags": {"addr:city": "Istanbul", "addr:district": "Sultanbeyli", "addr:street": "biberlik Caddesi", "amenity": "restaurant", "name": "Ziyafet", "name:ar": "\u0645\u0637\u0639\u0645 \u0632\u064a\u0627\u0641\u0627\u062a"}}, {"type": "node", "id": 5542883584, "lat": 40.9771603, "lon": 29.2657757, "tags": {"addr:city": "Istanbul", "addr:district": "Sultanbeyli", "addr:street": "sel\u00e7ukhan Caddesi", "amenity": "restaurant", "name": "Kar\u0131\u015f\u0131k \u0131zgara", "name:ar": "\u0645\u0637\u0639\u0645 \u0643\u0627\u0631\u064a\u0634\u0643 \u0627\u064a\u0632\u0643\u0627\u0631"}}, {"type": "node", "id": 5542883588, "lat": 40.9789627, "lon": 29.2696605, "tags": {"addr:city": "Istanbul", "addr:district": "Sultanbeyli", "addr:street": "sel\u00e7ukhan Caddesi", "amenity": "restaurant", "name": "Saydam", "name:ar": "\u0645\u0637\u0639\u0645 \u0633\u0627\u064a\u062f\u0627\u0645", "phone": "05375612721"}}, {"type": "node", "id": 5542883594, "lat": 40.9677637, "lon": 29.2753029, "tags": {"addr:city": "Istanbul", "addr:district": "Sultanbeyli", "addr:street": "\u00e7amlik Caddesi", "amenity": "restaurant", "name": "Salas ticaret", "name:ar": "\u0645\u0637\u0639\u0645 \u0633\u0627\u0644\u0627\u0633"}}, {"type": "node", "id": 5542883595, "lat": 40.9690086, "lon": 29.2577583, "tags": {"addr:city": "Istanbul", "addr:district": "Sultanbeyli", "addr:street": "Fatih Bulvar\u0131 Caddesi", "amenity": "restaurant", "name": "D\u00f6ner.com", "name:ar": "\u0645\u0637\u0639\u0645 \u0647\u0627\u0633"}}, {"type": "node", "id": 5542883596, "lat": 40.9595082, "lon": 29.2561841, "tags": {"addr:city": "Istanbul", "addr:district": "Sultanbeyli", "addr:street": "Orman Caddesi", "amenity": "restaurant", "name": "Has \u00c7i\u011f K\u00f6fte dunyasi", "name:ar": "\u0645\u0637\u0639\u0645 \u0647\u0627\u0633 \u0634\u064a\u0643\u0648\u0641\u062a\u0627", "phone": "05395609012"}}, {"type": "node", "id": 5542883597, "lat": 40.9940061, "lon": 29.2744017, "tags": {"addr:city": "Istanbul", "addr:district": "Sultanbeyli", "addr:street": "sel\u00e7ukhan Caddesi", "amenity": "cafe", "name": "Akarsu cafe", "name:ar": "\u0645\u0642\u0647\u0649 \u0627\u0643\u0627\u0631\u0633\u0648", "phone": "02165927455"}}, {"type": "node", "id": 5542883599, "lat": 40.9670913, "lon": 29.2640376, "tags": {"addr:city": "Istanbul", "addr:district": "Sultanbeyli", "addr:street": "Kale Caddesi", "amenity": "restaurant", "name": "Tat Sultan", "name:ar": "\u0645\u0637\u0639\u0645 \u0633\u0644\u0637\u0627\u0646"}}, {"type": "node", "id": 5542883603, "lat": 40.9673911, "lon": 29.2627931, "tags": {"addr:city": "Istanbul", "addr:district": "Sultanbeyli", "addr:street": "Ferah Caddesi", "amenity": "restaurant", "name": "Sarma\u015f\u0131k et mangal", "name:ar": "\u0645\u0637\u0639\u0645 \u0633\u0627\u0631\u0645\u0627\u0634\u064a\u063a", "phone": "02165613030"}}, {"type": "node", "id": 5542883604, "lat": 40.9507348, "lon": 29.298449, "tags": {"addr:city": "Istanbul", "addr:district": "Sultanbeyli", "addr:street": "Sina iyi", "amenity": "restaurant", "name": "koca kabap kanat", "name:ar": "\u0643\u0648\u062c\u0647 \u0643\u0628\u0627\u0628 \u0643\u0646\u0627\u062a"}}, {"type": "node", "id": 5542883605, "lat": 40.9867581, "lon": 29.2642522, "tags": {"addr:city": "Istanbul", "addr:district": "Sultanbeyli", "addr:street": "bosna Caddesi", "amenity": "restaurant", "name": "Adanal\u0131 D\u00fcr\u00fcmc\u00fc", "name:ar": "\u0645\u0637\u0639\u0645 \u0627\u062f\u0627\u0646\u0627\u0644\u064a \u062f\u0648\u0631\u0648\u0645\u062c\u0648", "phone": "05399258383"}}, {"type": "node", "id": 5542883606, "lat": 40.9688412, "lon": 29.2532229, "tags": {"addr:city": "Istanbul", "addr:district": "Sultanbeyli", "addr:street": "faith bulvar\u0131 Caddesi", "amenity": "restaurant", "name": "K\u00f6zde kokore\u00e7 k\u00f6fte", "name:ar": "\u0645\u0637\u0639\u0645 \u0643\u0648\u0632\u062f\u064a", "phone": "05364365100"}}, {"type": "node", "id": 5542883608, "lat": 40.941997, "lon": 29.3019007, "tags": {"addr:city": "Istanbul", "addr:district": "Sultanbeyli", "addr:street": "E\u015fref bitlis blv", "amenity": "cafe", "name": "Alt\u0131n tabak k\u00fcnefaci", "name:ar": "\u0645\u062a\u062c\u0631 \u062d\u0644\u0648\u064a\u0627\u062a", "phone": "4870411"}},