{"version": 0.6, "generator": "Overpass API 0.7.62.7 375dc00a", "osm3s": {"timestamp_osm_base": "2025-06-14T13:55:30Z", "copyright": "The data included in this document is from www.openstreetmap.org. The data is made available under ODbL."}, "elements": [{"type": "node", "id": 860992985, "lat": 38.6371755, "lon": 15.0768864, "tags": {"amenity": "restaurant", "name": "Banacalii"}}, {"type": "node", "id": 860996153, "lat": 38.6371869, "lon": 15.0770375, "tags": {"amenity": "restaurant", "name": "Da Francesco"}}, {"type": "node", "id": 860996761, "lat": 38.6371164, "lon": 15.0767183, "tags": {"amenity": "restaurant"}}, {"type": "node", "id": 861703222, "lat": 38.8036733, "lon": 15.2360825, "tags": {"amenity": "restaurant", "check_date": "2023-06-16", "name": "La Lampara"}}, {"type": "node", "id": 861703309, "lat": 38.8032118, "lon": 15.2383157, "tags": {"amenity": "restaurant", "check_date": "2023-06-12", "name": "Ritrovo Ingrid", "website": "https://www.pedraresidence.it/servizi/ristorante-ritrovo-ingrid"}}, {"type": "node", "id": 1331327618, "lat": 38.7861007, "lon": 15.1909754, "tags": {"amenity": "restaurant", "name": "L'Incontro"}}, {"type": "node", "id": 1779180002, "lat": 38.8015616, "lon": 15.2381726, "tags": {"amenity": "restaurant", "check_date": "2023-06-16", "indoor_seating": "yes", "name": "La Trottola", "outdoor_seating": "yes"}}, {"type": "node", "id": 1994468338, "lat": 38.637598, "lon": 15.076658, "tags": {"amenity": "cafe", "check_date": "2023-06-12", "cuisine": "sandwich;ice_cream", "internet_access": "wlan", "internet_access:fee": "no", "name": "Bar da Carola", "operator": "Tesoriero Carolina", "outdoor_seating": "yes", "phone": "+39 090 983349", "ref:vatin": "IT02792380830", "takeaway": "yes"}}, {"type": "node", "id": 2296471232, "lat": 38.8100983, "lon": 15.215871}, {"type": "node", "id": 2296471233, "lat": 38.8100527, "lon": 15.2159034}, {"type": "node", "id": 2296471238, "lat": 38.8101222, "lon": 15.2156327}, {"type": "node", "id": 2296471247, "lat": 38.8100041, "lon": 15.2157907}, {"type": "node", "id": 2608511394, "lat": 38.8100109, "lon": 15.2157521}, {"type": "node", "id": 2608511395, "lat": 38.810022, "lon": 15.2157779}, {"type": "node", "id": 2608511398, "lat": 38.8100484, "lon": 15.2156851}, {"type": "node", "id": 2608511399, "lat": 38.8100617, "lon": 15.215716}, {"type": "node", "id": 2608511401, "lat": 38.8100855, "lon": 15.2158414}, {"type": "node", "id": 2608511415, "lat": 38.8102141, "lon": 15.2157501}, {"type": "node", "id": 2954986762, "lat": 38.6290234, "lon": 15.0671543, "tags": {"addr:city": "Panarea", "amenity": "restaurant", "name": "Zimmari"}}, {"type": "node", "id": 2955074201, "lat": 38.6370465, "lon": 15.0751668, "tags": {"amenity": "restaurant", "cuisine": "regional", "name": "Da Pina", "phone": "+39 090 983032", "website": "http://www.panareadapina.it/ristorante.asp"}}, {"type": "node", "id": 2956277888, "lat": 38.6374935, "lon": 15.075556, "tags": {"addr:city": "Panarea", "addr:postcode": "98050", "amenity": "restaurant", "name": "Il Macellaio"}}, {"type": "node", "id": 2956277891, "lat": 38.6374762, "lon": 15.0767333, "tags": {"amenity": "restaurant", "check_date": "2023-06-12", "cuisine": "pizza", "email": "nfo@ilgeco-panarea.it", "name": "Il Geco", "phone": "+39 090 983256", "website": "http://www.ilgeco-panarea.it/"}}, {"type": "node", "id": 2956277892, "lat": 38.6379437, "lon": 15.0765104, "tags": {"addr:city": "Panarea", "addr:postcode": "98050", "amenity": "restaurant", "check_date": "2023-06-12", "cuisine": "regional", "name": "Nonna Pasqualina", "website": "https://www.dafrancescopanarea.com/index.php?ID_PAGINA=4"}}, {"type": "node", "id": 2956277893, "lat": 38.6380318, "lon": 15.076489, "tags": {"addr:city": "Panarea", "amenity": "restaurant", "cuisine": "regional", "email": "info@dafrancescopanarea.com", "name": "Da Francesco", "phone": "+39 090 983179", "website": "https://www.dafrancescopanarea.com/index.php?ID_PAGINA=4"}}, {"type": "node", "id": 2956277894, "lat": 38.6381448, "lon": 15.0763334, "tags": {"addr:city": "Panarea", "addr:postcode": "98050", "amenity": "restaurant", "cuisine": "regional", "email": "info@cusiritati.com", "name": "Cusiritati", "phone": "+39 090 983022", "website": "https://www.cusiritati.com/"}}, {"type": "node", "id": 2956277912, "lat": 38.6403528, "lon": 15.0750374, "tags": {"addr:city": "Panarea", "addr:country": "IT", "addr:housenumber": "75", "addr:postcode": "98050", "addr:street": "Via Iditella", "amenity": "restaurant", "contact:email": "trattoriadapaolino@libero.it", "contact:mobile": "+39 339 1325473", "contact:phone": "+39 090 983008", "cuisine": "regional", "name": "Trattoria da Paolino"}}, {"type": "node", "id": 3005842181, "lat": 38.8101411, "lon": 15.2156764}, {"type": "node", "id": 3005842184, "lat": 38.8101726, "lon": 15.2156539}, {"type": "node", "id": 3171030016, "lat": 38.6376587, "lon": 15.0766177, "tags": {"addr:city": "Panarea", "addr:housenumber": "28", "addr:street": "Via Porto", "amenity": "restaurant", "check_date": "2023-06-16", "cuisine": "regional", "name": "Da Adelina", "phone": "+39 334 113 2496", "website": "https://it-it.facebook.com/pages/Adelina-Panarea/191808827508619"}}, {"type": "node", "id": 3171062924, "lat": 38.8023339, "lon": 15.238235, "tags": {"addr:place": "Stromboli", "addr:postcode": "98050", "addr:street": "Via Roma", "amenity": "restaurant", "cuisine": "pizza", "name": "Da Luciano"}}, {"type": "node", "id": 3171062927, "lat": 38.8034651, "lon": 15.2364489, "tags": {"addr:housenumber": "17", "addr:street": "Corso Vittorio Emanuele", "amenity": "restaurant", "check_date": "2023-06-16", "name": "La Locanda del Barbabl\u00fa", "opening_hours": "Mo-Su,PH 09:30-12:30,15:30-18:30", "website": "http://www.barbablu.it/"}}, {"type": "node", "id": 3414068756, "lat": 38.8090314, "lon": 15.2285267, "tags": {"amenity": "restaurant", "name": "Ritrovo Piscit\u00e0"}}, {"type": "node", "id": 3415696324, "lat": 38.7868987, "lon": 15.1910932, "tags": {"amenity": "restaurant", "name": "Ristorante Nonna Assunta", "website": "http://www.nonnaassunta.it"}}, {"type": "node", "id": 3415710209, "lat": 38.785401, "lon": 15.1929483, "tags": {"amenity": "restaurant", "name": "Ristorante La Stella"}}, {"type": "node", "id": 3415874683, "lat": 38.800161, "lon": 15.2385157, "tags": {"amenity": "restaurant", "name": "Ristorante Il Canneto"}}, {"type": "node", "id": 3415874684, "lat": 38.800748, "lon": 15.237677, "tags": {"amenity": "restaurant", "name": "Trattoria ai Gechi"}}, {"type": "node", "id": 3428141693, "lat": 38.8005221, "lon": 15.238564, "tags": {"amenity": "restaurant", "cuisine": "pizza", "name": "Pizzeria da Giovanni"}}, {"type": "node", "id": 3633353316, "lat": 38.6369612, "lon": 15.0756414, "tags": {"addr:street": "Via San Pietro", "amenity": "restaurant", "cuisine": "italian", "name": "Eoliano"}}, {"type": "node", "id": 5617732066, "lat": 38.636229, "lon": 15.0759095, "tags": {"amenity": "restaurant", "name": "Rod\u00e0"}}, {"type": "node", "id": 5702770530, "lat": 38.6301813, "lon": 15.0716091, "tags": {"amenity": "restaurant", "name": "La Sirena"}}, {"type": "node", "id": 7775499785, "lat": 38.6364003, "lon": 15.0759469, "tags": {"amenity": "cafe", "check_date": "2023-06-12", "cuisine": "pizza", "internet_access": "wlan", "internet_access:fee": "no", "internet_access:ssid": "ospiti-bakery", "name": "Panarea Bakery", "outdoor_seating": "yes", "toilets": "yes", "wheelchair": "limited"}}, {"type": "node", "id": 7869106052, "lat": 38.797585, "lon": 15.2386638, "tags": {"addr:housenumber": "5", "addr:street": "Via Crivelli", "amenity": "restaurant", "check_date": "2023-06-12", "name": "Ristorante Da Zurro", "phone": "+39 090 986313", "website": "https://www.estateolie.net/isole-eolie/ristorante-da-zurro-stromboli/"}}, {"type": "node", "id": 11985946741, "lat": 38.6289017, "lon": 15.0661514, "tags": {"amenity": "cafe"}}, {"type": "node", "id": 12232003703, "lat": 38.8009834, "lon": 15.2379945, "tags": {"amenity": "restaurant"}}, {"type": "way", "id": 220535220, "nodes": [2608511415, 2608511401, 2296471232, 2296471233, 2296471247, 2608511395, 2608511394, 2608511399, 2608511398, 2296471238, 3005842181, 3005842184, 2608511415], "tags": {"amenity": "restaurant", "building": "yes", "cuisine": "regional;pizza;seafood", "name": "L'Osservatorio", "opening_hours": "\"check locally\"", "website": "https://www.ristoranteosservatoriostromboli.com/"}}]}