{"version": 0.6, "generator": "Overpass API 0.7.62.7 375dc00a", "osm3s": {"timestamp_osm_base": "2025-06-14T14:50:30Z", "copyright": "The data included in this document is from www.openstreetmap.org. The data is made available under ODbL."}, "elements": [{"type": "node", "id": 1307909000, "lat": 36.9011014, "lon": 25.9761197, "tags": {"amenity": "cafe", "name": "Embassa"}}, {"type": "node", "id": 1307914940, "lat": 36.9010058, "lon": 25.9761557, "tags": {"amenity": "cafe", "cuisine": "cafe; cocktails", "name": "Maestro"}}, {"type": "node", "id": 1308848216, "lat": 36.9060003, "lon": 25.9771398, "tags": {"amenity": "restaurant", "name": "Lakki"}}, {"type": "node", "id": 1308886666, "lat": 36.9173856, "lon": 25.9839001, "tags": {"amenity": "cafe", "name": "O Nikolas"}}, {"type": "node", "id": 1315204998, "lat": 36.9064817, "lon": 25.9987905, "tags": {"amenity": "cafe"}}, {"type": "node", "id": 1321095041, "lat": 36.9177583, "lon": 25.9837784, "tags": {"amenity": "restaurant", "cuisine": "regional;greek", "name": "O Choreftis", "shop": "convenience"}}, {"type": "node", "id": 1334918377, "lat": 36.9013018, "lon": 25.977149, "tags": {"amenity": "restaurant", "cuisine": "greek", "name": "Asteria"}}, {"type": "node", "id": 1957190168, "lat": 36.8699903, "lon": 25.9479778, "tags": {"amenity": "cafe", "name": "\u03a3\u03c4\u03ad\u03ba\u03b9 \u03c4\u03bf\u03c5 \u039c\u03b1\u03c7\u03b1\u03af\u03c1\u03b1", "name:el": "\u03a3\u03c4\u03ad\u03ba\u03b9 \u03c4\u03bf\u03c5 \u039c\u03b1\u03c7\u03b1\u03af\u03c1\u03b1", "name:en": "Steki - the knife"}}, {"type": "node", "id": 4321191713, "lat": 36.9087596, "lon": 25.9711075, "tags": {"amenity": "restaurant", "cuisine": "greek;local", "name": "Levresso"}}, {"type": "node", "id": 4327045493, "lat": 36.9009391, "lon": 25.9762646, "tags": {"amenity": "cafe", "cuisine": "sandwich;breakfast;ice_cream;savory_pancakes;crepe;tea;cake;coffee_shop;greek;pancake", "diet:vegetarian": "yes", "internet_access": "wlan", "name": "Frou-frou"}}, {"type": "node", "id": 4329764615, "lat": 36.9012299, "lon": 25.9763496, "tags": {"amenity": "restaurant", "cuisine": "mediterranean;greek", "internet_access": "wlan", "internet_access:fee": "no", "name": "To Limani"}}, {"type": "node", "id": 4934972425, "lat": 36.9062919, "lon": 25.9979114, "tags": {"amenity": "restaurant", "name:it": "O Lousaros"}}, {"type": "node", "id": 4934982522, "lat": 36.9060503, "lon": 25.996215, "tags": {"amenity": "restaurant", "name": "\u03a4\u03bf \u0391\u03bb\u03cc\u03b6\u03b9", "name:el": "\u03a4\u03bf \u0391\u03bb\u03cc\u03b6\u03b9", "name:en": "To Glozi", "name:it": "Glory", "opening_hours": "Mo-Su 10:30-15:00", "phone": "+30 22850 73386"}}, {"type": "node", "id": 4934982523, "lat": 36.9057964, "lon": 25.9972457, "tags": {"amenity": "restaurant", "name:it": "Nikos Taverna"}}, {"type": "node", "id": 4934982524, "lat": 36.9063315, "lon": 25.9985932, "tags": {"amenity": "cafe", "name:it": "Pergalidi"}}, {"type": "node", "id": 4935097221, "lat": 36.9032471, "lon": 25.9780192, "tags": {"amenity": "cafe", "cuisine": "coffee_shop;greek;sandwich;local", "name:it": "Giannakopoylos"}}, {"type": "node", "id": 4937460422, "lat": 36.9172654, "lon": 25.9837494, "tags": {"amenity": "cafe", "cuisine": "breakfast;sandwich;coffee_shop", "name:it": "Kale Kardia"}}, {"type": "node", "id": 5073871523, "lat": 36.9008616, "lon": 25.9766447, "tags": {"amenity": "restaurant", "name:en": "Falafel", "website": "https://www.tripadvisor.fr/Restaurant_Review-g1899316-d6826403-Reviews-Falafel-Aegiali_Amorgos_Cyclades_South_Aegean.html"}}, {"type": "node", "id": 6389427549, "lat": 36.9175261, "lon": 25.9846082, "tags": {"addr:street": "\u0398\u03bf\u03bb\u03b1\u03c1\u03b9\u03b1 , \u0391\u03bc\u03bf\u03c1\u03b3\u03bf\u03c2", "amenity": "restaurant", "cuisine": "greek;traditional;regional", "name": "Taverna To Panorama", "phone": "2285073349"}}, {"type": "node", "id": 6389427550, "lat": 36.9172872, "lon": 25.983641, "tags": {"amenity": "restaurant", "cuisine": "greek;fish", "name": "\u03a4halassino \u039fneiro"}}, {"type": "node", "id": 6476365141, "lat": 36.9157139, "lon": 25.9821001}, {"type": "node", "id": 6476365142, "lat": 36.9157351, "lon": 25.9822029}, {"type": "node", "id": 6476497612, "lat": 36.8942874, "lon": 25.9744853}, {"type": "node", "id": 6476497613, "lat": 36.8941566, "lon": 25.9744733}, {"type": "node", "id": 6476497614, "lat": 36.8941458, "lon": 25.9745305}, {"type": "node", "id": 6476497615, "lat": 36.8942665, "lon": 25.9745533}, {"type": "node", "id": 6631213488, "lat": 36.9059897, "lon": 25.9962463, "tags": {"amenity": "restaurant", "name:en": "Minori Caf\u00e8 Restaurant"}}, {"type": "node", "id": 6966520619, "lat": 36.9156311, "lon": 25.9821303}, {"type": "node", "id": 6966520620, "lat": 36.9156561, "lon": 25.9822335}, {"type": "node", "id": 8194788015, "lat": 36.9025729, "lon": 25.9780887, "tags": {"amenity": "restaurant"}}, {"type": "node", "id": 8194798545, "lat": 36.9023458, "lon": 25.9780557, "tags": {"addr:street": "Aegali Beach", "amenity": "restaurant", "cuisine": "local;greek", "email": "info@yachendo.restaurant", "indoor_seating": "yes", "name": "Yachendo", "outdoor_seating": "yes", "phone": "+302285073618", "website": "https://www.yachendo.restaurant", "wheelchair": "yes"}}, {"type": "node", "id": 8194806295, "lat": 36.9070176, "lon": 25.9787358, "tags": {"amenity": "restaurant", "cuisine": "local;greek", "indoor_seating": "yes", "name": "Askas", "opening_hours": "Mo-Su 07:00-23:00", "outdoor_seating": "yes"}}, {"type": "node", "id": 8194806947, "lat": 36.9021378, "lon": 25.9780315, "tags": {"amenity": "restaurant", "name": "Remezzo"}}, {"type": "node", "id": 8194806948, "lat": 36.9173381, "lon": 25.9837388, "tags": {"amenity": "restaurant"}}, {"type": "node", "id": 8194832037, "lat": 36.9056543, "lon": 25.9974797, "tags": {"amenity": "restaurant", "cuisine": "local;greek", "email": "info@pagalihotel-amorgos.com", "name": "Niko's Tavern", "phone": "+302285073310", "website": "https://www.pagalihotel-amorgos.com"}}, {"type": "node", "id": 9913278417, "lat": 36.901313, "lon": 25.9761753, "tags": {"amenity": "restaurant", "cuisine": "greek", "internet_access": "wlan", "name": "\u0391\u03bc\u03bf\u03c1\u03b3\u03b9\u03b1\u03bb\u03bf\u03c2", "name:el": "\u0391\u03bc\u03bf\u03c1\u03b3\u03b9\u03b1\u03bb\u03bf\u03c2", "name:en": "Amorgialos", "name:fr": "Amorgialis"}}, {"type": "node", "id": 9915982617, "lat": 36.9060079, "lon": 25.9962616, "tags": {"amenity": "restaurant", "cuisine": "greek", "name:en": "Kaboura", "name:fr": "Kaboura"}}, {"type": "node", "id": 10095696543, "lat": 37.005569, "lon": 26.4644426, "tags": {"amenity": "restaurant", "name": "Taverna Levitha"}}, {"type": "node", "id": 11231232068, "lat": 36.9007858, "lon": 25.9763647, "tags": {"amenity": "restaurant", "cuisine": "local;fish", "name": "Koralli"}}, {"type": "node", "id": 11231233088, "lat": 36.9156925, "lon": 25.9821924, "tags": {"amenity": "cafe", "name": "Groova"}}, {"type": "way", "id": 690308413, "nodes": [6476365141, 6476365142, 6966520620, 6966520619, 6476365141], "tags": {"amenity": "cafe", "building": "yes", "name": "\u039a\u03b1\u03c6\u03ad/\u039c\u03c0\u03b1\u03c1\"\u03a3\u03b5\u03bb\u03ac\u03b4\u03b9\""}}, {"type": "way", "id": 690319366, "nodes": [6476497612, 6476497613, 6476497614, 6476497615, 6476497612], "tags": {"addr:city": "\u0386\u03bd\u03c9 \u03a0\u03bf\u03c4\u03b1\u03bc\u03cc\u03c2", "addr:postcode": "84008", "amenity": "restaurant", "building": "yes", "name": "\u039a\u03b1\u03bc\u03b1\u03c1\u03b1 Sunset Cafe Restaurant", "outdoor_seating": "yes", "phone": "+30 22850 73260", "website": "www.kamaracafe.com"}}]}