{"version": 0.6, "generator": "Overpass API 0.7.62.7 375dc00a", "osm3s": {"timestamp_osm_base": "2025-06-14T14:52:30Z", "copyright": "The data included in this document is from www.openstreetmap.org. The data is made available under ODbL."}, "elements": [{"type": "node", "id": 1800200925, "lat": 38.7416531, "lon": 26.8380558, "tags": {"amenity": "restaurant", "cuisine": "fish"}}, {"type": "node", "id": 3767472442, "lat": 38.671327, "lon": 26.7703749, "tags": {"amenity": "restaurant"}}, {"type": "node", "id": 4585635913, "lat": 38.621168, "lon": 27.0603102, "tags": {"addr:street": "\u0130zmir \u00c7anakkale Yolu", "amenity": "restaurant", "cuisine": "kebab;breakfast", "internet_access": "wlan", "name": "\u00c7olako\u011flu et d\u00fcnyas\u0131", "name:tr": "\u00c7olako\u011flu et d\u00fcnyas\u0131"}}, {"type": "node", "id": 4967012922, "lat": 38.8886538, "lon": 27.059752, "tags": {"amenity": "cafe", "name": "Damla Kafe", "name:en": "Damla Cafe", "name:tr": "Damla Kafe", "opening_hours": "Mo-Su 10:00-00:00"}}, {"type": "node", "id": 6440199437, "lat": 39.0445106, "lon": 26.8373449, "tags": {"amenity": "cafe", "name": "Kayra Beach Club"}}, {"type": "node", "id": 6588686429, "lat": 38.8808184, "lon": 27.0650203}, {"type": "node", "id": 6588686430, "lat": 38.8807786, "lon": 27.0650603}, {"type": "node", "id": 6588686431, "lat": 38.8808049, "lon": 27.0651035}, {"type": "node", "id": 6588686432, "lat": 38.8808447, "lon": 27.0650634}, {"type": "node", "id": 6588686433, "lat": 38.8808365, "lon": 27.0650044}, {"type": "node", "id": 6588686434, "lat": 38.8808636, "lon": 27.0650442}, {"type": "node", "id": 6588686435, "lat": 38.8809002, "lon": 27.0650031}, {"type": "node", "id": 6588686436, "lat": 38.8808731, "lon": 27.0649633}, {"type": "node", "id": 6588706134, "lat": 38.8864849, "lon": 27.0620796}, {"type": "node", "id": 6588706135, "lat": 38.8865963, "lon": 27.0623906}, {"type": "node", "id": 6588706136, "lat": 38.8863912, "lon": 27.062502}, {"type": "node", "id": 6588706137, "lat": 38.886272, "lon": 27.0621814}, {"type": "node", "id": 6588768872, "lat": 38.8807608, "lon": 27.0688252}, {"type": "node", "id": 6588768873, "lat": 38.8805946, "lon": 27.0688948}, {"type": "node", "id": 6588768874, "lat": 38.8806753, "lon": 27.0691501}, {"type": "node", "id": 6588768875, "lat": 38.8808439, "lon": 27.0690511}, {"type": "node", "id": 6588789598, "lat": 38.8876982, "lon": 27.0611443}, {"type": "node", "id": 6588789599, "lat": 38.8877883, "lon": 27.0613086}, {"type": "node", "id": 6588789600, "lat": 38.8878198, "lon": 27.0612763}, {"type": "node", "id": 6588789601, "lat": 38.8877349, "lon": 27.061116}, {"type": "node", "id": 6588795474, "lat": 38.8940574, "lon": 27.0650745}, {"type": "node", "id": 6588795476, "lat": 38.8940876, "lon": 27.0652164}, {"type": "node", "id": 6588795477, "lat": 38.8941718, "lon": 27.0652}, {"type": "node", "id": 6588795478, "lat": 38.8941464, "lon": 27.0650479}, {"type": "node", "id": 7065684955, "lat": 39.0277941, "lon": 26.7996845}, {"type": "node", "id": 7065684956, "lat": 39.0276585, "lon": 26.7995162}, {"type": "node", "id": 7065684957, "lat": 39.0275652, "lon": 26.7996408}, {"type": "node", "id": 7065684958, "lat": 39.0277007, "lon": 26.7998091}, {"type": "node", "id": 7151221019, "lat": 38.9405151, "lon": 27.1181433}, {"type": "node", "id": 7151221020, "lat": 38.9404112, "lon": 27.1181635}, {"type": "node", "id": 7151221021, "lat": 38.9404218, "lon": 27.1182541}, {"type": "node", "id": 7151221022, "lat": 38.9405257, "lon": 27.1182339}, {"type": "node", "id": 7174219597, "lat": 38.6562961, "lon": 27.080563}, {"type": "node", "id": 7174219598, "lat": 38.6562219, "lon": 27.0805056}, {"type": "node", "id": 7174219599, "lat": 38.6561673, "lon": 27.0806213}, {"type": "node", "id": 7174219600, "lat": 38.6562415, "lon": 27.0806787}, {"type": "node", "id": 7174242694, "lat": 38.6528529, "lon": 27.080835}, {"type": "node", "id": 7174242695, "lat": 38.6527261, "lon": 27.0807621}, {"type": "node", "id": 7174242696, "lat": 38.6526503, "lon": 27.0809827}, {"type": "node", "id": 7174242697, "lat": 38.6527489, "lon": 27.0811316}, {"type": "node", "id": 8841490289, "lat": 38.8851396, "lon": 27.0626397}, {"type": "node", "id": 8841490290, "lat": 38.8851527, "lon": 27.0627028}, {"type": "node", "id": 8841490291, "lat": 38.8850952, "lon": 27.0627226}, {"type": "node", "id": 8841490292, "lat": 38.8850821, "lon": 27.0626594}, {"type": "node", "id": 9087966017, "lat": 38.6675519, "lon": 26.7524045, "tags": {"amenity": "cafe", "name:en": "Unpretentious venue where locals socialise"}}, {"type": "node", "id": 9376404879, "lat": 38.6978123, "lon": 26.7315353}, {"type": "node", "id": 9376404880, "lat": 38.6980085, "lon": 26.7316093}, {"type": "node", "id": 9376404881, "lat": 38.6979617, "lon": 26.7319117}, {"type": "node", "id": 9376404882, "lat": 38.6978372, "lon": 26.7318671}, {"type": "node", "id": 9376404883, "lat": 38.6978462, "lon": 26.731825}, {"type": "node", "id": 9376404884, "lat": 38.6977476, "lon": 26.7317943}, {"type": "node", "id": 9376424584, "lat": 38.6986239, "lon": 26.7316511}, {"type": "node", "id": 9376424585, "lat": 38.6987895, "lon": 26.731715}, {"type": "node", "id": 9376424586, "lat": 38.6987302, "lon": 26.7320525}, {"type": "node", "id": 9376424587, "lat": 38.6985628, "lon": 26.7320067}, {"type": "node", "id": 9605911417, "lat": 38.6682542, "lon": 26.7514942, "tags": {"amenity": "restaurant", "name": "Fokai Restaurant"}}, {"type": "node", "id": 9777675072, "lat": 38.6547223, "lon": 27.0817407}, {"type": "node", "id": 9777675073, "lat": 38.6547028, "lon": 27.0816871}, {"type": "node", "id": 9777675074, "lat": 38.6546636, "lon": 27.0817119}, {"type": "node", "id": 9777675075, "lat": 38.654642, "lon": 27.0816561}, {"type": "node", "id": 9777675076, "lat": 38.65471, "lon": 27.081613}, {"type": "node", "id": 9777675077, "lat": 38.6547502, "lon": 27.0817171}, {"type": "node", "id": 9777806543, "lat": 38.6527155, "lon": 27.0810226}, {"type": "node", "id": 9777806544, "lat": 38.6526829, "lon": 27.081002}, {"type": "node", "id": 9777888086, "lat": 38.6526896, "lon": 27.0810898}, {"type": "node", "id": 9791597996, "lat": 38.6425164, "lon": 27.0487028}, {"type": "node", "id": 9791597997, "lat": 38.6423845, "lon": 27.0489345}, {"type": "node", "id": 9791597998, "lat": 38.6424858, "lon": 27.0491623}, {"type": "node", "id": 9791597999, "lat": 38.6426759, "lon": 27.0489031}, {"type": "node", "id": 9792927193, "lat": 38.6551463, "lon": 27.0810028}, {"type": "node", "id": 9792927194, "lat": 38.6550475, "lon": 27.0809009}, {"type": "node", "id": 9792927195, "lat": 38.6550128, "lon": 27.0810757}, {"type": "node", "id": 9792927196, "lat": 38.6551246, "lon": 27.0811121}, {"type": "node", "id": 10816227221, "lat": 38.8018154, "lon": 26.9729448, "tags": {"amenity": "restaurant", "name": "Ayd\u0131n Pide & Kebap"}}, {"type": "node", "id": 10816227241, "lat": 38.8031243, "lon": 26.9743329, "tags": {"amenity": "restaurant", "name": "Karadenizli Pilavc\u0131"}}, {"type": "node", "id": 10816227243, "lat": 38.803751, "lon": 26.9742555, "tags": {"amenity": "cafe", "name": "Friends"}}, {"type": "node", "id": 10816227251, "lat": 38.8035589, "lon": 26.9741102, "tags": {"amenity": "cafe", "name": "CupNCake Coffee"}}, {"type": "node", "id": 10816227259, "lat": 38.8036481, "lon": 26.9741764, "tags": {"amenity": "cafe", "name": "Breadli"}}, {"type": "node", "id": 10816227266, "lat": 38.8031007, "lon": 26.9737086, "tags": {"amenity": "cafe", "name": "Alia\u011fa Avc\u0131lar ve At\u0131c\u0131lar Derne\u011fi Lokali"}}, {"type": "node", "id": 10816227270, "lat": 38.8039038, "lon": 26.9744113, "tags": {"amenity": "cafe", "name": "Kahve Deryas\u0131"}}, {"type": "node", "id": 10816227272, "lat": 38.8026759, "lon": 26.9718878, "tags": {"amenity": "cafe", "name": "Cafe Papir\u00fcs"}}, {"type": "node", "id": 10816227277, "lat": 38.8032295, "lon": 26.9713208, "tags": {"amenity": "cafe", "name": "Karde\u015fler Cafe"}}, {"type": "node", "id": 10816227278, "lat": 38.8034154, "lon": 26.9740029, "tags": {"amenity": "cafe", "name": "Brew Mood"}}, {"type": "node", "id": 10816227279, "lat": 38.8030071, "lon": 26.9710498, "tags": {"amenity": "restaurant", "name": "Nimet Lokantas\u0131"}}, {"type": "node", "id": 10816227280, "lat": 38.8031257, "lon": 26.9711973, "tags": {"amenity": "restaurant", "name": "Konyal\u0131 \u00d6mer Usta"}}, {"type": "node", "id": 10816227282, "lat": 38.8040614, "lon": 26.9745687, "tags": {"amenity": "cafe", "name": "TAG Coffee"}}, {"type": "node", "id": 10816227283, "lat": 38.8022158, "lon": 26.9725519, "tags": {"amenity": "restaurant", "name": "Pizza D\u00fcnyas\u0131"}}, {"type": "node", "id": 10816227287, "lat": 38.8024709, "lon": 26.9731209, "tags": {"amenity": "cafe", "name": "\u00d6zs\u00fct"}}, {"type": "node", "id": 10816227288, "lat": 38.8030336, "lon": 26.9702165, "tags": {"amenity": "cafe", "name": "Ottoman"}}, {"type": "node", "id": 10816227289, "lat": 38.8026213, "lon": 26.9705928, "tags": {"amenity": "cafe", "name": "Frankly"}}, {"type": "node", "id": 10816227292, "lat": 38.8023383, "lon": 26.9730024, "tags": {"amenity": "cafe", "name": "Pablo Artisan Coffee"}}, {"type": "node", "id": 10816227297, "lat": 38.8026221, "lon": 26.9720088, "tags": {"amenity": "cafe", "name": "Ablan\u0131n Yeri"}}, {"type": "node", "id": 10816227299, "lat": 38.8028111, "lon": 26.9734608, "tags": {"amenity": "cafe", "brand": "Mado", "cuisine": "ice_cream", "name": "Mado", "takeaway": "yes"}}, {"type": "node", "id": 10816280539, "lat": 38.7928799, "lon": 26.9677225, "tags": {"amenity": "cafe", "name": "Maritime Coffee Company"}}, {"type": "node", "id": 10897758574, "lat": 38.9177829, "lon": 26.8665707}, {"type": "node", "id": 10897758575, "lat": 38.917645, "lon": 26.8663958}, {"type": "node", "id": 10897758576, "lat": 38.9175823, "lon": 26.8664774}, {"type": "node", "id": 10897758577, "lat": 38.9177202, "lon": 26.8666524}, {"type": "node", "id": 11096936574, "lat": 38.6679607, "lon": 26.7514492, "tags": {"amenity": "restaurant", "check_date": "2023-08-07", "name": "Lemnos Cafe"}}, {"type": "node", "id": 11096936577, "lat": 38.6678667, "lon": 26.7530713, "tags": {"amenity": "restaurant", "check_date": "2023-08-07", "name": "Zeynep'in Elinden"}}, {"type": "node", "id": 11407354737, "lat": 38.6035362, "lon": 27.0748344, "tags": {"amenity": "restaurant", "name": "Pidematik"}}, {"type": "node", "id": 11536436870, "lat": 38.6693628, "lon": 26.7550333, "tags": {"addr:city": "Fo\u00e7a", "addr:housenumber": "48", "addr:neighbourhood": "Fevzipa\u015fa Mah.", "addr:street": "Reha Midilli Cd.", "amenity": "restaurant", "check_date": "2024-06-23", "cuisine": "seafood", "name": "Celep", "phone": "+90 232 812 14 95", "website": "https://celeprestaurant.com"}}, {"type": "node", "id": 11572070915, "lat": 38.6648439, "lon": 27.0728872, "tags": {"amenity": "restaurant"}}, {"type": "node", "id": 11572070916, "lat": 38.6600923, "lon": 27.0767943, "tags": {"amenity": "restaurant"}}, {"type": "node", "id": 11616061604, "lat": 38.6097441, "lon": 27.0704104}, {"type": "node", "id": 11616061605, "lat": 38.609669, "lon": 27.0703567}, {"type": "node", "id": 11616061606, "lat": 38.6096003, "lon": 27.0705627}, {"type": "node", "id": 11616061607, "lat": 38.6096305, "lon": 27.0705858}, {"type": "node", "id": 11616061608, "lat": 38.6096758, "lon": 27.0705311}, {"type": "node", "id": 11616061630, "lat": 38.6090615, "lon": 27.0695311}, {"type": "node", "id": 11616061631, "lat": 38.6090297, "lon": 27.0696255}, {"type": "node", "id": 11616061632, "lat": 38.608945, "lon": 27.0695676}, {"type": "node", "id": 11616061633, "lat": 38.608997, "lon": 27.0695043}, {"type": "node", "id": 11807198370, "lat": 38.6686851, "lon": 26.7546653, "tags": {"amenity": "restaurant", "name": "Fo\u00e7a Bal\u0131k Ekmek"}}, {"type": "node", "id": 12003396926, "lat": 38.6692012, "lon": 26.7550489, "tags": {"amenity": "cafe", "check_date": "2024-06-23", "name": "Neco"}}, {"type": "node", "id": 12003420101, "lat": 38.6690587, "lon": 26.7543295, "tags": {"amenity": "restaurant", "check_date": "2024-06-23", "name": "Limni"}}, {"type": "node", "id": 12137323204, "lat": 38.6033327, "lon": 27.0746726, "tags": {"amenity": "cafe", "name": "Elif Cafe & Patisserie"}}, {"type": "node", "id": 12253539098, "lat": 38.80159, "lon": 26.9693051, "tags": {"addr:city": "\u0130zmir", "addr:district": "Alia\u011fa", "addr:housenumber": "No : 79", "addr:neighbourhood": "Kaz\u0131m Dirik Mahallesi", "addr:postcode": "35800", "addr:street": "Atat\u00fcrk Caddesi", "amenity": "cafe", "name": "Vikont Coffee & Roastery Alia\u011fa", "outdoor_seating": "yes"}}, {"type": "node", "id": 12301279759, "lat": 38.6718675, "lon": 26.7551365, "tags": {"amenity": "cafe", "name": "Kahve Diyar\u0131", "website": "https://www.kahvediyari.com.tr/"}}, {"type": "node", "id": 12302154186, "lat": 38.6685396, "lon": 26.754443, "tags": {"addr:housenumber": "4/1", "addr:street": "194 sokak", "amenity": "restaurant", "description": "Restaurant gourmet, carta de whiskies y cocktails.", "name": "Adara Phokaia"}}, {"type": "node", "id": 12302155552, "lat": 38.6741253, "lon": 26.753202, "tags": {"amenity": "cafe", "description": "Coffee, wine, bistro", "name": "Kavala  cafe", "website": "https://www.kavalawinebistrobar.com/"}}, {"type": "way", "id": 701578197, "nodes": [6588706134, 6588706135, 6588706136, 6588706137, 6588706134], "tags": {"amenity": "cafe", "name": "\u015eakrakeyf Cafe", "outdoor_seating": "yes"}}, {"type": "way", "id": 701579053, "nodes": [6588686429, 6588686430, 6588686431, 6588686432, 6588686429], "tags": {"amenity": "cafe", "building": "yes", "name": "\u00c7amalt\u0131 Cafe"}}, {"type": "way", "id": 701579054, "nodes": [6588686433, 6588686434, 6588686435, 6588686436, 6588686433], "tags": {"amenity": "restaurant", "building": "yes", "cuisine": "seafood"}}, {"type": "way", "id": 701587746, "nodes": [6588789598, 6588789599, 6588789600, 6588789601, 6588789598], "tags": {"amenity": "restaurant", "building": "yes", "cuisine": "seafood", "name": "\u0130mbat Restaurant"}}, {"type": "way", "id": 701588281, "nodes": [6588768872, 6588768873, 6588768874, 6588768875, 6588768872], "tags": {"amenity": "restaurant", "building": "yes", "name": "Tema\u015fal\u0131k"}}, {"type": "way", "id": 701590656, "nodes": [6588795474, 6588795476, 6588795477, 6588795478, 6588795474], "tags": {"amenity": "restaurant", "building": "yes", "name": "Ziyafet Lokantas\u0131"}}, {"type": "way", "id": 756467441, "nodes": [7065684955, 7065684956, 7065684957, 7065684958, 7065684955], "tags": {"amenity": "restaurant", "building": "yes"}}, {"type": "way", "id": 765692607, "nodes": [7151221019, 7151221020, 7151221021, 7151221022, 7151221019], "tags": {"amenity": "cafe", "building": "yes", "internet_access": "no", "name": "\u00d6rlemi\u015f K\u00f6y Kahvesi", "outdoor_seating": "yes"}}, {"type": "way", "id": 768439779, "nodes": [7174219597, 7174219598, 7174219599, 7174219600, 7174219597], "tags": {"amenity": "cafe", "building": "yes"}}, {"type": "way", "id": 768442747, "nodes": [7174242694, 7174242695, 7174242696, 9777806544, 9777806543, 9777888086, 7174242697, 7174242694], "tags": {"amenity": "cafe", "building": "yes"}}, {"type": "way", "id": 955269359, "nodes": [8841490289, 8841490290, 8841490291, 8841490292, 8841490289], "tags": {"amenity": "restaurant", "building": "yes", "cuisine": "turkish"}}, {"type": "way", "id": 1016576280, "nodes": [9376404879, 9376404880, 9376404881, 9376404882, 9376404883, 9376404884, 9376404879], "tags": {"addr:city": "izmir", "addr:district": "fo\u00e7a", "addr:housenumber": "No :1", "addr:neighbourhood": "\u0130smetpa\u015fa Mahallesi", "addr:street": "330. Sokak", "amenity": "cafe", "building": "yes", "name": "Hanedan Kafeterya"}}, {"type": "way", "id": 1016576358, "nodes": [9376424584, 9376424585, 9376424586, 9376424587, 9376424584], "tags": {"addr:city": "izmir", "addr:district": "fo\u00e7a", "addr:neighbourhood": "\u0130smetpa\u015fa Mahallesi", "amenity": "restaurant", "building": "yes", "name": "Hanedan Beach Otel Lokanta"}}, {"type": "way", "id": 1064642242, "nodes": [9777675072, 9777675073, 9777675074, 9777675075, 9777675076, 9777675077, 9777675072], "tags": {"amenity": "cafe", "building": "yes", "name": "K\u0131raathane"}}, {"type": "way", "id": 1066293065, "nodes": [9791597996, 9791597997, 9791597998, 9791597999, 9791597996], "tags": {"amenity": "restaurant", "building": "yes"}}, {"type": "way", "id": 1066458918, "nodes": [9792927193, 9792927194, 9792927195, 9792927196, 9792927193], "tags": {"amenity": "cafe", "building": "yes"}}, {"type": "way", "id": 1172888269, "nodes": [10897758574, 10897758575, 10897758576, 10897758577, 10897758574], "tags": {"amenity": "restaurant", "building": "yes", "contact:instagram": "https://www.instagram.com/mavi_candarli/", "name": "Mavi \u00c7andarl\u0131", "opening_hours": "Mo-Su 09:00-12:00", "phone": "+905324992602"}}, {"type": "way", "id": 1249644230, "nodes": [11616061604, 11616061605, 11616061606, 11616061607, 11616061608, 11616061604], "tags": {"amenity": "cafe", "building": "yes"}}, {"type": "way", "id": 1249644237, "nodes": [11616061630, 11616061631, 11616061632, 11616061633, 11616061630], "tags": {"amenity": "cafe", "building": "yes"}}]}