{"version": 0.6, "generator": "Overpass API 0.7.62.7 375dc00a", "osm3s": {"timestamp_osm_base": "2025-06-14T15:05:53Z", "copyright": "The data included in this document is from www.openstreetmap.org. The data is made available under ODbL."}, "elements": [{"type": "node", "id": 247195580, "lat": 39.4613994, "lon": 31.5793207, "tags": {"amenity": "restaurant", "name": "Muhte\u015fem Dinlenme Tesisleri"}}, {"type": "node", "id": 2071393834, "lat": 39.3872564, "lon": 31.498122, "tags": {"amenity": "restaurant"}}, {"type": "node", "id": 2972555381, "lat": 39.5354705, "lon": 31.6632611}, {"type": "node", "id": 2972555382, "lat": 39.5354951, "lon": 31.6638401}, {"type": "node", "id": 2972555389, "lat": 39.5357125, "lon": 31.6632438}, {"type": "node", "id": 2972555391, "lat": 39.5357371, "lon": 31.6638228}, {"type": "node", "id": 6318553878, "lat": 39.4375341, "lon": 31.5595599, "tags": {"amenity": "restaurant", "name": "T\u015eOF Sivrihisar Dinlenme Tesisleri"}}, {"type": "node", "id": 6741664376, "lat": 39.4437887, "lon": 31.5684508}, {"type": "node", "id": 6741664377, "lat": 39.4436821, "lon": 31.568734}, {"type": "node", "id": 6741664378, "lat": 39.4432112, "lon": 31.568437}, {"type": "node", "id": 6741664379, "lat": 39.4433178, "lon": 31.5681538}, {"type": "node", "id": 6950011683, "lat": 39.4400936, "lon": 31.5633143, "tags": {"amenity": "restaurant", "name": "Bena Dinlenme Tesisleri"}}, {"type": "node", "id": 10064553917, "lat": 39.4438465, "lon": 31.5685762, "tags": {"amenity": "cafe", "brand": "Starbucks", "brand:wikidata": "Q37158", "cuisine": "coffee_shop", "name": "Starbucks", "name:en": "Starbucks", "official_name": "Starbucks Coffee", "takeaway": "yes"}}, {"type": "node", "id": 12670934953, "lat": 39.4446468, "lon": 31.5691821, "tags": {"amenity": "restaurant", "brand": "K\u00f6fteci Yusuf", "brand:wikidata": "Q126125081", "cuisine": "turkish", "name": "K\u00f6fteci Yusuf"}}, {"type": "way", "id": 293648733, "nodes": [2972555391, 2972555382, 2972555381, 2972555389, 2972555391], "tags": {"amenity": "restaurant", "building": "yes", "cuisine": "turkish", "name:tr": "Nasrettin Hoca Dinlenme Tesisi", "opening_hours": "24/7", "source": "mapbox"}}, {"type": "way", "id": 717837364, "nodes": [6741664376, 6741664377, 6741664378, 6741664379, 6741664376], "tags": {"amenity": "restaurant", "building": "yes", "cuisine": "regional", "name": "\u00c7ini Bah\u00e7e"}}]}