{"version": 0.6, "generator": "Overpass API 0.7.62.7 375dc00a", "osm3s": {"timestamp_osm_base": "2025-06-14T15:22:13Z", "copyright": "The data included in this document is from www.openstreetmap.org. The data is made available under ODbL."}, "elements": [{"type": "node", "id": 2522974489, "lat": 37.0270928, "lon": 37.9363735, "tags": {"amenity": "restaurant", "name": "P\u0131narba\u015f\u0131 Dinlenme Tesisleri"}}, {"type": "node", "id": 2631172551, "lat": 37.0306806, "lon": 37.8664088, "tags": {"amenity": "restaurant", "name": "Kamyoncular Lokantas\u0131"}}, {"type": "node", "id": 2631172630, "lat": 37.0327426, "lon": 37.8673503, "tags": {"amenity": "restaurant", "name": "Kamyoncular Lokantas\u0131"}}, {"type": "node", "id": 2798226560, "lat": 37.0286411, "lon": 37.9688458, "tags": {"amenity": "restaurant"}}, {"type": "node", "id": 4269872095, "lat": 37.0138365, "lon": 37.8057113, "tags": {"addr:postcode": "27700", "addr:street": "\u00f6zhisar", "amenity": "restaurant", "cuisine": "burger;sandwich;grill;ice_cream;cake;coffee_shop;pasta;pancake;chicken;curry;turkish;breakfast;tea;friture", "internet_access": "wlan", "name": "Baileys coffee", "opening_hours": "Mo-Su 08:30-12:00", "operator": "Hakan do\u011fan & M\u00fcsl\u00fcm k\u0131l\u0131\u00e7"}}, {"type": "node", "id": 4348553416, "lat": 36.9782856, "lon": 37.7207074, "tags": {"amenity": "restaurant", "name": "Ak\u0131nsan"}}, {"type": "node", "id": 4858191928, "lat": 37.0356893, "lon": 37.6829304, "tags": {"amenity": "restaurant", "name": "Lokanta"}}, {"type": "node", "id": 4889958237, "lat": 37.0295767, "lon": 37.9761841, "tags": {"amenity": "restaurant", "name": "Beyaz Saray", "name:en": "Beyaz Saray", "name:tr": "Beyaz Saray"}}, {"type": "node", "id": 5210546127, "lat": 37.0139975, "lon": 37.8104047, "tags": {"addr:housenumber": "93", "addr:postcode": "27700", "addr:street": "Mustafa K\u00f6kmen Bulvar\u0131", "amenity": "cafe", "contact:email": "memikkutlu@icloud.com", "contact:facebook": "https://www.facebook.com/duslerkahvesi/", "contact:instagram": "https://www.instagram.com/dusler.kahvesi/", "contact:phone": "+90 342 517 49 90", "cuisine": "mediterranean;savory_pancakes;fish;fish_and_chips;beef_bowl;ice_cream;oriental;steak_house;pancake;burger;coffee_shop;breakfast;crepe;curry;friture;pasta;pizza;cake;sandwich;bagel;hotdog;sausage;chicken;tea;grill", "internet_access": "wlan", "name": "D\u00fc\u015fler Kahvesi", "opening_hours": "Mo-Su 08:00-01:00", "operator": "Memik Kutlu", "outdoor_seating": "yes"}}, {"type": "node", "id": 5646116522, "lat": 37.0106222, "lon": 37.7969066, "tags": {"amenity": "restaurant", "name": "Se\u00e7kin Park Kebap Salonu"}}, {"type": "node", "id": 5646150421, "lat": 37.0099789, "lon": 37.7931271, "tags": {"amenity": "restaurant", "name": "Kardelen Kebap Salonu", "opening_hours": "Mo-Su 05:00-19:00", "phone": "+90 342 518 3821"}}, {"type": "node", "id": 5646151521, "lat": 37.0097237, "lon": 37.7967523, "tags": {"amenity": "restaurant", "name": "Alt\u0131n Sofra"}}, {"type": "node", "id": 5646152522, "lat": 37.010543, "lon": 37.7988591, "tags": {"amenity": "restaurant", "name": "Reyhan Restaurant", "phone": "+90 342 512 1555"}}, {"type": "node", "id": 8543631183, "lat": 37.0141605, "lon": 37.8084765, "tags": {"amenity": "cafe", "name": "Kakt\u00fcs Cafe"}}, {"type": "node", "id": 9274814583, "lat": 37.02241, "lon": 37.9740448, "tags": {"amenity": "cafe"}}, {"type": "node", "id": 9274814648, "lat": 37.0268557, "lon": 37.9764409, "tags": {"amenity": "restaurant"}}, {"type": "node", "id": 9274830450, "lat": 37.0592781, "lon": 37.8673751, "tags": {"amenity": "cafe"}}, {"type": "node", "id": 10692605159, "lat": 36.8165557, "lon": 37.6463874, "tags": {"amenity": "restaurant", "name": "Melben wedding garden"}}, {"type": "node", "id": 11383417684, "lat": 37.0335604, "lon": 37.6819456, "tags": {"amenity": "restaurant"}}, {"type": "node", "id": 12108013137, "lat": 37.0252074, "lon": 37.9753159}, {"type": "node", "id": 12108013138, "lat": 37.0251393, "lon": 37.9755384}, {"type": "node", "id": 12108013139, "lat": 37.0253266, "lon": 37.9756115}, {"type": "node", "id": 12108013140, "lat": 37.0253875, "lon": 37.9754317}, {"type": "node", "id": 12839697329, "lat": 36.9784007, "lon": 37.6701175, "tags": {"amenity": "cafe"}}, {"type": "way", "id": 1307469821, "nodes": [12108013137, 12108013138, 12108013139, 12108013140, 12108013137], "tags": {"amenity": "restaurant", "building": "yes", "name": "G\u00fclBaba"}}]}