{"version": 0.6, "generator": "Overpass API 0.7.62.7 375dc00a", "osm3s": {"timestamp_osm_base": "2025-06-14T15:31:13Z", "copyright": "The data included in this document is from www.openstreetmap.org. The data is made available under ODbL."}, "elements": [{"type": "node", "id": 3202642224, "lat": 37.8639601, "lon": 40.9150722}, {"type": "node", "id": 3202642225, "lat": 37.8639639, "lon": 40.915445}, {"type": "node", "id": 3202642226, "lat": 37.8638264, "lon": 40.9154472}, {"type": "node", "id": 3202642227, "lat": 37.8638225, "lon": 40.9150745}, {"type": "node", "id": 3541345206, "lat": 37.8441967, "lon": 40.6637507, "tags": {"addr:city": "Bismil/Diyarbak\u0131r", "amenity": "restaurant", "name": "\u00c7iftlik Lokantas\u0131"}}, {"type": "node", "id": 5001149123, "lat": 37.8433522, "lon": 40.6644628, "tags": {"addr:city": "Diyarbak\u0131r", "addr:district": "Bismil", "amenity": "restaurant", "name": "Bistat Lahmacun"}}, {"type": "node", "id": 6092775585, "lat": 37.8429775, "lon": 40.6673744, "tags": {"amenity": "cafe", "name": "Cadde Cafe"}}, {"type": "node", "id": 6563277686, "lat": 37.8344102, "lon": 40.6563429, "tags": {"amenity": "cafe", "name": "Firuze Kahve"}}, {"type": "node", "id": 6563277687, "lat": 37.8362795, "lon": 40.6354653, "tags": {"amenity": "cafe", "name": "Sad\u0131k K\u00fcnefe"}}, {"type": "node", "id": 12860326589, "lat": 37.8530462, "lon": 40.5266938, "tags": {"amenity": "cafe"}}, {"type": "way", "id": 314215680, "nodes": [3202642224, 3202642225, 3202642226, 3202642227, 3202642224], "tags": {"addr:city": "Bismil / Diyarbak\u0131r", "amenity": "restaurant", "building": "yes", "name": "Mola Dinlenme Tesisleri"}}]}