{"version": 0.6, "generator": "Overpass API 0.7.62.7 375dc00a", "osm3s": {"timestamp_osm_base": "2025-06-14T15:25:14Z", "copyright": "The data included in this document is from www.openstreetmap.org. The data is made available under ODbL."}, "elements": [{"type": "node", "id": 4112553967, "lat": 28.3955372, "lon": 36.5480115, "tags": {"amenity": "restaurant", "cuisine": "regional", "name": "Kudu"}}, {"type": "node", "id": 4112553970, "lat": 28.3780275, "lon": 36.584838, "tags": {"amenity": "restaurant", "cuisine": "regional", "name": "Kudu"}}, {"type": "node", "id": 4510663990, "lat": 28.3790667, "lon": 36.5606727, "tags": {"amenity": "restaurant", "cuisine": "seafood", "name": "\u0645\u0637\u0627\u0639\u0645 \u064a\u0645\u0646\u064a\u0629 \u0648\u0645\u0637\u0627\u0639\u0645 \u0633\u0645\u0643 \u0634\u0639\u0628\u064a\u0629"}}, {"type": "node", "id": 5009400223, "lat": 28.3969237, "lon": 36.5778076, "tags": {"amenity": "restaurant", "name": "\u0627\u0644\u0628\u0633\u062a\u0627\u0646 ( \u062d\u062f\u064a\u0642\u0629 \u0648 \u0645\u0637\u0639\u0645)", "name:ar": "\u0627\u0644\u0628\u0633\u062a\u0627\u0646 ( \u062d\u062f\u064a\u0642\u0629 \u0648 \u0645\u0637\u0639\u0645)", "name:en": "albustan ( garden and restaurant)"}}, {"type": "node", "id": 7917032895, "lat": 28.389469, "lon": 36.5577657, "tags": {"amenity": "cafe", "name": "Gray Bird Cafe"}}, {"type": "node", "id": 9689006970, "lat": 28.3960068, "lon": 36.5890732, "tags": {"addr:city": "\u062a\u0628\u0648\u0643", "addr:postcode": "47311", "addr:street": "\u0637\u0631\u064a\u0642 \u0627\u0644\u0623\u0645\u064a\u0631 \u0633\u0644\u0637\u0627\u0646", "amenity": "cafe", "cuisine": "pancake;coffee_shop", "internet_access": "yes", "internet_access:fee": "customers", "name": "Sky Coffee \u0633\u0643\u0627\u064a \u0643\u0627\u0641\u064a\u0647", "name:en": "Sky Coffee", "opening_hours": "24/7", "phone": "+966501620700", "website": "https://foursquare.com/v/%D8%B3%D9%83%D8%A7%D9%8A-%D9%83%D8%A7%D9%81%D9%8A%D9%87/61674086b2a0496a8dec11cd"}}, {"type": "node", "id": 9689006973, "lat": 28.387256, "lon": 36.5850136, "tags": {"addr:city": "\u062a\u0628\u0648\u0643", "addr:postcode": "47911", "addr:street": "\u0637\u0631\u064a\u0642 \u0627\u0644\u0645\u0644\u0643 \u0633\u0639\u0648\u062f", "amenity": "cafe", "cuisine": "coffee_shop", "internet_access": "yes", "internet_access:fee": "no", "name": "Majlis Hospitality \u062f\u064a\u0648\u0627\u0646\u064a\u0629 \u0636\u064a\u0627\u0641\u0629 \u0627\u0644\u0645\u062c\u0644\u0633", "opening_hours": "Mo-Sa 16:30-03:00", "phone": "+966504430331", "website": "https://foursquare.com/v/%D8%B6%D9%8A%D8%A7%D9%81%D8%A9-%D8%A7%D9%84%D9%85%D8%AC%D9%84%D8%B3/569e809238fa87a0fa9a5f5b"}}, {"type": "node", "id": 10743645905, "lat": 28.3856699, "lon": 36.5624129, "tags": {"amenity": "restaurant", "name": "Lahore"}}]}