{"version": 0.6, "generator": "Overpass API 0.7.62.7 375dc00a", "osm3s": {"timestamp_osm_base": "2025-06-14T14:39:19Z", "copyright": "The data included in this document is from www.openstreetmap.org. The data is made available under ODbL."}, "elements": [{"type": "node", "id": 442545329, "lat": 41.9153534, "lon": 22.4125757, "tags": {"amenity": "restaurant", "int_name": "Prolet", "name": "\u041f\u0440\u043e\u043b\u0435\u0442", "name:en": "Prolet"}}, {"type": "node", "id": 444360934, "lat": 41.9596507, "lon": 22.4062744, "tags": {"amenity": "restaurant", "cuisine": "regional", "int_name": "Grad\u010de", "name": "\u0413\u0440\u0430\u0442\u0447\u0435"}}, {"type": "node", "id": 444537208, "lat": 41.9173917, "lon": 22.4105571, "tags": {"amenity": "cafe", "name": "\u041a\u043b\u0430\u0441\u0438\u043a", "name:en": "Klasik"}}, {"type": "node", "id": 444537212, "lat": 41.9176649, "lon": 22.4107281, "tags": {"amenity": "cafe", "name": "Delikates Cafe"}}, {"type": "node", "id": 444695321, "lat": 41.9561396, "lon": 22.4078181, "tags": {"amenity": "restaurant", "cuisine": "regional", "name": "\u0422\u043e\u043f\u043e\u043b\u043d\u0438\u043a"}}, {"type": "node", "id": 444695322, "lat": 41.9639856, "lon": 22.4072357, "tags": {"amenity": "restaurant"}}, {"type": "node", "id": 470029606, "lat": 42.2056104, "lon": 22.3362079, "tags": {"addr:postcode": "1330", "addr:street": "\u0421\u0432\u0435\u0442\u0438 \u0408\u043e\u0430\u043a\u0438\u043c \u041e\u0441\u043e\u0433\u043e\u0432\u0441\u043a\u0438", "amenity": "cafe", "internet_access": "wlan", "name": "Galerija", "opening_hours": "Mo-Su 09:00-01:00"}}, {"type": "node", "id": 470029612, "lat": 42.2058845, "lon": 22.3365517, "tags": {"addr:postcode": "1330", "addr:street": "\u0421\u0432\u0435\u0442\u0438 \u0408\u043e\u0430\u043a\u0438\u043c \u041e\u0441\u043e\u0433\u043e\u0432\u0441\u043a\u0438", "amenity": "cafe", "internet_access": "wlan", "name": "Fashion cafe", "opening_hours": "Mo-Su 08:00-01:00"}}, {"type": "node", "id": 848026089, "lat": 42.2759989, "lon": 22.6920471, "tags": {"amenity": "restaurant", "name": "\u0412\u0438\u043b\u0430\u0442\u0430 \u043d\u0430 \u0433\u0435\u043d\u0435\u0440\u0430\u043b\u0430"}}, {"type": "node", "id": 1671178771, "lat": 42.2845609, "lon": 22.685682, "tags": {"amenity": "restaurant", "name": "Friends"}}, {"type": "node", "id": 1671178807, "lat": 42.28244, "lon": 22.68734, "tags": {"addr:city": "\u041a\u044e\u0441\u0442\u0435\u043d\u0434\u0438\u043b", "addr:country": "BG", "addr:housenumber": "14", "addr:street": "\u0431\u0443\u043b. \u0411\u044a\u043b\u0433\u0430\u0440\u0438\u044f", "amenity": "restaurant", "name": "\u0433\u043e\u0441\u0442\u0438\u043b\u043d\u0438\u0446\u0430 \u0411\u0430\u0442\u0435\u043d\u0431\u0435\u0440\u0433"}}, {"type": "node", "id": 1804968026, "lat": 42.2560312, "lon": 22.5498654, "tags": {"amenity": "restaurant"}}, {"type": "node", "id": 1874196851, "lat": 42.0371055, "lon": 22.3532041, "tags": {"amenity": "restaurant", "cuisine": "regional", "name": "\u041e\u0441\u043e\u0433\u043e\u0432\u0441\u043a\u0438 \u0411\u0438\u0441\u0435\u0440"}}, {"type": "node", "id": 1920228869, "lat": 42.1826707, "lon": 22.1639057, "tags": {"alt_name": "\u0411\u0435\u043d\u0442\u043e\u043c\u0430\u043a", "amenity": "restaurant", "cuisine": "fish", "int_name": "\u041f\u0430\u0440\u043a", "name": "Park"}}, {"type": "node", "id": 2316119134, "lat": 41.9176668, "lon": 22.4104224, "tags": {"amenity": "restaurant", "name": "\u041a\u0430\u043f\u0440\u0438"}}, {"type": "node", "id": 2320912360, "lat": 41.9172558, "lon": 22.4104385, "tags": {"amenity": "restaurant", "name": "Aquarium"}}, {"type": "node", "id": 2320912388, "lat": 41.91759, "lon": 22.4105004, "tags": {"amenity": "cafe", "name": "\u0423\u043d\u0438 \u041f\u0443\u0431", "name:en": "Uni Pub"}}, {"type": "node", "id": 2320912411, "lat": 41.9175044, "lon": 22.4105147, "tags": {"amenity": "cafe", "name": "\u041f\u0438\u043a\u0430\u0434\u0438\u043b\u0438", "name:en": "Piccadilly"}}, {"type": "node", "id": 2320912421, "lat": 41.918076, "lon": 22.4102588, "tags": {"amenity": "restaurant", "name": "Balkanlux"}}, {"type": "node", "id": 2320923929, "lat": 41.9187207, "lon": 22.4101783, "tags": {"amenity": "restaurant", "name": "Bakery Kamel"}}, {"type": "node", "id": 2574272022, "lat": 42.1902652, "lon": 22.3059103, "tags": {"addr:city": "\u041a\u0440\u0438\u0432\u0430 \u041f\u0430\u043b\u0430\u043d\u043a\u0430", "addr:housename": "\u0441.\u043a\u043e\u043d\u043e\u043f\u043d\u0438\u0446\u0430", "addr:street": "Konopnica", "amenity": "restaurant", "capacity": "150", "cuisine": "regional", "name": "\u0411\u043e\u0440\u0447\u0435"}}, {"type": "node", "id": 2574272026, "lat": 42.192289, "lon": 22.3089155, "tags": {"addr:city": "Kriva Palanka", "addr:postcode": "1330", "amenity": "restaurant", "cuisine": "regional", "name": "\u041e\u0431\u043b\u0430\u0447\u0435"}}, {"type": "node", "id": 2578029326, "lat": 42.2123127, "lon": 22.3466279, "tags": {"addr:city": "\u041a\u0440\u0438\u0432\u0430 \u041f\u0430\u043b\u0430\u043d\u043a\u0430", "addr:postcode": "1330", "addr:street": "Marshal Tito", "amenity": "restaurant", "cuisine": "regional", "name": "\u043c\u0430\u043a\u0435\u0434\u043e\u043d\u0438\u0458\u0430"}}, {"type": "node", "id": 2891531722, "lat": 42.0244107, "lon": 22.5889401, "tags": {"amenity": "restaurant", "name": "\u0428\u0438\u0437\u0438\u043a"}}, {"type": "node", "id": 2891533000, "lat": 42.0179585, "lon": 22.587663, "tags": {"amenity": "restaurant", "cuisine": "regional", "name": "Osmica"}}, {"type": "node", "id": 2891537201, "lat": 42.0170338, "lon": 22.5914449, "tags": {"amenity": "restaurant", "capacity": "100", "cuisine": "balkan;regional", "delivery": "no", "name": "\"Kaj Govedoto\" Restaurant", "outdoor_seating": "yes", "smoking": "isolated", "takeaway": "yes"}}, {"type": "node", "id": 2893639221, "lat": 42.0217484, "lon": 22.5893701, "tags": {"amenity": "cafe", "name": "\u041a\u043b\u0438\u0444", "name:en": "Cliff of Moher"}}, {"type": "node", "id": 2893639222, "lat": 42.0218468, "lon": 22.5892057, "tags": {"amenity": "cafe", "internet_access": "wlan", "name": "Delirium", "opening_hours": "Mo-Su 08:00-24:00", "outdoor_seating": "yes", "smoking": "outside"}}, {"type": "node", "id": 2905985671, "lat": 42.0178835, "lon": 22.5886582, "tags": {"amenity": "restaurant", "cuisine": "regional;pizza;kebab;chicken", "delivery": "yes", "name": "Shizik Restaurant", "outdoor_seating": "yes", "smoking": "outside", "takeaway": "yes"}}, {"type": "node", "id": 2905985814, "lat": 42.0195336, "lon": 22.5899229, "tags": {"amenity": "restaurant", "capacity": "100", "cuisine": "kebab;regional;barbecue", "delivery": "yes", "name": "\"Koko\" Restaurant", "outdoor_seating": "yes", "smoking": "outside"}}, {"type": "node", "id": 2905985815, "lat": 42.021859, "lon": 22.5900047, "tags": {"amenity": "cafe", "internet_access": "wlan", "name": "District Lounge Bar", "opening_hours": "Mo-Su 08:00-24:00", "outdoor_seating": "yes", "smoking": "outside"}}, {"type": "node", "id": 3022305008, "lat": 42.2022003, "lon": 22.3355446, "tags": {"addr:city": "Kriva Palanka", "addr:postcode": "1330", "addr:street": "Joakim Osogovski", "amenity": "cafe", "internet_access": "wlan", "name": "Select Caffe", "opening_hours": "Mo-Su 08:00-01:00", "smoking": "isolated"}}, {"type": "node", "id": 4196907314, "lat": 42.2763909, "lon": 22.6796385, "tags": {"amenity": "cafe", "name": "ABC"}}, {"type": "node", "id": 4204752237, "lat": 42.2735871, "lon": 22.6914572, "tags": {"amenity": "restaurant", "name": "\u0427\u0435\u0448\u043c\u0435\u0442\u043e"}}, {"type": "node", "id": 4207781992, "lat": 42.2789642, "lon": 22.7040021, "tags": {"addr:housenumber": "1", "addr:street": "\u0421\u0442\u0430\u0440\u0430 \u043f\u043b\u0430\u043d\u0438\u043d\u0430", "amenity": "restaurant", "cuisine": "diner", "name": "\u0425\u0438\u0435\u043d\u0430\u0442\u0430", "opening_hours": "24/7"}}, {"type": "node", "id": 4568412910, "lat": 42.2802234, "lon": 22.6749147}, {"type": "node", "id": 4568412911, "lat": 42.2800046, "lon": 22.6749639}, {"type": "node", "id": 4568412912, "lat": 42.2800199, "lon": 22.6750884}, {"type": "node", "id": 4568412913, "lat": 42.2802387, "lon": 22.6750393}, {"type": "node", "id": 4568413007, "lat": 42.2778949, "lon": 22.6746521}, {"type": "node", "id": 4568413008, "lat": 42.2779225, "lon": 22.6748435}, {"type": "node", "id": 4568413009, "lat": 42.2780573, "lon": 22.6748155}, {"type": "node", "id": 4602841983, "lat": 42.2027771, "lon": 22.3355793, "tags": {"addr:city": "Kriva Palanka", "addr:postcode": "1330", "addr:street": "Marshal Tito", "amenity": "restaurant", "capacity": "100", "cuisine": "regional", "delivery": "no", "name": "Restaurant Osogovec", "name:mk": "\u0440\u0435\u0441\u0442\u043e\u0440\u0430\u043d\u0442 \u043e\u0441\u043e\u0433\u043e\u0432\u0435\u0446", "outdoor_seating": "terrace", "smoking": "isolated", "takeaway": "yes"}}, {"type": "node", "id": 4741046037, "lat": 42.19038, "lon": 22.3598489, "tags": {"amenity": "restaurant", "name": "Vodenicata 3"}}, {"type": "node", "id": 4792216589, "lat": 42.2780279, "lon": 22.674617}, {"type": "node", "id": 4842050522, "lat": 42.205828, "lon": 22.336137, "tags": {"amenity": "restaurant", "name": "Royal Lounge Bar", "name:mk": "Royal Lounge Bar"}}, {"type": "node", "id": 5154732322, "lat": 42.1994853, "lon": 22.3298813, "tags": {"amenity": "restaurant", "cuisine": "pizza", "internet_access": "wlan", "name:de": "Ellite Pizza", "name:en": "Ellite Pizza"}}, {"type": "node", "id": 5259972485, "lat": 42.2801294, "lon": 22.6749358}, {"type": "node", "id": 5260154304, "lat": 42.2791636, "lon": 22.6736879}, {"type": "node", "id": 5260154305, "lat": 42.2790456, "lon": 22.67372}, {"type": "node", "id": 5260154308, "lat": 42.2791333, "lon": 22.6734842}, {"type": "node", "id": 5260154309, "lat": 42.2790152, "lon": 22.6735163}, {"type": "node", "id": 5334903322, "lat": 42.2075328, "lon": 22.3309502, "tags": {"addr:street": "\u041c\u0430\u043a\u0435\u0434\u043e\u043d\u0441\u043a\u0430", "amenity": "restaurant", "internet_access": "wlan", "name": "\u0421\u0442\u0430\u0440 \u041b\u0438\u0441\u0435\u0446", "name:en": "Old Fox", "phone": "+38970756364"}}, {"type": "node", "id": 5334903323, "lat": 42.2026632, "lon": 22.335623, "tags": {"addr:street": "\u0421\u0432\u0435\u0442\u0438 \u0408\u043e\u0430\u043a\u0438\u043c \u041e\u0441\u043e\u0433\u043e\u0432\u0441\u043a\u0438", "amenity": "restaurant", "internet_access": "wlan", "name": "\u0410\u043a\u0432\u0430\u0440\u0438\u0443\u043c", "name:en": "Akvarium", "opening_hours": "24/7"}}, {"type": "node", "id": 5614557098, "lat": 41.9945499, "lon": 22.3572149, "tags": {"amenity": "restaurant", "name": "\u041e\u0441\u043e\u0433\u043e\u0432\u0441\u043a\u0430 \u041a\u0443\u045c\u0430", "name:en": "Osogovska Kukja"}}, {"type": "node", "id": 5907518755, "lat": 42.2826546, "lon": 22.687176, "tags": {"amenity": "restaurant", "name": "Dream's house"}}, {"type": "node", "id": 6054090097, "lat": 42.2700611, "lon": 22.6324836, "tags": {"amenity": "restaurant"}}, {"type": "node", "id": 6079524217, "lat": 42.0248909, "lon": 22.5877841, "tags": {"amenity": "restaurant", "cuisine": "regional", "name": "Elita"}}, {"type": "node", "id": 6079524220, "lat": 42.0178073, "lon": 22.5925757, "tags": {"amenity": "restaurant", "cuisine": "fish;regional", "name": "Zlatina"}}, {"type": "node", "id": 6253665901, "lat": 42.2792609, "lon": 22.6899779, "tags": {"amenity": "restaurant", "name": "\u041c\u0430\u0439\u043e\u0440\u0441\u043a\u0430 \u043a\u044a\u0449\u0430"}}, {"type": "node", "id": 6323363585, "lat": 41.9157357, "lon": 22.4123739, "tags": {"addr:postcode": "2300", "amenity": "cafe", "internet_access": "wlan", "name": "\u041a\u0430\u0444\u0435 \u0441\u0442\u0430\u043d\u0438\u0446\u0430", "name:en": "Coffee Station", "outdoor_seating": "yes"}}, {"type": "node", "id": 6329816785, "lat": 42.2228585, "lon": 22.3580161, "tags": {"amenity": "restaurant", "name": "Pashina vodenica", "name:en": "Restaurant and rooms"}}, {"type": "node", "id": 6591444786, "lat": 42.0766038, "lon": 22.1807625, "tags": {"amenity": "restaurant", "cuisine": "regional;local;balkan", "internet_access": "wlan", "name": "\u0413\u043e\u0441\u0442\u0438\u043b\u043d\u0438\u0446\u0430 \u041a\u0430\u0458 \u0421\u043f\u0438\u0440\u043e", "name:en": "Gostilnica Kaj Spiro"}}, {"type": "node", "id": 7147531185, "lat": 42.2793721, "lon": 22.6887812, "tags": {"amenity": "cafe"}}, {"type": "node", "id": 8140186253, "lat": 41.9174546, "lon": 22.4105172, "tags": {"amenity": "cafe", "name": "\u041c\u0435\u045f\u0438\u043a", "name:en": "Magic"}}, {"type": "node", "id": 8140186254, "lat": 41.9176467, "lon": 22.41051, "tags": {"amenity": "cafe", "name": "\u041b\u0438\u0431\u0435\u0440\u043e", "name:en": "Libero"}}, {"type": "node", "id": 8140186255, "lat": 41.9182427, "lon": 22.4097224, "tags": {"amenity": "cafe", "name": "\u0421\u0438\u0442\u0438 \u0418\u043d", "name:en": "City In"}}, {"type": "node", "id": 10819858145, "lat": 41.8915743, "lon": 22.5098083}, {"type": "node", "id": 10819858146, "lat": 41.8915126, "lon": 22.509838}, {"type": "node", "id": 10819858147, "lat": 41.8914747, "lon": 22.5097349}, {"type": "node", "id": 10819858148, "lat": 41.8912714, "lon": 22.5098338}, {"type": "node", "id": 10819858149, "lat": 41.8912967, "lon": 22.5099836}, {"type": "node", "id": 10819858150, "lat": 41.8914161, "lon": 22.5099453}, {"type": "node", "id": 10819858151, "lat": 41.8914391, "lon": 22.5100431}, {"type": "node", "id": 10819858152, "lat": 41.8915387, "lon": 22.5100016}, {"type": "node", "id": 10819858153, "lat": 41.8915292, "lon": 22.5099623}, {"type": "node", "id": 10819858154, "lat": 41.8915972, "lon": 22.5099336}, {"type": "node", "id": 11065670711, "lat": 42.2557365, "lon": 22.5484287, "tags": {"addr:city": "\u0413\u044a\u0440\u043b\u044f\u043d\u043e", "amenity": "restaurant", "name": "\u041a\u043e\u043c\u043f\u043b\u0435\u043a\u0441 \u041e\u0440\u0435\u0445\u044a\u0442"}}, {"type": "node", "id": 11065673726, "lat": 42.2530088, "lon": 22.5387032, "tags": {"amenity": "restaurant", "name": "\u0420\u0435\u0441\u0442\u043e\u0440\u0430\u043d\u0442 \u0420\u0418\u0411\u0410\u0420\u041d\u0418\u041a\u0410", "phone": "+359 88 631 1212", "website": "https://www.ribarnika.info/"}}, {"type": "node", "id": 12297448970, "lat": 42.2090481, "lon": 22.3628893}, {"type": "node", "id": 12297448971, "lat": 42.2089262, "lon": 22.3627775}, {"type": "node", "id": 12297448972, "lat": 42.208887, "lon": 22.3628568}, {"type": "node", "id": 12297448973, "lat": 42.209006, "lon": 22.3629625}, {"type": "node", "id": 12299611152, "lat": 42.0778675, "lon": 22.1815043, "tags": {"addr:city": "\u041a\u0440\u0430\u0442\u043e\u0432\u043e", "addr:housenumber": "24", "addr:postcode": "1360", "addr:street": "\u041f\u0438\u0442\u0443 \u0413\u0443\u043b\u0438", "amenity": "restaurant", "name": "\u0413\u0443\u0440\u043c\u0430\u043d", "name:en": "Gurman"}}, {"type": "node", "id": 12312241861, "lat": 42.0777139, "lon": 22.181875, "tags": {"amenity": "cafe", "name": "Art Caffe"}}, {"type": "node", "id": 12317916668, "lat": 42.0781547, "lon": 22.1817218, "tags": {"amenity": "cafe", "name": "Tea by the Square"}}, {"type": "node", "id": 12318152808, "lat": 42.0781547, "lon": 22.1817218, "tags": {"amenity": "cafe", "name": "Tea by the Square"}}, {"type": "node", "id": 12385235976, "lat": 42.29099, "lon": 22.7012381, "tags": {"amenity": "cafe", "name": "\u0420\u043e\u043f\u043e\u0442\u0430\u043c\u043e"}}, {"type": "node", "id": 12714431201, "lat": 41.9380504, "lon": 22.5142677, "tags": {"amenity": "restaurant", "name": "\u0420\u0435\u0441\u0442\u043e\u0440\u0430\u043d \u0421\u0430\u0432\u0430\u0440\u043e"}}, {"type": "way", "id": 461333925, "nodes": [4568412910, 5259972485, 4568412911, 4568412912, 4568412913, 4568412910], "tags": {"amenity": "cafe", "building": "yes", "internet_access": "no", "outdoor_seating": "yes"}}, {"type": "way", "id": 461333947, "nodes": [4792216589, 4568413007, 4568413008, 4568413009, 4792216589], "tags": {"amenity": "cafe", "building": "yes", "internet_access": "yes", "name": "Borks", "outdoor_seating": "veranda"}}, {"type": "way", "id": 544152152, "nodes": [5260154304, 5260154308, 5260154309, 5260154305, 5260154304], "tags": {"amenity": "cafe", "building": "yes"}}, {"type": "way", "id": 1163419008, "nodes": [10819858145, 10819858146, 10819858147, 10819858148, 10819858149, 10819858150, 10819858151, 10819858152, 10819858153, 10819858154, 10819858145], "tags": {"amenity": "restaurant", "building": "yes", "name": "Galija"}}, {"type": "way", "id": 1329164529, "nodes": [12297448970, 12297448971, 12297448972, 12297448973, 12297448970], "tags": {"amenity": "restaurant", "building": "yes"}}]}