{"version": 0.6, "generator": "Overpass API 0.7.62.7 375dc00a", "osm3s": {"timestamp_osm_base": "2025-06-14T13:14:57Z", "copyright": "The data included in this document is from www.openstreetmap.org. The data is made available under ODbL."}, "elements": [{"type": "node", "id": 951247307, "lat": 36.4090527, "lon": 4.8918206}, {"type": "node", "id": 951247576, "lat": 36.4084513, "lon": 4.892441}, {"type": "node", "id": 1935728938, "lat": 36.463895, "lon": 4.5355296, "tags": {"addr:country": "DZ", "amenity": "cafe", "cuisine": "coffee_shop", "name": "Caf\u00e9 de la Paix", "name:ar": "\u0645\u0642\u0647\u0649 \u0627\u0644\u0633\u0644\u0627\u0645", "wifi": "no"}}, {"type": "node", "id": 1935728942, "lat": 36.4607972, "lon": 4.536403}, {"type": "node", "id": 1935728964, "lat": 36.4650092, "lon": 4.5339536}, {"type": "node", "id": 1935728984, "lat": 36.4644791, "lon": 4.5328198}, {"type": "node", "id": 1935728996, "lat": 36.4630008, "lon": 4.5359701, "tags": {"addr:country": "DZ", "amenity": "cafe"}}, {"type": "node", "id": 1935728998, "lat": 36.4637849, "lon": 4.5366079, "tags": {"addr:country": "DZ", "amenity": "cafe"}}, {"type": "node", "id": 1935728999, "lat": 36.4634097, "lon": 4.5329118, "tags": {"addr:country": "DZ", "amenity": "cafe", "name": "Caf\u00e9 Gouraya", "name:ar": "\u0645\u0642\u0647\u0649 \u06a4\u0648\u0631\u0627\u064a\u0627"}}, {"type": "node", "id": 1935729019, "lat": 36.4647924, "lon": 4.5352641, "tags": {"addr:country": "DZ", "amenity": "cafe", "name": "Caf\u00e9 du Hoggar", "name:ar": "\u0645\u0642\u0647\u0649 \u0627\u0644\u0647\u06a4\u0627\u0631", "name:en": "Hoggar Caf\u00e9", "name:fr": "Caf\u00e9 du Hoggar"}}, {"type": "node", "id": 1935729035, "lat": 36.4647289, "lon": 4.53361}, {"type": "node", "id": 1937494876, "lat": 36.4641398, "lon": 4.5352003, "tags": {"addr:country": "DZ", "amenity": "cafe", "name": "Caf\u00e9 des Moudjahidines", "name:ar": "\u0645\u0642\u0647\u0649 \u0627\u0644\u0645\u062c\u0627\u0647\u062f\u064a\u0646"}}, {"type": "node", "id": 1942630828, "lat": 36.4641841, "lon": 4.5378344, "tags": {"addr:country": "DZ", "amenity": "cafe"}}, {"type": "node", "id": 1942630831, "lat": 36.4632005, "lon": 4.5316026}, {"type": "node", "id": 1953921272, "lat": 36.4607245, "lon": 4.5280583}, {"type": "node", "id": 1953926876, "lat": 36.4636947, "lon": 4.5320821, "tags": {"addr:country": "DZ", "amenity": "cafe"}}, {"type": "node", "id": 1953934225, "lat": 36.4631992, "lon": 4.5353873}, {"type": "node", "id": 2268658236, "lat": 36.6094994, "lon": 4.693302, "tags": {"addr:country": "DZ", "amenity": "restaurant", "cuisine": "regional", "name": "Chez Madaoui Djamel", "name:ar": "\u0645\u0627\u062f\u0627\u0648\u064a \u062c\u0645\u0627\u0644", "name:fr": "Chez Madaoui Djamel"}}, {"type": "node", "id": 2268659837, "lat": 36.609508, "lon": 4.6932269, "tags": {"addr:country": "DZ", "addr:street": "Route de la gare sidi aich", "amenity": "cafe", "cuisine": "coffee_shop", "name": "Chez Madaoui Ghani"}}, {"type": "node", "id": 2340590196, "lat": 36.6663599, "lon": 4.5126803, "tags": {"addr:country": "DZ", "amenity": "cafe", "name": "Cafeteria (Raab et fr\u00e8res)"}}, {"type": "node", "id": 2381145735, "lat": 36.6336463, "lon": 4.4622988, "tags": {"addr:country": "DZ", "amenity": "cafe"}}, {"type": "node", "id": 2381145737, "lat": 36.6334526, "lon": 4.4624195, "tags": {"addr:country": "DZ", "amenity": "cafe"}}, {"type": "node", "id": 2381158554, "lat": 36.6189872, "lon": 4.4772682, "tags": {"addr:country": "DZ", "amenity": "cafe"}}, {"type": "node", "id": 2381158557, "lat": 36.6194651, "lon": 4.476949, "tags": {"addr:country": "DZ", "amenity": "restaurant", "name": "Gargote"}}, {"type": "node", "id": 2381158561, "lat": 36.6193747, "lon": 4.4763938, "tags": {"addr:country": "DZ", "amenity": "cafe", "name": "Cafeteria"}}, {"type": "node", "id": 2381158562, "lat": 36.6194544, "lon": 4.4768685, "tags": {"addr:country": "DZ", "amenity": "cafe", "name": "Cafeteria"}}, {"type": "node", "id": 2381158564, "lat": 36.6185889, "lon": 4.4771046, "tags": {"addr:country": "DZ", "amenity": "cafe"}}, {"type": "node", "id": 2381158565, "lat": 36.6184038, "lon": 4.4769892, "tags": {"addr:country": "DZ", "amenity": "restaurant", "name": "Resto", "name:fr": "Resto"}}, {"type": "node", "id": 2381183254, "lat": 36.6659081, "lon": 4.5205537, "tags": {"addr:country": "DZ", "amenity": "cafe", "name": "Chez Kessouar et fr\u00e8res", "name:ar": "\u0639\u0646\u062f \u0643\u0633\u0648\u0627\u0631"}}, {"type": "node", "id": 2381183590, "lat": 36.665906, "lon": 4.5200789, "tags": {"addr:country": "DZ", "amenity": "cafe", "name": "Zerioul et fr\u00e8res", "name:ar": "\u0632\u0631\u064a\u0648\u0644"}}, {"type": "node", "id": 2422575292, "lat": 36.6007652, "lon": 4.6293963}, {"type": "node", "id": 2435294334, "lat": 36.6669837, "lon": 4.5131463, "tags": {"addr:country": "DZ", "amenity": "restaurant", "name": "Restaurant (Brahmi et freres)"}}, {"type": "node", "id": 2467974349, "lat": 36.6054728, "lon": 4.6394252}, {"type": "node", "id": 2467974350, "lat": 36.6054237, "lon": 4.6395059}, {"type": "node", "id": 2467974351, "lat": 36.605324, "lon": 4.6394118}, {"type": "node", "id": 2467974352, "lat": 36.6053731, "lon": 4.6393311}, {"type": "node", "id": 2623948158, "lat": 36.6271289, "lon": 4.7285642, "tags": {"addr:city": "Remila", "addr:country": "DZ", "amenity": "restaurant", "name": "Restaurant Adour"}}, {"type": "node", "id": 2680713310, "lat": 36.5826476, "lon": 4.438373, "tags": {"addr:country": "DZ", "amenity": "cafe", "name": "caf\u00e9t\u00e9ria"}}, {"type": "node", "id": 2736745445, "lat": 36.6165036, "lon": 4.4776008, "tags": {"addr:country": "DZ", "amenity": "cafe", "name": "Cafeteria"}}, {"type": "node", "id": 2736748327, "lat": 36.6177716, "lon": 4.4766432, "tags": {"addr:country": "DZ", "amenity": "cafe", "name": "Cafeteria"}}, {"type": "node", "id": 2736752676, "lat": 36.6180709, "lon": 4.4768068, "tags": {"addr:country": "DZ", "amenity": "cafe", "name": "Cafeteria"}}, {"type": "node", "id": 2736767852, "lat": 36.6189643, "lon": 4.4771663, "tags": {"addr:country": "DZ", "amenity": "cafe", "name": "Caf\u00e9teria"}}, {"type": "node", "id": 2736783545, "lat": 36.6173152, "lon": 4.4763321, "tags": {"addr:country": "DZ", "amenity": "cafe", "name": "Cafeteria"}}, {"type": "node", "id": 2736797323, "lat": 36.6162689, "lon": 4.4778609, "tags": {"addr:country": "DZ", "amenity": "restaurant", "name": "Resto", "name:fr": "Resto"}}, {"type": "node", "id": 2736798706, "lat": 36.617016, "lon": 4.4769704, "tags": {"addr:country": "DZ", "amenity": "cafe", "name": "Cafeteria"}}, {"type": "node", "id": 2736800290, "lat": 36.6171421, "lon": 4.4769182}, {"type": "node", "id": 2736836179, "lat": 36.6172162, "lon": 4.4770321, "tags": {"addr:country": "DZ", "amenity": "restaurant", "name": "Resto", "name:fr": "Resto"}}, {"type": "node", "id": 2737006021, "lat": 36.6161721, "lon": 4.4785675, "tags": {"addr:country": "DZ", "amenity": "cafe", "name": "Cafeteria"}}, {"type": "node", "id": 2737006927, "lat": 36.6163033, "lon": 4.4788414, "tags": {"addr:country": "DZ", "amenity": "cafe", "name": "Cafeteria"}}, {"type": "node", "id": 2737007138, "lat": 36.6160352, "lon": 4.4795721}, {"type": "node", "id": 2737009272, "lat": 36.6161792, "lon": 4.4787045, "tags": {"addr:country": "DZ", "amenity": "restaurant", "name": "Resto", "name:fr": "Resto"}}, {"type": "node", "id": 2737106450, "lat": 36.6568778, "lon": 4.486819, "tags": {"addr:country": "DZ", "amenity": "cafe", "name": "Cafeteria"}}, {"type": "node", "id": 2811187742, "lat": 36.6694624, "lon": 4.5227722}, {"type": "node", "id": 2811187743, "lat": 36.6693774, "lon": 4.5230081}, {"type": "node", "id": 2811187744, "lat": 36.6692986, "lon": 4.522964}, {"type": "node", "id": 2811187745, "lat": 36.6693837, "lon": 4.522728}, {"type": "node", "id": 2958836485, "lat": 36.4097675, "lon": 4.4718938}, {"type": "node", "id": 3058133684, "lat": 36.5816791, "lon": 4.4409075, "tags": {"addr:country": "DZ", "amenity": "cafe", "name": "Cafeteria"}}, {"type": "node", "id": 3058133690, "lat": 36.5813904, "lon": 4.4418806, "tags": {"addr:country": "DZ", "amenity": "restaurant", "name": "Restaurant Slimani", "name:ar": "\u0645\u0637\u0639\u0645 \u0633\u0644\u064a\u0645\u0627\u0646\u064a"}}, {"type": "node", "id": 3058133695, "lat": 36.5793225, "lon": 4.4454525, "tags": {"addr:country": "DZ", "amenity": "restaurant", "name": "Resto", "name:fr": "Resto"}}, {"type": "node", "id": 3058133699, "lat": 36.5791784, "lon": 4.445461}, {"type": "node", "id": 3058137316, "lat": 36.581253, "lon": 4.4399693, "tags": {"addr:country": "DZ", "amenity": "restaurant", "name": "Resto", "name:fr": "Resto"}}, {"type": "node", "id": 3058159374, "lat": 36.5835655, "lon": 4.4378266, "tags": {"addr:country": "DZ", "amenity": "cafe"}}, {"type": "node", "id": 3058159375, "lat": 36.5835174, "lon": 4.4376247}, {"type": "node", "id": 3266045461, "lat": 36.5424005, "lon": 4.6144054, "tags": {"addr:country": "DZ", "amenity": "cafe"}}, {"type": "node", "id": 3266108935, "lat": 36.5355681, "lon": 4.6058128}, {"type": "node", "id": 3266115914, "lat": 36.5361146, "lon": 4.6068838, "tags": {"addr:country": "DZ", "amenity": "restaurant", "name": "Resto", "name:fr": "Resto"}}, {"type": "node", "id": 3266115915, "lat": 36.5375757, "lon": 4.6082745}, {"type": "node", "id": 3266129725, "lat": 36.5399631, "lon": 4.6118384, "tags": {"addr:country": "DZ", "amenity": "cafe", "name": "Caf\u00e9 du centre"}}, {"type": "node", "id": 3266129729, "lat": 36.5402109, "lon": 4.6121604, "tags": {"addr:country": "DZ", "amenity": "cafe", "name": "Caf\u00e9 Central Abdou", "name:ar": "\u0627\u0644\u0645\u0642\u0647\u0649 \u0627\u0644\u0645\u0631\u0643\u0632\u064a \u0639\u0646\u062f \u0639\u064e\u0628\u062f\u0648"}}, {"type": "node", "id": 3266153901, "lat": 36.5215767, "lon": 4.5975825, "tags": {"addr:country": "DZ", "amenity": "restaurant", "name": "Resto", "name:fr": "Resto"}}, {"type": "node", "id": 3266153902, "lat": 36.5336164, "lon": 4.603368, "tags": {"addr:country": "DZ", "amenity": "cafe"}}, {"type": "node", "id": 3266153906, "lat": 36.5216586, "lon": 4.5976576, "tags": {"addr:country": "DZ", "amenity": "cafe"}}, {"type": "node", "id": 3266166415, "lat": 36.5443377, "lon": 4.6090757, "tags": {"addr:country": "DZ", "addr:street": "rue ex lyc\u00e9e", "amenity": "cafe", "cuisine": "coffee_shop", "name": "Chez \u00c2ammi Yahia", "name:ar": "\u0639\u0646\u062f \u0639\u0645\u064a \u064a\u062d\u064a\u0649"}}, {"type": "node", "id": 3266209549, "lat": 36.5445078, "lon": 4.6095926, "tags": {"addr:country": "DZ", "amenity": "restaurant", "name": "Resto", "name:fr": "Resto"}}, {"type": "node", "id": 3266210735, "lat": 36.5525365, "lon": 4.6264699, "tags": {"addr:country": "DZ", "amenity": "cafe"}}, {"type": "node", "id": 3266210737, "lat": 36.54437, "lon": 4.6159261, "tags": {"addr:country": "DZ", "amenity": "cafe"}}, {"type": "node", "id": 3266210740, "lat": 36.5524504, "lon": 4.626427, "tags": {"addr:country": "DZ", "amenity": "restaurant", "name": "Resto", "name:fr": "Resto"}}, {"type": "node", "id": 3266218681, "lat": 36.5411053, "lon": 4.6132949, "tags": {"addr:country": "DZ", "amenity": "cafe"}}, {"type": "node", "id": 3266218786, "lat": 36.5388231, "lon": 4.6103578, "tags": {"addr:country": "DZ", "amenity": "cafe", "name": "el paen"}}, {"type": "node", "id": 3266221651, "lat": 36.5382176, "lon": 4.6095505, "tags": {"addr:country": "DZ", "amenity": "restaurant", "name": "Resto", "name:fr": "Resto"}}, {"type": "node", "id": 3267210198, "lat": 36.5876947, "lon": 4.5820961}, {"type": "node", "id": 3267210199, "lat": 36.5876193, "lon": 4.5820398}, {"type": "node", "id": 3267210200, "lat": 36.5876645, "lon": 4.5819567}, {"type": "node", "id": 3267210201, "lat": 36.5877377, "lon": 4.582021}, {"type": "node", "id": 3362144465, "lat": 36.5125805, "lon": 4.5871847, "tags": {"amenity": "cafe"}}, {"type": "node", "id": 3475826093, "lat": 36.6113366, "lon": 4.6731753, "tags": {"addr:country": "DZ", "amenity": "cafe", "name": "Caf\u00e9 Medjdoub", "name:ar": "\u0645\u0642\u0647\u0649 \u0645\u062c\u062f\u0648\u0628"}}, {"type": "node", "id": 3476406613, "lat": 36.6226876, "lon": 4.6775745}, {"type": "node", "id": 3476406614, "lat": 36.6227198, "lon": 4.6774302}, {"type": "node", "id": 3476406615, "lat": 36.6227934, "lon": 4.6774557}, {"type": "node", "id": 3476406616, "lat": 36.6228171, "lon": 4.6775817}, {"type": "node", "id": 3476406617, "lat": 36.6228159, "lon": 4.6776582}, {"type": "node", "id": 3476406618, "lat": 36.6227654, "lon": 4.6776569}, {"type": "node", "id": 3476406619, "lat": 36.6227396, "lon": 4.6775925}, {"type": "node", "id": 3485370538, "lat": 36.6082539, "lon": 4.6930267, "tags": {"addr:city": "Timzaghra", "addr:country": "DZ", "addr:postcode": "06005", "amenity": "cafe", "cuisine": "pizza", "internet_access": "no", "name": "Caf\u00e9 Moualek", "smoking": "separated"}}, {"type": "node", "id": 3485370583, "lat": 36.6118102, "lon": 4.6893732, "tags": {"addr:country": "DZ", "amenity": "cafe", "name": "Chez El Mouloud", "name:ar": "\u0639\u0646\u062f \u0627\u0644\u0645\u0648\u0644\u0648\u062f"}}, {"type": "node", "id": 3485370584, "lat": 36.612226, "lon": 4.6887332, "tags": {"addr:city": "Sidi-A\u00efch", "addr:country": "DZ", "amenity": "cafe", "name": "Caf\u00e9 Salhi", "name:ar": "\u0635\u0627\u0644\u062d\u064a", "name:en": "Salhi", "name:fr": "Salhi", "name:kab": "Salhi"}}, {"type": "node", "id": 3485370585, "lat": 36.6120148, "lon": 4.6870869, "tags": {"addr:country": "DZ", "amenity": "cafe"}}, {"type": "node", "id": 3493647971, "lat": 36.6120563, "lon": 4.6740825, "tags": {"amenity": "cafe"}}, {"type": "node", "id": 3493648139, "lat": 36.6100276, "lon": 4.6689062}, {"type": "node", "id": 3493648166, "lat": 36.6082262, "lon": 4.666259, "tags": {"addr:city": "Leflaye", "addr:city:ar": "\u0627\u0644\u0641\u0644\u0627\u064a", "addr:country": "DZ", "amenity": "cafe", "name": "Lqahwa n 3 n yiberdan", "name:ar": "\u0645\u0642\u0647\u0649 \u062b\u0644\u0627\u062b \u0645\u0633\u0627\u0631\u0627\u062a", "name:fr": "Caf\u00e9 des trois chemins", "name:kab": "Lqahwa n 3 n yiberdan"}}, {"type": "node", "id": 3497593542, "lat": 36.6112146, "lon": 4.6940972, "tags": {"addr:country": "DZ", "amenity": "cafe", "cuisine": "pizza", "internet_access": "no", "name": "Caf\u00e9 Boukarouis", "name:ar": "\u0645\u0642\u0647\u0649 \u0628\u0648\u0642\u0631\u0648\u064a\u0633", "name:fr": "Caf\u00e9 Boukarouis", "smoking": "yes"}}, {"type": "node", "id": 3504757684, "lat": 36.6116871, "lon": 4.65029, "tags": {"addr:country": "DZ", "amenity": "cafe"}}, {"type": "node", "id": 3504757686, "lat": 36.6133375, "lon": 4.6500308, "tags": {"addr:city": "\u0638\u064a\u0628\u0627\u0646", "addr:city:ar": "\u0638\u064a\u0628\u0627\u0646", "addr:postcode": "06087", "amenity": "cafe", "name": "\u0645\u0642\u0647\u0649 \u0627\u0644\u0628\u0644\u062f\u064a\u0629", "name:ar": "\u0645\u0642\u0647\u0649 \u0627\u0644\u0628\u0644\u062f\u064a\u0629", "name:en": "Town hall cafe", "name:fr": "Caf\u00e9t\u00e9ria de la mairie", "opening_hours": "Mo-Su 07:00-20:00"}}, {"type": "node", "id": 3504757897, "lat": 36.6138278, "lon": 4.6504226, "tags": {"addr:country": "DZ", "amenity": "cafe", "name": "Foyer de Jeunes", "name:ar": "\u0645\u0631\u0643\u0632 \u0634\u0628\u0627\u0628"}}, {"type": "node", "id": 3534328126, "lat": 36.5783729, "lon": 4.6501704, "tags": {"addr:city": "Takrietz", "addr:country": "DZ", "amenity": "cafe", "name": "Caf\u00e9 de la gare", "name:ar": "\u0645\u0642\u0647\u0649 \u0645\u062d\u0637\u0629 \u0627\u0644\u0642\u0637\u0627\u0631\u0627\u062a", "name:fr": "Caf\u00e9 de la gare"}}, {"type": "node", "id": 3778409948, "lat": 36.6090642, "lon": 4.6895573, "tags": {"addr:city": "Timzaghra", "addr:country": "DZ", "addr:postcode": "06005", "amenity": "cafe", "cuisine": "pizza", "internet_access": "no", "level": "-1", "name": "Caf\u00e9 Fergane", "smoking": "yes"}}, {"type": "node", "id": 3782460872, "lat": 36.6468292, "lon": 4.7735098, "tags": {"addr:country": "DZ", "amenity": "cafe", "name": "Caf\u00e9 de la Soummam"}}, {"type": "node", "id": 4038505007, "lat": 36.6146349, "lon": 4.6580192}, {"type": "node", "id": 4038515316, "lat": 36.3193278, "lon": 4.8369674, "tags": {"addr:city": "Guenzet", "addr:country": "DZ", "addr:place": "Guenzet", "amenity": "cafe"}}, {"type": "node", "id": 4040036989, "lat": 36.6068361, "lon": 4.690745, "tags": {"amenity": "cafe", "level": "0", "outdoor_seating": "no", "smoking": "yes", "takeaway": "yes", "wheelchair": "no"}}, {"type": "node", "id": 4042075339, "lat": 36.6110359, "lon": 4.6836299, "tags": {"addr:country": "DZ", "amenity": "cafe"}}, {"type": "node", "id": 4046197690, "lat": 36.6039778, "lon": 4.8799256, "tags": {"addr:country": "DZ", "amenity": "cafe"}}, {"type": "node", "id": 4058515366, "lat": 36.6119663, "lon": 4.6883189, "tags": {"addr:country": "DZ", "amenity": "cafe", "name": "Caf\u00e9t\u00e9ria des Alg\u00e9riens", "name:ar": "\u0645\u0642\u0647\u0649 \u0627\u0644\u062c\u0632\u0627\u0626\u0631\u064a\u064a\u0646"}}, {"type": "node", "id": 4058515732, "lat": 36.6121447, "lon": 4.6890985, "tags": {"addr:city": "Sidi-A\u00efch", "addr:country": "DZ", "amenity": "cafe"}}, {"type": "node", "id": 4060111614, "lat": 36.5377955, "lon": 4.6081928, "tags": {"addr:country": "DZ", "amenity": "cafe", "name": "Caf\u00e9 Faycel", "name:ar": "\u0639\u0646\u062f \u0641\u064a\u0635\u0644"}}, {"type": "node", "id": 4061728642, "lat": 36.5330251, "lon": 4.6037413, "tags": {"addr:country": "DZ", "amenity": "cafe", "name": "Berkane", "name:ar": "\u0628\u0631\u0643\u0627\u0646", "name:en": "Berkane", "name:fr": "Berkane", "name:kab": "Berkane"}}, {"type": "node", "id": 4061759498, "lat": 36.5386448, "lon": 4.6100646, "tags": {"addr:country": "DZ", "amenity": "restaurant", "name": "Restaurant Le Bon Go\u00fbt"}}, {"type": "node", "id": 4061759500, "lat": 36.5408377, "lon": 4.6110326, "tags": {"addr:city": "\u0623\u0648\u0632\u0644\u0627\u0642\u0646", "addr:city:ar": "\u0623\u0648\u0632\u0644\u0627\u0642\u0646", "amenity": "cafe"}}, {"type": "node", "id": 4061914489, "lat": 36.5517, "lon": 4.5746795, "tags": {"addr:country": "DZ", "amenity": "restaurant", "name": "Restaurant Le Ch\u00eane", "name:fr": "Restaurant Le Ch\u00eane"}}, {"type": "node", "id": 4067286844, "lat": 36.5404426, "lon": 4.6123876, "tags": {"addr:country": "DZ", "amenity": "restaurant", "name": "Resto", "name:fr": "Resto"}}, {"type": "node", "id": 4067547312, "lat": 36.5132663, "lon": 4.5842976, "tags": {"amenity": "cafe"}}, {"type": "node", "id": 4067547313, "lat": 36.5128096, "lon": 4.5866961, "tags": {"addr:country": "DZ", "amenity": "restaurant", "name": "Pizzeria Les Berb\u00e8res", "name:en": "Pizzeria the Berber", "name:fr": "Pizzeria Les Berb\u00e8res"}}, {"type": "node", "id": 4070525493, "lat": 36.6940857, "lon": 4.6718504, "tags": {"addr:country": "DZ", "amenity": "cafe", "name": "Cafeteria Jardin"}}, {"type": "node", "id": 4070525494, "lat": 36.6943098, "lon": 4.6721285}, {"type": "node", "id": 4070525495, "lat": 36.6943416, "lon": 4.6715231, "tags": {"amenity": "cafe", "language:ar": "yes"}}, {"type": "node", "id": 4070525496, "lat": 36.6943459, "lon": 4.6714722, "tags": {"addr:country": "DZ", "amenity": "restaurant", "name": "Resto", "name:fr": "Resto"}}, {"type": "node", "id": 4070525503, "lat": 36.6923909, "lon": 4.6739773, "tags": {"addr:country": "DZ", "amenity": "cafe", "name": "Cafeteria Tartak"}}, {"type": "node", "id": 4070525504, "lat": 36.6923909, "lon": 4.6739318, "tags": {"addr:country": "DZ", "amenity": "restaurant", "name": "Restaurant Tartak"}}, {"type": "node", "id": 4079291825, "lat": 36.6418347, "lon": 4.9030773, "tags": {"addr:country": "DZ", "amenity": "cafe"}}, {"type": "node", "id": 4079293295, "lat": 36.6456053, "lon": 4.9057426, "tags": {"addr:country": "DZ", "amenity": "cafe"}}, {"type": "node", "id": 4080228920, "lat": 36.6130916, "lon": 4.6929941, "tags": {"addr:country": "DZ", "amenity": "restaurant", "name": "Restaurant Le Cosmos"}}, {"type": "node", "id": 4082709589, "lat": 36.6131293, "lon": 4.6924517, "tags": {"addr:country": "DZ", "amenity": "cafe"}}, {"type": "node", "id": 4082709590, "lat": 36.6128944, "lon": 4.6938525, "tags": {"addr:country": "DZ", "amenity": "cafe"}}, {"type": "node", "id": 4085100744, "lat": 36.4815669, "lon": 4.5572197, "tags": {"addr:country": "DZ", "amenity": "restaurant", "name": "Le train bleu", "name:ar": "\u0627\u0644\u0642\u0637\u0627\u0631 \u0627\u0644\u0623\u0632\u0631\u0642", "name:fr": "Le train bleu"}}, {"type": "node", "id": 4087968574, "lat": 36.5945196, "lon": 4.6210816, "tags": {"addr:city": "Chemini", "addr:country": "DZ", "amenity": "cafe"}}, {"type": "node", "id": 4087968576, "lat": 36.5946563, "lon": 4.6209365, "tags": {"addr:city": "Chemini", "addr:country": "DZ", "amenity": "cafe", "name": "At Ukheddal", "name:ar": "\u0622\u062b \u0623\u0648 \u062e\u062f\u0627\u0644", "name:en": "At Oukheddal", "name:fr": "Ath Oukheddal", "name:kab": "At Uxeddal"}}, {"type": "node", "id": 4088070534, "lat": 36.5932545, "lon": 4.618627, "tags": {"addr:city": "Chemini", "addr:country": "DZ", "addr:street": "Ibrid Oufella n Imaaliouene", "amenity": "cafe", "delivery": "no", "internet_access": "no", "kids_area": "no", "kids_area:indoor": "no", "kids_area:outdoor": "no", "name": "Caf\u00e9 Ima\u00e2liouene", "opening_hours": "sunrise-sunset", "smoking": "yes", "takeaway": "yes", "toilets": "yes", "toilets:access": "permissive", "wheelchair": "limited"}}, {"type": "node", "id": 4088071264, "lat": 36.5929128, "lon": 4.6177591, "tags": {"addr:city": "Chemini", "addr:country": "DZ", "addr:postcode": "06022", "amenity": "cafe", "name": "Chez Farid"}}, {"type": "node", "id": 4090324757, "lat": 36.5940428, "lon": 4.6213206, "tags": {"addr:city": "\u0634\u0645\u064a\u0646\u064a", "addr:city:ar": "\u0634\u0645\u064a\u0646\u064a", "amenity": "cafe"}}, {"type": "node", "id": 4092133815, "lat": 36.6121204, "lon": 4.7149268, "tags": {"addr:country": "DZ", "amenity": "cafe", "name": "Lqahwa n Buqerwis Boukarouis", "name:ar": "\u0628\u0648\u0642\u0631\u0648\u064a\u0633", "name:en": "Boukarouis", "name:fr": "Boukarouis", "name:kab": "Lqahwa n Buqe\u1e5bwis"}}, {"type": "node", "id": 4095179255, "lat": 36.6686336, "lon": 4.7680402, "tags": {"addr:country": "DZ", "amenity": "cafe", "name": "Caf\u00e9 de la place"}}, {"type": "node", "id": 4095209562, "lat": 36.595399, "lon": 4.6154371}, {"type": "node", "id": 4151424968, "lat": 36.5831757, "lon": 4.6588727, "tags": {"addr:country": "DZ", "amenity": "restaurant", "name": "Le Dauphin Bar Restaurant"}}, {"type": "node", "id": 4151426049, "lat": 36.4465851, "lon": 4.5280884}, {"type": "node", "id": 4179742691, "lat": 36.4623189, "lon": 4.5040956, "tags": {"addr:country": "DZ", "amenity": "cafe"}}, {"type": "node", "id": 4179743591, "lat": 36.4623772, "lon": 4.5040113, "tags": {"amenity": "cafe"}}, {"type": "node", "id": 4197029694, "lat": 36.581399, "lon": 4.6556254, "tags": {"addr:country": "DZ", "amenity": "restaurant", "name": "Resto", "name:fr": "Resto"}}, {"type": "node", "id": 4237562029, "lat": 36.6015767, "lon": 4.6327897, "tags": {"addr:city": "\u0633\u0648\u0642 \u0623\u0648\u0641\u0644\u0629", "addr:city:ar": "\u0633\u0648\u0642 \u0623\u0648\u0641\u0644\u0629", "amenity": "cafe", "name": "\u0639\u0646\u062f \u0646\u0630\u064a\u0631", "name:ar": "\u0639\u0646\u062f \u0646\u0630\u064a\u0631", "name:en": "Nadir", "name:fr": "Chez Nadir"}}, {"type": "node", "id": 4237568984, "lat": 36.6017277, "lon": 4.6328965, "tags": {"addr:country": "DZ", "amenity": "cafe", "name": "Chez Tonneau"}}, {"type": "node", "id": 4238231412, "lat": 36.6161988, "lon": 4.4785954, "tags": {"addr:country": "DZ", "amenity": "cafe", "name": "Caf\u00e9t\u00e9ria Populaire"}}, {"type": "node", "id": 4238231413, "lat": 36.6180563, "lon": 4.476805, "tags": {"addr:country": "DZ", "amenity": "cafe", "name": "Tidukla"}}, {"type": "node", "id": 4295871801, "lat": 36.5695704, "lon": 4.4514877, "tags": {"addr:country": "DZ", "amenity": "cafe", "name": "BELKESSAM"}}, {"type": "node", "id": 4330911661, "lat": 36.5976991, "lon": 4.6146014}, {"type": "node", "id": 4330911662, "lat": 36.5977105, "lon": 4.6147404}, {"type": "node", "id": 4330911670, "lat": 36.5979611, "lon": 4.6145855}, {"type": "node", "id": 4330911672, "lat": 36.5979679, "lon": 4.614729}, {"type": "node", "id": 4351622423, "lat": 36.6114249, "lon": 4.6507811, "tags": {"addr:country": "DZ", "amenity": "cafe"}}, {"type": "node", "id": 4351653290, "lat": 36.6142542, "lon": 4.6586374, "tags": {"addr:country": "DZ", "amenity": "restaurant", "internet_access": "no", "name": "Resto", "name:ar": "\u0631\u0633\u062a\u0648", "name:fr": "Resto", "takeaway": "yes"}}, {"type": "node", "id": 4370907648, "lat": 36.6177579, "lon": 4.7443048, "tags": {"addr:country": "DZ", "addr:street": "Abainu", "amenity": "cafe", "name": "Caf\u00e9 Bouaoune", "name:fr": "Caf\u00e9 Bouaoune"}}, {"type": "node", "id": 4463502199, "lat": 36.6161574, "lon": 4.775021, "tags": {"addr:city": "El Hed", "addr:country": "DZ", "addr:postcode": "06019", "amenity": "cafe", "cuisine": "coffee_shop", "internet_access": "no", "name": "Cafeteria Wisky", "smoking": "separated"}}, {"type": "node", "id": 4463502200, "lat": 36.6201379, "lon": 4.7684937, "tags": {"addr:city": "Akabiou", "addr:country": "DZ", "addr:postcode": "06019", "amenity": "cafe", "name": "Cafeteria 20 Avril", "name:ar": "\u0645\u0642\u0647\u0649 20 \u0623\u0641\u0631\u064a\u0644", "smoking": "separated"}}, {"type": "node", "id": 4463573589, "lat": 36.6205417, "lon": 4.7737845, "tags": {"addr:country": "DZ", "amenity": "cafe"}}, {"type": "node", "id": 4463597891, "lat": 36.615472, "lon": 4.7739368, "tags": {"addr:city": "El Hed", "addr:country": "DZ", "addr:postcode": "06019", "amenity": "cafe", "internet_access": "no", "name": "Caf\u00e9teria Mellali", "name:fr": "Caf\u00e9teria Mellali", "smoking": "separated"}}, {"type": "node", "id": 4463604789, "lat": 36.6167864, "lon": 4.7732637, "tags": {"addr:city": "Timzerit", "addr:country": "DZ", "addr:postcode": "06019", "amenity": "cafe", "internet_access": "no", "name": "Cafeteria Da Waali", "opening_hours": "05:30-23:00", "smoking": "separated"}}, {"type": "node", "id": 4464586192, "lat": 36.6379235, "lon": 4.8979512, "tags": {"addr:country": "DZ", "amenity": "cafe", "name": "Cafeteria Ben Abess", "name:fr": "Cafeteria Ben Abess"}}, {"type": "node", "id": 4573722797, "lat": 36.4665581, "lon": 4.8688875, "tags": {"addr:country": "DZ", "amenity": "cafe", "name": "Caf\u00e9 Hamza", "name:ar": "\u0645\u0642\u0647\u0649 \u062d\u0645\u0632\u0629", "name:en": "Hamza teffah", "name:fr": "Caf\u00e9 Hamza"}}, {"type": "node", "id": 4586447007, "lat": 36.5821156, "lon": 4.6566857, "tags": {"addr:city": "Takrietz", "addr:country": "DZ", "amenity": "cafe", "internet_access": "no"}}, {"type": "node", "id": 4587027875, "lat": 36.606715, "lon": 4.6510145, "tags": {"addr:city": "\u0638\u064a\u0628\u0627\u0646", "addr:city:ar": "\u0638\u064a\u0628\u0627\u0646", "addr:place": "\u0645\u0632\u0642\u0648\u0642", "addr:place:ar": "\u0645\u0632\u0642\u0648\u0642", "amenity": "cafe", "internet_access": "no"}}, {"type": "node", "id": 4631409387, "lat": 36.5980957, "lon": 4.6202577, "tags": {"addr:country": "DZ", "amenity": "cafe"}}, {"type": "node", "id": 4692566425, "lat": 36.6429457, "lon": 4.9101993, "tags": {"addr:country": "DZ", "amenity": "cafe", "name": "Cafeteria Samir Asahli", "name:fr": "Cafeteria Samir Asahli"}}, {"type": "node", "id": 4712996392, "lat": 36.4481258, "lon": 4.5283111, "tags": {"amenity": "cafe", "language:ar": "yes"}}, {"type": "node", "id": 4715262648, "lat": 36.6428294, "lon": 4.9041103, "tags": {"addr:country": "DZ", "amenity": "cafe", "name": "Caf\u00e9 Colmar abdou"}}, {"type": "node", "id": 4732233378, "lat": 36.4828213, "lon": 4.5592628, "tags": {"addr:city": "Taharracht", "addr:country": "DZ", "amenity": "restaurant", "delivery": "no", "name": "Caf\u00e9 restaurant", "smoking": "yes", "takeaway": "yes"}}, {"type": "node", "id": 4733003397, "lat": 36.6856485, "lon": 4.854372, "tags": {"addr:country": "DZ", "amenity": "cafe"}}, {"type": "node", "id": 4742839939, "lat": 36.6206135, "lon": 4.7661354}, {"type": "node", "id": 4742839940, "lat": 36.6205386, "lon": 4.7660989}, {"type": "node", "id": 4742839941, "lat": 36.6204977, "lon": 4.766233}, {"type": "node", "id": 4742839942, "lat": 36.6205691, "lon": 4.7662869}, {"type": "node", "id": 4742839943, "lat": 36.6206006, "lon": 4.7662141}, {"type": "node", "id": 4742839944, "lat": 36.6205924, "lon": 4.7661937}, {"type": "node", "id": 4745806757, "lat": 36.6428748, "lon": 4.9099778, "tags": {"addr:country": "DZ", "amenity": "cafe", "name": "Cafeteria bouazi"}}, {"type": "node", "id": 4762806795, "lat": 36.645631, "lon": 4.9070628, "tags": {"addr:country": "DZ", "amenity": "cafe", "name": "Cafeteria namir"}}, {"type": "node", "id": 4764681243, "lat": 36.3694015, "lon": 4.733372, "tags": {"addr:country": "DZ", "amenity": "cafe"}}, {"type": "node", "id": 4764681244, "lat": 36.369095, "lon": 4.7330363, "tags": {"addr:country": "DZ", "amenity": "cafe"}}, {"type": "node", "id": 4764681335, "lat": 36.3696642, "lon": 4.7342858, "tags": {"addr:country": "DZ", "amenity": "restaurant", "name": "\u0645\u0637\u0639\u0645 \u0639\u0628\u062f \u0627\u0644\u0645\u0627\u0644\u0643 \u0645\u0642\u0631\u0627\u0646\u064a", "name:fr": "Restaurant Malek Mokrani"}}, {"type": "node", "id": 4764707123, "lat": 36.3701098, "lon": 4.7351764, "tags": {"addr:country": "DZ", "amenity": "cafe"}}, {"type": "node", "id": 4788317788, "lat": 36.6173962, "lon": 4.7418992}, {"type": "node", "id": 4788317789, "lat": 36.6175142, "lon": 4.7417965}, {"type": "node", "id": 4788317790, "lat": 36.6174692, "lon": 4.7417171}, {"type": "node", "id": 4788317791, "lat": 36.6173493, "lon": 4.7417988}, {"type": "node", "id": 4788317796, "lat": 36.6177916, "lon": 4.7426161}, {"type": "node", "id": 4788317797, "lat": 36.617756, "lon": 4.7424853}, {"type": "node", "id": 4788317798, "lat": 36.6176473, "lon": 4.742518}, {"type": "node", "id": 4788317799, "lat": 36.6176792, "lon": 4.7426418}, {"type": "node", "id": 4843503021, "lat": 36.4692442, "lon": 4.8651655, "tags": {"addr:country": "DZ", "amenity": "cafe", "name:fr": "Caf\u00e9 lebkirie"}}, {"type": "node", "id": 4860217125, "lat": 36.6488039, "lon": 4.6745743, "tags": {"addr:country": "DZ", "amenity": "cafe", "name": "Bounehar Mokrane", "name:fr": "Bounehar Mokrane"}}, {"type": "node", "id": 4958775021, "lat": 36.4690974, "lon": 4.8666544, "tags": {"addr:country": "DZ", "amenity": "cafe", "name": "Cyber caf\u00e9 lebkiri mokhetar", "name:ar": "Cyber caf\u00e9 lebkiri mokhetar"}}, {"type": "node", "id": 4960234839, "lat": 36.4691211, "lon": 4.8666019, "tags": {"addr:country": "DZ", "amenity": "cafe", "name": "Cyber caf\u00e9 lebkiri mokhetar", "name:ar": "Cyber caf\u00e9 lebkiri mokhetar"}}, {"type": "node", "id": 5009935215, "lat": 36.4829156, "lon": 4.5586357, "tags": {"addr:city": "Taharracht", "addr:country": "DZ", "addr:postcode": "06200", "amenity": "cafe", "name": "Caf\u00e9t\u00e9ria de la Zone"}}, {"type": "node", "id": 5015135230, "lat": 36.5503623, "lon": 4.6256873, "tags": {"addr:country": "DZ", "amenity": "cafe"}}, {"type": "node", "id": 5016464129, "lat": 36.6679244, "lon": 4.6911995, "tags": {"addr:country": "DZ", "amenity": "cafe"}}, {"type": "node", "id": 5016724221, "lat": 36.5449108, "lon": 4.6093707, "tags": {"addr:country": "DZ", "addr:postcode": "06010", "addr:street": "route du congres", "amenity": "cafe", "cuisine": "cake;tea;coffee_shop;pizza", "name": "Chez Bouhou", "name:fr": "Chez Bouhou", "opening_hours": "Mo-Su 05:00-22:00"}}, {"type": "node", "id": 5017156004, "lat": 36.443837, "lon": 4.9686877}, {"type": "node", "id": 5018839136, "lat": 36.6418637, "lon": 4.9032728, "tags": {"addr:country": "DZ", "amenity": "cafe"}}, {"type": "node", "id": 5018839137, "lat": 36.6422228, "lon": 4.9029874}, {"type": "node", "id": 5030492512, "lat": 36.601692, "lon": 4.632868, "tags": {"addr:city": "\u0633\u0648\u0642 \u0623\u0648\u0641\u0644\u0629", "addr:city:ar": "\u0633\u0648\u0642 \u0623\u0648\u0641\u0644\u0629", "amenity": "cafe"}}, {"type": "node", "id": 5061775455, "lat": 36.4820376, "lon": 4.5619439, "tags": {"addr:country": "DZ", "amenity": "restaurant", "name": "Cantine Danone Djurdjura Alg\u00e9rie", "name:ar": "\u0645\u0637\u0639\u0645 \u0645\u062f\u0631\u0633\u064a", "name:ber": "Tneccit n u\u0263erbaz", "name:en": "school canteen", "name:fr": "Cantine scolaire"}}, {"type": "node", "id": 5104189826, "lat": 36.4597012, "lon": 4.5376306, "tags": {"addr:postcode": "06001", "addr:street": "Rue de la Gare", "addr:street:ar": "\u0634\u0627\u0631\u0639 \u0627\u0644\u0645\u062d\u0637\u0629", "amenity": "cafe", "language:ar": "yes", "opening_hours": "Mo-Su 06:00-22:00"}}, {"type": "node", "id": 5104190822, "lat": 36.459342, "lon": 4.5367871, "tags": {"addr:postcode": "06001", "addr:street": "Rue de la Gare", "addr:street:ar": "\u0634\u0627\u0631\u0639 \u0627\u0644\u0645\u062d\u0637\u0629", "amenity": "cafe", "language:ar": "yes", "opening_hours": "Mo-Su 06:00-22:00"}}, {"type": "node", "id": 5142882922, "lat": 36.6440461, "lon": 4.9058355, "tags": {"addr:city": "\u0623\u0645\u064a\u0632\u0648\u0631", "addr:city:ar": "\u0623\u0645\u064a\u0632\u0648\u0631", "addr:postcode": "06300", "amenity": "cafe", "language:ar": "yes", "name": "\u0645\u0642\u0647\u0649 \u062e\u0627\u0631\u0648\u0646\u064a", "name:ar": "\u0645\u0642\u0647\u0649 \u062e\u0627\u0631\u0648\u0646\u064a", "name:en": "Cafeteria Kharouni", "name:fr": "Caf\u00e9t\u00e9ria Kharouni"}}, {"type": "node", "id": 5227217461, "lat": 36.5756845, "lon": 4.8605236, "tags": {"addr:city": "\u0641\u0631\u0639\u0648\u0646", "addr:city:ar": "\u0641\u0631\u0639\u0648\u0646", "amenity": "cafe"}}, {"type": "node", "id": 5252044257, "lat": 36.580325, "lon": 4.6535433, "tags": {"addr:country": "DZ", "amenity": "restaurant", "name": "Restaurant de la Soummam"}}, {"type": "node", "id": 5259915822, "lat": 36.5838439, "lon": 4.6594072, "tags": {"addr:country": "DZ", "addr:street": "RN 26", "amenity": "cafe", "name": "Caf\u00e9t\u00e9ria Nath Waghlis"}}, {"type": "node", "id": 5305523081, "lat": 36.6618803, "lon": 4.9147594}, {"type": "node", "id": 5305523082, "lat": 36.6620972, "lon": 4.9145119}, {"type": "node", "id": 5305523083, "lat": 36.6620481, "lon": 4.914445}, {"type": "node", "id": 5305523084, "lat": 36.6618312, "lon": 4.9146926}, {"type": "node", "id": 5305523085, "lat": 36.6618499, "lon": 4.9140896}, {"type": "node", "id": 5305523086, "lat": 36.6620822, "lon": 4.9144061}, {"type": "node", "id": 5305523087, "lat": 36.6617987, "lon": 4.9147296}, {"type": "node", "id": 5305523088, "lat": 36.6615664, "lon": 4.9144131}, {"type": "node", "id": 5649864430, "lat": 36.3697837, "lon": 4.7825958, "tags": {"addr:country": "DZ", "amenity": "cafe"}}, {"type": "node", "id": 5823197091, "lat": 36.521646, "lon": 4.5976163, "tags": {"addr:street": "Ikhikhounen Route N\u00b026", "amenity": "restaurant", "description": "Caf\u00e9 & Restaurent Chez OUHENIA", "name": "Caf\u00e9 & Restaurent", "opening_hours": "Mo-Th, Sa, Su 05:00-21:00"}}, {"type": "node", "id": 5827399826, "lat": 36.5433012, "lon": 4.6111415, "tags": {"addr:street": "Route du congr\u00e8s, Ighzer Amokrane", "amenity": "restaurant", "name": "Restaurent", "opening_hours": "Mo-Th, Sa, Su 08:00-22:00"}}, {"type": "node", "id": 5852149551, "lat": 36.5415494, "lon": 4.5866409, "tags": {"addr:street": "Village Sidi Younes, Ighzer Amokrane", "amenity": "cafe", "description": "Chez Rayane", "name": "Caf\u00e9t\u00e9ria", "opening_hours": "Mo-Su 08:00-02:00"}}, {"type": "node", "id": 5865425557, "lat": 36.463212, "lon": 4.5345492, "tags": {"amenity": "restaurant", "name": "Restaurent", "opening_hours": "Mo-Th, Sa, Su 09:00-18:00"}}, {"type": "node", "id": 5887064635, "lat": 36.5525931, "lon": 4.5914996, "tags": {"addr:city": "Tigrine", "addr:postcode": "06010", "addr:street": "Route du congr\u00e8s", "amenity": "cafe", "cuisine": "pizza;coffee_shop;sandwich", "internet_access": "no", "name": "Cafeteria", "opening_hours": "24/7", "outdoor_seating": "yes", "smoking": "yes"}}, {"type": "node", "id": 5887113077, "lat": 36.5420159, "lon": 4.6123803, "tags": {"addr:city": "Ighzer Amokrane", "addr:postcode": "06010", "addr:street": "Route du congr\u00e8s", "amenity": "cafe", "check_date:opening_hours": "2023-09-13", "cuisine": "pizza;coffee_shop;tea;drinks;cakes", "internet_access": "no", "name": "Cafeteria La Parisienne", "name:fr": "Cafeteria La Parisienne", "opening_hours:signed": "no", "outdoor_seating": "yes", "smoking": "yes"}}, {"type": "node", "id": 6036720785, "lat": 36.516147, "lon": 4.9093801, "tags": {"amenity": "restaurant", "name": "\u0645\u0637\u0639\u0645", "name:ar": "\u0645\u0637\u0639\u0645", "name:fr": "Resto"}}, {"type": "node", "id": 6103039398, "lat": 36.4609818, "lon": 4.5287985, "tags": {"amenity": "restaurant", "name": "Club et Lounge Hipster", "name:fr": "Club et Lounge Hipster"}}, {"type": "node", "id": 6103060327, "lat": 36.4601895, "lon": 4.5287524, "tags": {"amenity": "cafe", "name": "Berlina Caf\u00e9"}}, {"type": "node", "id": 6103132053, "lat": 36.4595159, "lon": 4.5299185, "tags": {"amenity": "restaurant", "name": "Tacos & Co"}}, {"type": "node", "id": 6110986290, "lat": 36.5404331, "lon": 4.6114517, "tags": {"addr:city": "\u0623\u0648\u0632\u0644\u0627\u0642\u0646", "addr:city:ar": "\u0623\u0648\u0632\u0644\u0627\u0642\u0646", "addr:postcode": "06010", "addr:street": "Rue de la Mairie", "amenity": "cafe", "check_date:opening_hours": "2023-09-13", "name": "Salon de th\u00e9", "opening_hours:signed": "no"}}, {"type": "node", "id": 6111410224, "lat": 36.5412741, "lon": 4.6112261, "tags": {"amenity": "restaurant", "name": "Resto", "name:fr": "Resto"}}, {"type": "node", "id": 6113200814, "lat": 36.613104, "lon": 4.6923572, "tags": {"amenity": "restaurant", "name": "Makla el Baraka"}}, {"type": "node", "id": 6113258675, "lat": 36.582597, "lon": 4.6583565, "tags": {"amenity": "restaurant", "name": "Restaurent"}}, {"type": "node", "id": 6184987285, "lat": 36.515226, "lon": 4.6317246, "tags": {"amenity": "cafe", "name:fr": "Beriouche"}}, {"type": "node", "id": 6200369284, "lat": 36.5166931, "lon": 4.909373, "tags": {"amenity": "cafe"}}, {"type": "node", "id": 6200375781, "lat": 36.5164302, "lon": 4.9092861, "tags": {"amenity": "cafe"}}, {"type": "node", "id": 6467995186, "lat": 36.600417, "lon": 4.4620023, "tags": {"amenity": "cafe"}}, {"type": "node", "id": 6512305685, "lat": 36.6001834, "lon": 4.462074, "tags": {"amenity": "cafe"}}, {"type": "node", "id": 6786694485, "lat": 36.4560347, "lon": 4.5366904, "tags": {"amenity": "cafe", "name": "Caf\u00e9 de la tr\u00e9mie"}}, {"type": "node", "id": 6810260851, "lat": 36.5410975, "lon": 4.6129666, "tags": {"addr:city": "\u0623\u0648\u0632\u0644\u0627\u0642\u0646", "addr:city:ar": "\u0623\u0648\u0632\u0644\u0627\u0642\u0646", "amenity": "restaurant", "name": "Resto", "name:fr": "Resto"}}, {"type": "node", "id": 6812878169, "lat": 36.5441139, "lon": 4.6155033}, {"type": "node", "id": 6817813474, "lat": 36.5444802, "lon": 4.6158886, "tags": {"addr:city": "\u0623\u0648\u0632\u0644\u0627\u0642\u0646", "addr:city:ar": "\u0623\u0648\u0632\u0644\u0627\u0642\u0646", "amenity": "cafe"}}, {"type": "node", "id": 6819971976, "lat": 36.4592615, "lon": 4.5238838, "tags": {"amenity": "cafe"}}, {"type": "node", "id": 7116603885, "lat": 36.4633669, "lon": 4.5281982, "tags": {"addr:housenumber": "3", "addr:postcode": "06000", "addr:street": "Avenue du 1er Novembre", "amenity": "cafe", "name": "Coff\u00e9 time", "name:ar": "Coffe time", "opening_hours": "24/7"}}, {"type": "node", "id": 7263610428, "lat": 36.5461384, "lon": 4.6871427}, {"type": "node", "id": 7263610429, "lat": 36.5461526, "lon": 4.6872458}, {"type": "node", "id": 7263610430, "lat": 36.5460501, "lon": 4.6872675}, {"type": "node", "id": 7263610431, "lat": 36.5460381, "lon": 4.6871563}, {"type": "node", "id": 7263610432, "lat": 36.5455973, "lon": 4.6870597}, {"type": "node", "id": 7263610433, "lat": 36.5455616, "lon": 4.6871407}, {"type": "node", "id": 7263610434, "lat": 36.5455103, "lon": 4.6871088}, {"type": "node", "id": 7263610435, "lat": 36.5455466, "lon": 4.6870262}, {"type": "node", "id": 7419551189, "lat": 36.4856021, "lon": 4.7698696}, {"type": "node", "id": 7419551190, "lat": 36.4855082, "lon": 4.7697583}, {"type": "node", "id": 7419551191, "lat": 36.4854489, "lon": 4.7698254}, {"type": "node", "id": 7419551192, "lat": 36.4855438, "lon": 4.7699514}, {"type": "node", "id": 7475094592, "lat": 36.626404, "lon": 4.6219184, "tags": {"amenity": "cafe", "name:fr": "Djeddi"}}, {"type": "node", "id": 7475094687, "lat": 36.6294105, "lon": 4.622012, "tags": {"amenity": "cafe", "name:fr": "Chez sliman"}}, {"type": "node", "id": 7838223587, "lat": 36.6437927, "lon": 4.9032624, "tags": {"amenity": "cafe", "name": "Caf\u00e9 Kernou", "name:fr": "Caf\u00e9 Kernou"}}, {"type": "node", "id": 7838223594, "lat": 36.6452022, "lon": 4.9035482, "tags": {"addr:city": "Amizour", "addr:postcode": "06300", "addr:street": "Rue Fr\u00e8res Hadjara", "amenity": "cafe", "name": "Caf\u00e9 Abdelli", "name:fr": "Caf\u00e9 Abdelli"}}, {"type": "node", "id": 7841339324, "lat": 36.6442965, "lon": 4.9061812, "tags": {"addr:city": "Amizour", "addr:postcode": "06300", "amenity": "cafe", "name": "Caf\u00e9t\u00e9ria Azrou n Bechar", "name:fr": "Caf\u00e9t\u00e9ria Azrou n Bechar"}}, {"type": "node", "id": 7859367266, "lat": 36.592935, "lon": 4.6178296, "tags": {"addr:city": "Chemini", "addr:postcode": "06022", "amenity": "cafe", "internet_access": "yes", "name": "Chez Toufik", "outdoor_seating": "no"}}, {"type": "node", "id": 8231603471, "lat": 36.6095258, "lon": 4.6904719, "tags": {"amenity": "cafe"}}, {"type": "node", "id": 8302885421, "lat": 36.6033522, "lon": 4.6703117, "tags": {"amenity": "cafe", "name": "Caf\u00e9 des Trois Chemins", "name:ar": "\u0645\u0642\u0647\u0649 \u062b\u0644\u0627\u062b \u0645\u0633\u0627\u0631\u0627\u062a", "name:fr": "Caf\u00e9 des Trois Chemins", "name:kab": "Lqahwa n 3 n yiberdan"}}, {"type": "node", "id": 8307155971, "lat": 36.6105941, "lon": 4.6694667, "tags": {"addr:city": "Leflaye", "amenity": "cafe", "name": "Lqahwa n Cafiq", "name:fr": "Caf\u00e9 Chafiq", "name:kab": "Lqahwa n Cafiq"}}, {"type": "node", "id": 8392966100, "lat": 36.4819525, "lon": 4.5639302, "tags": {"amenity": "restaurant", "name": "Caf\u00e9 restaurant"}}, {"type": "node", "id": 8423199320, "lat": 36.5360228, "lon": 4.6065381, "tags": {"amenity": "cafe", "name": "Sa\u00efdi"}}, {"type": "node", "id": 8946359318, "lat": 36.4996506, "lon": 4.5746564, "tags": {"amenity": "cafe"}}, {"type": "node", "id": 9239228443, "lat": 36.6480325, "lon": 4.6412108, "tags": {"amenity": "cafe", "cuisine": "coffee_shop"}}, {"type": "node", "id": 9239228445, "lat": 36.6472696, "lon": 4.6390557, "tags": {"amenity": "cafe", "cuisine": "coffee_shop"}}, {"type": "node", "id": 10932967271, "lat": 36.6173036, "lon": 4.4765527}, {"type": "node", "id": 10932967820, "lat": 36.6173216, "lon": 4.4764418}, {"type": "node", "id": 10932968069, "lat": 36.6172143, "lon": 4.476729}, {"type": "node", "id": 10932968102, "lat": 36.617177, "lon": 4.4766137}, {"type": "node", "id": 10932968415, "lat": 36.6158534, "lon": 4.4797416}, {"type": "node", "id": 10932969484, "lat": 36.617214, "lon": 4.476595}, {"type": "node", "id": 10932971888, "lat": 36.6173828, "lon": 4.4767972}, {"type": "node", "id": 10932972097, "lat": 36.6160561, "lon": 4.4796812}, {"type": "node", "id": 10932972384, "lat": 36.6158324, "lon": 4.4796325}, {"type": "node", "id": 10932972446, "lat": 36.6170995, "lon": 4.4767867}, {"type": "node", "id": 10932974173, "lat": 36.6171864, "lon": 4.4765097}, {"type": "node", "id": 10932976258, "lat": 36.6173499, "lon": 4.4765294}, {"type": "node", "id": 11014976034, "lat": 36.6422049, "lon": 4.9030718}, {"type": "node", "id": 11014978800, "lat": 36.6421193, "lon": 4.9028461}, {"type": "node", "id": 11014978889, "lat": 36.6420802, "lon": 4.9030307}, {"type": "node", "id": 11014979275, "lat": 36.6422691, "lon": 4.9028954}, {"type": "node", "id": 11014979415, "lat": 36.6422478, "lon": 4.9029957}, {"type": "node", "id": 11019957303, "lat": 36.6099725, "lon": 4.6686245}, {"type": "node", "id": 11019957547, "lat": 36.6098843, "lon": 4.6687804}, {"type": "node", "id": 11019958383, "lat": 36.6101158, "lon": 4.6687503}, {"type": "node", "id": 11019977207, "lat": 36.6146047, "lon": 4.6578849}, {"type": "node", "id": 11019978479, "lat": 36.6146986, "lon": 4.6578522}, {"type": "node", "id": 11019978912, "lat": 36.6007397, "lon": 4.6292965}, {"type": "node", "id": 11019979298, "lat": 36.6006478, "lon": 4.629333}, {"type": "node", "id": 11019980584, "lat": 36.6006734, "lon": 4.6294328}, {"type": "node", "id": 11019980716, "lat": 36.6147287, "lon": 4.6579865}, {"type": "node", "id": 11019996502, "lat": 36.5953415, "lon": 4.6152313}, {"type": "node", "id": 11019996942, "lat": 36.595276, "lon": 4.6153079}, {"type": "node", "id": 11019997618, "lat": 36.5952973, "lon": 4.6152504}, {"type": "node", "id": 11019998856, "lat": 36.5953213, "lon": 4.6154707}, {"type": "node", "id": 11020000746, "lat": 36.5953094, "lon": 4.6152935}, {"type": "node", "id": 11021095521, "lat": 36.5356482, "lon": 4.6057847}, {"type": "node", "id": 11021097423, "lat": 36.5441679, "lon": 4.6155535}, {"type": "node", "id": 11021100399, "lat": 36.5355359, "lon": 4.6058429}, {"type": "node", "id": 11021112666, "lat": 36.5374242, "lon": 4.6082679}, {"type": "node", "id": 11021113718, "lat": 36.5375037, "lon": 4.608177}, {"type": "node", "id": 11021114780, "lat": 36.5374961, "lon": 4.6083654}, {"type": "node", "id": 11021129106, "lat": 36.5356479, "lon": 4.6057035}, {"type": "node", "id": 11021144568, "lat": 36.5355547, "lon": 4.6057905}, {"type": "node", "id": 11021145715, "lat": 36.5357461, "lon": 4.605947}, {"type": "node", "id": 11021146050, "lat": 36.5442078, "lon": 4.6154869}, {"type": "node", "id": 11021147412, "lat": 36.5441538, "lon": 4.6154368}, {"type": "node", "id": 11021156701, "lat": 36.5356517, "lon": 4.6060351}, {"type": "node", "id": 11021158191, "lat": 36.5356793, "lon": 4.6057556}, {"type": "node", "id": 11022050371, "lat": 36.463134, "lon": 4.5315167}, {"type": "node", "id": 11022050657, "lat": 36.4647328, "lon": 4.5335218}, {"type": "node", "id": 11022050785, "lat": 36.4651531, "lon": 4.5336711}, {"type": "node", "id": 11022050799, "lat": 36.465157, "lon": 4.533881}, {"type": "node", "id": 11022050953, "lat": 36.464916, "lon": 4.5336229}, {"type": "node", "id": 11022050996, "lat": 36.4650023, "lon": 4.5340196}, {"type": "node", "id": 11022051079, "lat": 36.464977, "lon": 4.5336426}, {"type": "node", "id": 11022051140, "lat": 36.4651471, "lon": 4.5339759}, {"type": "node", "id": 11022051270, "lat": 36.4649199, "lon": 4.5335346}, {"type": "node", "id": 11022051330, "lat": 36.4651316, "lon": 4.5338768}, {"type": "node", "id": 11022051358, "lat": 36.4649387, "lon": 4.5340093}, {"type": "node", "id": 11022068402, "lat": 36.4635115, "lon": 4.5351306}, {"type": "node", "id": 11022068478, "lat": 36.4644975, "lon": 4.5330782}, {"type": "node", "id": 11022068960, "lat": 36.4644326, "lon": 4.5331058}, {"type": "node", "id": 11022069140, "lat": 36.4632825, "lon": 4.5354022}, {"type": "node", "id": 11022069256, "lat": 36.4607463, "lon": 4.536468}, {"type": "node", "id": 11022069490, "lat": 36.4608024, "lon": 4.53646}, {"type": "node", "id": 11022069544, "lat": 36.4606484, "lon": 4.5362164}, {"type": "node", "id": 11022069568, "lat": 36.4606565, "lon": 4.5363037}, {"type": "node", "id": 11022069588, "lat": 36.4632784, "lon": 4.5354375}, {"type": "node", "id": 11022069640, "lat": 36.4607924, "lon": 4.5361959}, {"type": "node", "id": 11022069859, "lat": 36.4608023, "lon": 4.5363031}, {"type": "node", "id": 11022069916, "lat": 36.4633647, "lon": 4.5351875}, {"type": "node", "id": 11022070006, "lat": 36.4608236, "lon": 4.5363}, {"type": "node", "id": 11022070043, "lat": 36.4645503, "lon": 4.5330914}, {"type": "node", "id": 11022070107, "lat": 36.4634719, "lon": 4.5354722}, {"type": "node", "id": 11022070228, "lat": 36.4644906, "lon": 4.5331204}, {"type": "node", "id": 11022070304, "lat": 36.4607302, "lon": 4.5362932}, {"type": "node", "id": 11022070324, "lat": 36.4608326, "lon": 4.536398}, {"type": "node", "id": 11022070406, "lat": 36.4632253, "lon": 4.5351625}, {"type": "node", "id": 11022070705, "lat": 36.4633742, "lon": 4.535106}, {"type": "node", "id": 11022070773, "lat": 36.4645899, "lon": 4.5328476}, {"type": "node", "id": 11022073930, "lat": 36.4629433, "lon": 4.5317105}, {"type": "node", "id": 11022073994, "lat": 36.4630582, "lon": 4.5315334}, {"type": "node", "id": 11022074004, "lat": 36.4629159, "lon": 4.5316692}, {"type": "node", "id": 11022074086, "lat": 36.4630421, "lon": 4.5316956}, {"type": "node", "id": 11022074131, "lat": 36.4629715, "lon": 4.5317499}, {"type": "node", "id": 11022074155, "lat": 36.463071, "lon": 4.5317005}, {"type": "node", "id": 11022074225, "lat": 36.4631882, "lon": 4.5315854}, {"type": "node", "id": 11022074263, "lat": 36.4631187, "lon": 4.5315335}, {"type": "node", "id": 11022074320, "lat": 36.4630297, "lon": 4.5315292}, {"type": "node", "id": 11022074330, "lat": 36.4629821, "lon": 4.5316268}, {"type": "node", "id": 11022074664, "lat": 36.4608478, "lon": 4.528115}, {"type": "node", "id": 11022074852, "lat": 36.4631406, "lon": 4.5315641}, {"type": "node", "id": 11022074895, "lat": 36.4609419, "lon": 4.5277989}, {"type": "node", "id": 11022075085, "lat": 36.462886, "lon": 4.5316273}, {"type": "node", "id": 11022075112, "lat": 36.4630201, "lon": 4.5317716}, {"type": "node", "id": 11022075116, "lat": 36.4629906, "lon": 4.5315117}, {"type": "node", "id": 11022075128, "lat": 36.4631607, "lon": 4.5317405}, {"type": "node", "id": 11022076254, "lat": 36.4631875, "lon": 4.5313287}, {"type": "node", "id": 11022076281, "lat": 36.4630582, "lon": 4.5315427}, {"type": "node", "id": 11022076287, "lat": 36.4630146, "lon": 4.5315817}, {"type": "node", "id": 11022076479, "lat": 36.4630585, "lon": 4.531683}, {"type": "node", "id": 11022076508, "lat": 36.4632595, "lon": 4.5313609}, {"type": "node", "id": 11022076558, "lat": 36.4630223, "lon": 4.5316668}, {"type": "node", "id": 11022076707, "lat": 36.4632053, "lon": 4.5315486}, {"type": "node", "id": 11022076844, "lat": 36.4629085, "lon": 4.5316949}, {"type": "node", "id": 11022076872, "lat": 36.4629714, "lon": 4.531664}, {"type": "node", "id": 11022076877, "lat": 36.4630336, "lon": 4.531499}, {"type": "node", "id": 11022076907, "lat": 36.4608185, "lon": 4.5277421}, {"type": "node", "id": 11022101691, "lat": 36.4467626, "lon": 4.5282069}, {"type": "node", "id": 11022109518, "lat": 36.4467273, "lon": 4.5285186}, {"type": "node", "id": 11022110869, "lat": 36.4468523, "lon": 4.5282292}, {"type": "node", "id": 11022110957, "lat": 36.446497, "lon": 4.5282925}, {"type": "node", "id": 11022111604, "lat": 36.4465564, "lon": 4.5284046}, {"type": "node", "id": 11022111627, "lat": 36.4467752, "lon": 4.5281778}, {"type": "node", "id": 11022111649, "lat": 36.4465807, "lon": 4.5283484}, {"type": "node", "id": 11080767361, "lat": 36.4083856, "lon": 4.8927885}, {"type": "node", "id": 11080767722, "lat": 36.4084379, "lon": 4.8927767}, {"type": "node", "id": 11080767853, "lat": 36.408408, "lon": 4.8925728}, {"type": "node", "id": 11080767867, "lat": 36.408257, "lon": 4.8924849}, {"type": "node", "id": 11080767985, "lat": 36.4083803, "lon": 4.8927521}, {"type": "node", "id": 11080768461, "lat": 36.4089553, "lon": 4.8917364}, {"type": "node", "id": 11080768756, "lat": 36.408988, "lon": 4.8915394}, {"type": "node", "id": 11080769045, "lat": 36.4082737, "lon": 4.8927762}, {"type": "node", "id": 11080770026, "lat": 36.4084686, "lon": 4.8925591}, {"type": "node", "id": 11080771257, "lat": 36.4089364, "lon": 4.8916315}, {"type": "node", "id": 11080771461, "lat": 36.4082731, "lon": 4.8925953}, {"type": "node", "id": 11080772499, "lat": 36.4082481, "lon": 4.8926009}, {"type": "node", "id": 11080773125, "lat": 36.4089887, "lon": 4.8916768}, {"type": "node", "id": 11080773850, "lat": 36.4091377, "lon": 4.8916689}, {"type": "node", "id": 11093216649, "lat": 36.4439685, "lon": 4.9685073}, {"type": "node", "id": 11093217663, "lat": 36.4438087, "lon": 4.9685635}, {"type": "node", "id": 11093222744, "lat": 36.4439968, "lon": 4.9686314}, {"type": "node", "id": 11116561030, "lat": 36.6942432, "lon": 4.6721467}, {"type": "node", "id": 11116561484, "lat": 36.6942112, "lon": 4.6721232}, {"type": "node", "id": 11116562868, "lat": 36.6941295, "lon": 4.6722966}, {"type": "node", "id": 11116563108, "lat": 36.6942667, "lon": 4.6720968}, {"type": "node", "id": 11116563526, "lat": 36.694279, "lon": 4.6724063}, {"type": "node", "id": 11116563993, "lat": 36.6943305, "lon": 4.6720846}, {"type": "node", "id": 11116564011, "lat": 36.6944049, "lon": 4.6721392}, {"type": "node", "id": 11124942571, "lat": 36.5793024, "lon": 4.4455286}, {"type": "node", "id": 11124942836, "lat": 36.5792479, "lon": 4.4455489}, {"type": "node", "id": 11124943915, "lat": 36.5790475, "lon": 4.4454678}, {"type": "node", "id": 11124944050, "lat": 36.579188, "lon": 4.4458152}, {"type": "node", "id": 11124944710, "lat": 36.5834168, "lon": 4.4376524}, {"type": "node", "id": 11124945110, "lat": 36.579083, "lon": 4.4456156}, {"type": "node", "id": 11124945393, "lat": 36.5792229, "lon": 4.4454445}, {"type": "node", "id": 11124945549, "lat": 36.5833324, "lon": 4.4371767}, {"type": "node", "id": 11124946555, "lat": 36.5834331, "lon": 4.437149}, {"type": "node", "id": 11124946672, "lat": 36.5791692, "lon": 4.4454226}, {"type": "node", "id": 11124946964, "lat": 36.5791742, "lon": 4.4457576}, {"type": "node", "id": 11124947400, "lat": 36.5791525, "lon": 4.4457657}, {"type": "node", "id": 11124947585, "lat": 36.5793561, "lon": 4.4457527}, {"type": "node", "id": 11124947628, "lat": 36.5791137, "lon": 4.4456041}, {"type": "node", "id": 11172940674, "lat": 36.4096799, "lon": 4.4719881}, {"type": "node", "id": 11172941502, "lat": 36.4095969, "lon": 4.4720064}, {"type": "node", "id": 11172941856, "lat": 36.4097045, "lon": 4.4720233}, {"type": "node", "id": 11172943102, "lat": 36.4095173, "lon": 4.4718921}, {"type": "node", "id": 11172943384, "lat": 36.4095752, "lon": 4.4720298}, {"type": "node", "id": 11172945048, "lat": 36.4096596, "lon": 4.471739}, {"type": "node", "id": 11172947092, "lat": 36.409628, "lon": 4.4721056}, {"type": "node", "id": 12713269862, "lat": 36.5411105, "lon": 4.6128159, "tags": {"addr:city": "\u0623\u0648\u0632\u0644\u0627\u0642\u0646", "addr:city:ar": "\u0623\u0648\u0632\u0644\u0627\u0642\u0646", "amenity": "cafe", "source": "microsoft/BuildingFootprints"}}, {"type": "way", "id": 238991443, "nodes": [2467974349, 2467974350, 2467974351, 2467974352, 2467974349], "tags": {"addr:postcode": "06042", "amenity": "cafe", "building": "yes", "building:levels": "2", "internet_access": "no", "name": "Caf\u00e9 de Vieux March\u00e9", "name:ar": "\u0645\u0642\u0647\u0649 \u0627\u0644\u0633\u0648\u0642 \u0627\u0644\u0642\u062f\u064a\u0645", "name:fr": "Caf\u00e9 de Vieux March\u00e9", "name:kab": "Lqahwa n d Arezki", "opening_hours": "Mo-Su 07:00-20:00", "outdoor_seating": "yes", "smoking": "yes"}}, {"type": "way", "id": 276520371, "nodes": [2811187742, 2811187743, 2811187744, 2811187745, 2811187742], "tags": {"amenity": "restaurant", "building": "yes", "name": "Cantine de L'\u00e9cole", "name:ar": "\u0645\u0637\u0639\u0645 \u0645\u062f\u0631\u0633\u064a", "name:ber": "Tneccit n u\u0263erbaz", "name:en": "school canteen", "name:fr": "Cantine scolaire"}}, {"type": "way", "id": 320223113, "nodes": [3267210198, 3267210199, 3267210200, 3267210201, 3267210198], "tags": {"addr:country": "DZ", "addr:place": "Semaoune", "addr:postcode": "06084", "amenity": "cafe", "name": "cafeteria Semaoun"}}, {"type": "way", "id": 340417825, "nodes": [3476406613, 3476406614, 3476406615, 3476406616, 3476406617, 3476406618, 3476406619, 3476406613], "tags": {"addr:city": "Tinebdar", "addr:city:ar": "\u062b\u064a\u0646\u0628\u0630\u0627\u0631", "addr:postcode": "06037", "addr:street": "1er Novembre", "addr:street:ar": "\u0634\u0627\u0631\u0639 \u0623\u0648\u0644 \u0646\u0648\u0641\u0645\u0628\u0631", "amenity": "cafe", "building": "yes", "internet_access": "wlan", "name": "Caf\u00e9 Belili", "name:ar": "\u0645\u0642\u0647\u0649 \u0628\u0644\u064a\u0628\u064a", "smoking": "outside"}}, {"type": "way", "id": 435139362, "nodes": [4330911672, 4330911670, 4330911661, 4330911662, 4330911672], "tags": {"addr:city": "Chemini", "addr:postcode": "06022", "addr:street": "Abrid n At Sula", "amenity": "restaurant", "building": "yes", "name": "Cantine", "name:ar": "\u0645\u0637\u0639\u0645 \u0645\u062f\u0631\u0633\u064a", "name:ber": "Tneccit n u\u0263erbaz", "name:en": "school canteen", "name:fr": "Cantine scolaire"}}, {"type": "way", "id": 481346506, "nodes": [4742839939, 4742839940, 4742839941, 4742839942, 4742839943, 4742839944, 4742839939], "tags": {"amenity": "cafe", "building": "yes", "name": "Gosto"}}, {"type": "way", "id": 486117521, "nodes": [4788317788, 4788317789, 4788317790, 4788317791, 4788317788], "tags": {"amenity": "cafe", "building": "yes", "name": "Ghanem"}}, {"type": "way", "id": 486117523, "nodes": [4788317796, 4788317797, 4788317798, 4788317799, 4788317796], "tags": {"amenity": "cafe", "building": "yes", "name": "Mourad"}}, {"type": "way", "id": 549233098, "nodes": [5305523088, 5305523085, 5305523086, 5305523083, 5305523082, 5305523081, 5305523084, 5305523087, 5305523088], "tags": {"amenity": "restaurant", "building": "yes", "name": "Foyer & Restaurant"}}, {"type": "way", "id": 778258928, "nodes": [7263610428, 7263610429, 7263610430, 7263610431, 7263610428], "tags": {"amenity": "cafe", "building": "yes"}}, {"type": "way", "id": 778258929, "nodes": [7263610432, 7263610433, 7263610434, 7263610435, 7263610432], "tags": {"amenity": "restaurant", "building": "yes", "cuisine": "regional;pizza;sandwich", "name": "Chikhoune"}}, {"type": "way", "id": 793497363, "nodes": [7419551189, 7419551190, 7419551191, 7419551192, 7419551189], "tags": {"amenity": "restaurant", "building": "yes", "name": "\u0645\u0637\u0639\u0645 \u0627\u0644\u0645\u062f\u0631\u0633\u0629 \u062b\u064a\u0648\u0627\u0644", "name:ar": "\u0645\u0637\u0639\u0645 \u0645\u062f\u0631\u0633\u064a", "name:ber": "Tneccit n u\u0263erbaz", "name:en": "school canteen", "name:fr": "Cantine scolaire"}}, {"type": "way", "id": 1176770233, "nodes": [10932968415, 10932972097, 2737007138, 10932972384, 10932968415], "tags": {"addr:country": "DZ", "amenity": "cafe", "building": "yes", "name": "Cafeteria", "source": "FB: Algerie Mapper Team : (Superadlen)"}}, {"type": "way", "id": 1176770882, "nodes": [10932967271, 10932976258, 10932967820, 10932974173, 10932969484, 10932968102, 10932968069, 10932972446, 2736800290, 10932971888, 10932967271], "tags": {"addr:country": "DZ", "amenity": "cafe", "building": "yes", "name": "Cafeteria", "source": "FB: Algerie Mapper Team : (Superadlen)"}}, {"type": "way", "id": 1185844916, "nodes": [11014978889, 11014976034, 5018839137, 11014979415, 11014979275, 11014978800, 11014978889], "tags": {"addr:city": "\u0623\u0645\u064a\u0632\u0648\u0631", "addr:city:ar": "\u0623\u0645\u064a\u0632\u0648\u0631", "addr:postcode": "06300", "amenity": "cafe", "building": "yes", "source": "Bing"}}, {"type": "way", "id": 1186494931, "nodes": [3493648139, 11019958383, 11019957303, 11019957547, 3493648139], "tags": {"addr:city": "Leflaye", "addr:city:ar": "\u0627\u0644\u0641\u0644\u0627\u064a", "amenity": "cafe", "building": "yes", "source": "microsoft/BuildingFootprints"}}, {"type": "way", "id": 1186498750, "nodes": [11019977207, 4038505007, 11019980716, 11019978479, 11019977207], "tags": {"addr:country": "DZ", "amenity": "cafe", "building": "yes", "name": "Lqawa n Tewrirt", "name:ar": "\u0645\u0642\u0647\u0649 \u062b\u0627\u0648\u0631\u064a\u0631\u062b", "name:kab": "Lqawa n Tewrirt", "source": "microsoft/BuildingFootprints"}}, {"type": "way", "id": 1186498871, "nodes": [11019978912, 11019979298, 11019980584, 2422575292, 11019978912], "tags": {"addr:country": "DZ", "amenity": "cafe", "building": "yes", "name": "Grossiste boissons", "shop": "beverages", "source": "microsoft/BuildingFootprints", "wifi": "no"}}, {"type": "way", "id": 1186501154, "nodes": [11020000746, 11019996942, 11019998856, 4095209562, 11019996502, 11019997618, 11020000746], "tags": {"addr:country": "DZ", "amenity": "cafe", "building": "yes", "name": "Caf\u00e9 Moussaoui (Pilou)", "name:ar": "\u0645\u0648\u0633\u0627\u0648\u064a", "name:en": "Moussaoui", "name:fr": "Moussaoui", "name:kab": "Musawi", "source": "microsoft/BuildingFootprints"}}, {"type": "way", "id": 1186621617, "nodes": [11021113718, 11021112666, 11021114780, 3266115915, 11021113718], "tags": {"addr:country": "DZ", "amenity": "restaurant", "building": "yes", "cuisine": "roa", "name": "R\u00f4tisserie Bekhous", "name:ar": "\u0639\u0646\u062f \u0628\u062e\u0648\u0633", "source": "microsoft/BuildingFootprints"}}, {"type": "way", "id": 1186623227, "nodes": [11021129106, 11021144568, 3266108935, 11021100399, 11021156701, 11021145715, 11021095521, 11021158191, 11021129106], "tags": {"addr:country": "DZ", "amenity": "cafe", "building": "yes", "name": "Caf\u00e9 Touahri", "name:ar": "\u0645\u0642\u0647\u0649 \u0637\u0648\u0627\u0647\u0631\u064a", "source": "microsoft/BuildingFootprints"}}, {"type": "way", "id": 1186623520, "nodes": [11021097423, 11021146050, 11021147412, 6812878169, 11021097423], "tags": {"addr:city": "\u0623\u0648\u0632\u0644\u0627\u0642\u0646", "addr:city:ar": "\u0623\u0648\u0632\u0644\u0627\u0642\u0646", "amenity": "restaurant", "building": "yes", "name": "Resto", "name:fr": "Resto", "source": "microsoft/BuildingFootprints"}}, {"type": "way", "id": 1186745332, "nodes": [11022051079, 11022051358, 11022050996, 1935728964, 11022051140, 11022050799, 11022051330, 11022050785, 11022051079], "tags": {"addr:country": "DZ", "amenity": "cafe", "building": "yes", "source": "microsoft/BuildingFootprints"}}, {"type": "way", "id": 1186745334, "nodes": [11022050657, 1935729035, 11022050953, 11022051270, 11022050657], "tags": {"addr:country": "DZ", "amenity": "cafe", "building": "yes", "source": "microsoft/BuildingFootprints"}}, {"type": "way", "id": 1186746742, "nodes": [11022070406, 1953934225, 11022069140, 11022069588, 11022070107, 11022068402, 11022070705, 11022069916, 11022070406], "tags": {"addr:country": "DZ", "amenity": "cafe", "building": "yes", "source": "microsoft/BuildingFootprints"}}, {"type": "way", "id": 1186746823, "nodes": [1935728984, 11022068960, 11022070228, 11022068478, 11022070043, 11022070773, 1935728984], "tags": {"addr:country": "DZ", "amenity": "cafe", "building": "yes", "source": "microsoft/BuildingFootprints"}}, {"type": "way", "id": 1186746885, "nodes": [11022069640, 11022069544, 11022069568, 11022070304, 11022069256, 11022069490, 1935728942, 11022070324, 11022070006, 11022069859, 11022069640], "tags": {"addr:country": "DZ", "amenity": "cafe", "building": "yes", "source": "microsoft/BuildingFootprints"}}, {"type": "way", "id": 1186747386, "nodes": [11022074664, 11022074895, 11022076907, 1953921272, 11022074664], "tags": {"addr:country": "DZ", "amenity": "restaurant", "building": "yes", "name": "Restaurant Noir & Blanc", "name:fr": "Restaurant Noir & Blanc", "source": "microsoft/BuildingFootprints"}}, {"type": "way", "id": 1186747470, "nodes": [11022075085, 11022074004, 11022076844, 11022073930, 11022074131, 11022075112, 11022074086, 11022076872, 11022074330, 11022076281, 11022076558, 11022076479, 11022074155, 11022075128, 1942630831, 11022074225, 11022074852, 11022074263, 11022050371, 11022076707, 11022076508, 11022076254, 11022076877, 11022073994, 11022076287, 11022074320, 11022075116, 11022075085], "tags": {"addr:country": "DZ", "amenity": "restaurant", "building": "yes", "name": "L'oiseau bleu", "source": "microsoft/BuildingFootprints"}}, {"type": "way", "id": 1186756991, "nodes": [4151426049, 11022110957, 11022111649, 11022111604, 11022109518, 11022110869, 11022111627, 11022101691, 4151426049], "tags": {"addr:country": "DZ", "amenity": "restaurant", "building": "yes", "name": "Royal bar restaurant", "source": "microsoft/BuildingFootprints"}}, {"type": "way", "id": 1193735585, "nodes": [11080767867, 11080771461, 11080772499, 11080769045, 11080767985, 11080767361, 11080767722, 11080767853, 11080770026, 951247576, 11080767867], "tags": {"addr:country": "DZ", "amenity": "cafe", "building": "yes", "name": "waki cafe", "source": "FB: Algerie Mapper Team"}}, {"type": "way", "id": 1193736053, "nodes": [951247307, 11080773850, 11080768756, 11080771257, 11080773125, 11080768461, 951247307], "tags": {"addr:country": "DZ", "amenity": "cafe", "building": "yes", "name": "Hmadou caf\u00e9", "name:ar": "\u0645\u0642\u0647\u0649 \u062d\u0645\u0627\u062f\u0648", "source": "FB: Algerie Mapper Team"}}, {"type": "way", "id": 1195211559, "nodes": [11093217663, 5017156004, 11093222744, 11093216649, 11093217663], "tags": {"addr:country": "DZ", "amenity": "cafe", "building": "yes", "source": "microsoft/BuildingFootprints"}}, {"type": "way", "id": 1198310204, "nodes": [11116562868, 11116563526, 11116564011, 11116563993, 4070525494, 11116563108, 11116561030, 11116561484, 11116562868], "tags": {"addr:country": "DZ", "amenity": "cafe", "building": "yes", "name": "Cafeteria Md L\u00e4arvi", "source": "microsoft/BuildingFootprints"}}, {"type": "way", "id": 1199444227, "nodes": [11124946555, 11124945549, 11124944710, 3058159375, 11124946555], "tags": {"addr:country": "DZ", "amenity": "restaurant", "building": "yes", "name": "Resto", "name:fr": "Resto", "source": "microsoft/BuildingFootprints"}}, {"type": "way", "id": 1199445147, "nodes": [11124943915, 11124945110, 11124947628, 11124947400, 11124946964, 11124944050, 11124947585, 11124942571, 11124942836, 11124945393, 3058133699, 11124946672, 11124943915], "tags": {"addr:country": "DZ", "amenity": "cafe", "building": "yes", "source": "microsoft/BuildingFootprints"}}, {"type": "way", "id": 1205624832, "nodes": [11172947092, 11172941856, 11172940674, 2958836485, 11172945048, 11172943102, 11172941502, 11172943384, 11172947092], "tags": {"addr:city": "colonel amirouche ex Riquet", "addr:country": "DZ", "amenity": "cafe", "building": "yes", "cuisine": "regional", "internet_access": "yes", "name": "Benmammar Moussa", "smoking": "yes", "source": "microsoft/BuildingFootprints"}}]}