{"version": 0.6, "generator": "Overpass API 0.7.62.7 375dc00a", "osm3s": {"timestamp_osm_base": "2025-06-14T14:55:36Z", "copyright": "The data included in this document is from www.openstreetmap.org. The data is made available under ODbL."}, "elements": [{"type": "node", "id": 595353670, "lat": 31.3592015, "lon": 27.2571573, "tags": {"alt_name": "\u0644\u064a\u0627\u0644\u064a \u0628\u0627\u0631\u064a\u0633", "amenity": "restaurant", "name": "\u0644\u064a\u0627\u0644\u064a \u0628\u0627\u0631\u064a\u0633", "name:ar": "\u0644\u064a\u0627\u0644\u064a \u0628\u0627\u0631\u064a\u0633", "name:en": "Layaly Paris"}}, {"type": "node", "id": 6964267786, "lat": 31.3547544, "lon": 27.2429803, "tags": {"amenity": "restaurant", "name": "\u062d\u0645\u0648 \u0627\u0644\u062a\u0645\u0633\u0627\u062d \u0644\u0644\u0645\u0623\u0643\u0648\u0644\u0627\u062a \u0627\u0644\u0628\u062d\u0631\u064a\u0629.", "name:ar": "\u062d\u0645\u0648 \u0627\u0644\u062a\u0645\u0633\u0627\u062d \u0644\u0644\u0645\u0623\u0643\u0648\u0644\u0627\u062a \u0627\u0644\u0628\u062d\u0631\u064a\u0629."}}, {"type": "node", "id": 6964297785, "lat": 31.3531433, "lon": 27.2403474, "tags": {"amenity": "restaurant", "name": "\u0645\u062c\u062f\u064a \u0644\u0644\u0645\u0623\u0643\u0648\u0644\u0627\u062a \u0627\u0644\u0628\u062d\u0631\u064a\u0629", "name:ar": "\u0645\u062c\u062f\u064a \u0644\u0644\u0645\u0623\u0643\u0648\u0644\u0627\u062a \u0627\u0644\u0628\u062d\u0631\u064a\u0629"}}, {"type": "node", "id": 7825663240, "lat": 31.356042, "lon": 27.2126842, "tags": {"addr:country": "EG", "addr:district": "\u0645\u0631\u0633\u064a \u0645\u0637\u0631\u0648\u062d", "addr:district:en": "Marsa Matrouh", "addr:housenumber": "49L", "addr:postcode": "51511", "addr:province": "\u0645\u0637\u0631\u0648\u062d", "addr:province:en": "Matrouh", "addr:street": "\u0634\u0627\u0631\u0639 \u0627\u0644\u0643\u0648\u0631\u0646\u064a\u0634", "addr:street:en": "Al Cornish Street", "addr:subdistrict": "\u0645\u062f\u064a\u0646\u0647 \u0645\u0631\u0633\u064a \u0645\u0637\u0631\u0648\u062d", "addr:subdistrict:en": "Marsa Matrouh City", "air_conditioning": "yes", "amenity": "cafe", "cuisine": "bakery;coffee_shop", "delivery": "yes", "name": "Brioche Bakery & Coffee", "outdoor_seating": "yes", "phone": "01551711711", "website": "https://www.facebook.com/briocheegypt/"}}, {"type": "node", "id": 10687792005, "lat": 31.356769, "lon": 27.2333655, "tags": {"amenity": "restaurant", "brand": "Pizza Hut", "brand:wikidata": "Q191615", "cuisine": "pizza", "name": "Pizza Hut", "name:en": "Pizza Hut"}}, {"type": "node", "id": 11273057700, "lat": 31.3588168, "lon": 27.2690669, "tags": {"amenity": "cafe", "name": "\u0627\u0644\u062e\u062f\u064a\u0648\u064a", "name:ar": "\u0627\u0644\u062e\u062f\u064a\u0648\u064a", "name:en": "Elkedewy"}}]}