{"version": 0.6, "generator": "Overpass API 0.7.62.7 375dc00a", "osm3s": {"timestamp_osm_base": "2025-06-14T15:00:45Z", "copyright": "The data included in this document is from www.openstreetmap.org. The data is made available under ODbL."}, "elements": [{"type": "node", "id": 300876653, "lat": 37.2434578, "lon": 29.5999883, "tags": {"amenity": "restaurant", "name": "Mohan"}}, {"type": "node", "id": 1401431693, "lat": 37.3197527, "lon": 29.5216403, "tags": {"amenity": "cafe"}}, {"type": "node", "id": 1444181721, "lat": 37.1512534, "lon": 29.6874692, "tags": {"amenity": "restaurant"}}, {"type": "node", "id": 4964386908, "lat": 37.1094975, "lon": 29.7418026, "tags": {"amenity": "restaurant"}}, {"type": "node", "id": 5633596424, "lat": 37.1517875, "lon": 29.6868157, "tags": {"amenity": "cafe", "name": "\u00d6zlen lokantasi", "name:tr": "\u00d6zlen lokantas\u0131"}}, {"type": "node", "id": 5983793100, "lat": 37.4651039, "lon": 29.5350832}, {"type": "node", "id": 5983793101, "lat": 37.4651167, "lon": 29.5352313}, {"type": "node", "id": 5983793102, "lat": 37.4649957, "lon": 29.5352479}, {"type": "node", "id": 5983793103, "lat": 37.4650139, "lon": 29.5350955}, {"type": "node", "id": 5983793104, "lat": 37.4648756, "lon": 29.5350005}, {"type": "node", "id": 5983793105, "lat": 37.4649251, "lon": 29.5351366}, {"type": "node", "id": 5983793106, "lat": 37.4647895, "lon": 29.535215}, {"type": "node", "id": 5983793107, "lat": 37.4647399, "lon": 29.5350789}, {"type": "node", "id": 6161990647, "lat": 37.428684, "lon": 29.3348092, "tags": {"amenity": "cafe"}}, {"type": "node", "id": 6161990649, "lat": 37.4287916, "lon": 29.3356349, "tags": {"amenity": "cafe"}}, {"type": "node", "id": 6161990680, "lat": 37.4304196, "lon": 29.3375639, "tags": {"amenity": "restaurant"}}, {"type": "node", "id": 6161990681, "lat": 37.4302903, "lon": 29.3389159, "tags": {"amenity": "cafe", "name": "Kafe Naz"}}, {"type": "node", "id": 6161990691, "lat": 37.428975, "lon": 29.3466808, "tags": {"amenity": "restaurant", "name": "Kebab Evi"}}, {"type": "node", "id": 6161990699, "lat": 37.4302004, "lon": 29.3503605, "tags": {"amenity": "restaurant", "name": "Tost"}}, {"type": "node", "id": 6162387503, "lat": 37.510594, "lon": 29.6965936, "tags": {"amenity": "restaurant", "name": "Sultan Pinari"}}, {"type": "node", "id": 6162387505, "lat": 37.5258774, "lon": 29.7282651, "tags": {"amenity": "restaurant", "name": "Salda Lake"}}, {"type": "node", "id": 6162389831, "lat": 37.4717588, "lon": 29.6725127, "tags": {"amenity": "cafe"}}, {"type": "node", "id": 6162941487, "lat": 37.1498828, "lon": 29.5139113, "tags": {"amenity": "restaurant"}}, {"type": "node", "id": 7082340236, "lat": 37.1502481, "lon": 29.5127283, "tags": {"amenity": "restaurant", "name": "\u0130kinci Bahar"}}, {"type": "node", "id": 9253975897, "lat": 37.525982, "lon": 29.6345991, "tags": {"addr:housenumber": "95", "addr:street": "Asagi Mahalle Atat\u00fcrk Caddesi", "amenity": "restaurant", "description": "\"Apart & G\u00f6zleme\" a bit like Bed&Breakfast.", "name": "Eminelim", "phone": "05056609906"}}, {"type": "node", "id": 9724709617, "lat": 37.5258713, "lon": 29.6347482, "tags": {"amenity": "cafe", "name": "Ayyildiz Cafe", "name:en": "Very tasty and cheap", "name:ru": "\u041e\u0447\u0435\u043d\u044c \u0432\u043a\u0443\u0441\u043d\u043e\u0435 \u0438 \u043d\u0435\u0434\u043e\u0440\u043e\u0433\u043e\u0435 \u043a\u0430\u0444\u0435"}}, {"type": "node", "id": 9798202344, "lat": 37.4862582, "lon": 29.6016261, "tags": {"amenity": "cafe"}}, {"type": "node", "id": 10208009686, "lat": 37.1546431, "lon": 29.6876338, "tags": {"amenity": "restaurant", "check_date": "2022-11-21", "cuisine": "regional", "name": "Cevizli Restaurant", "outdoor_seating": "yes"}}, {"type": "node", "id": 10706315892, "lat": 37.1564913, "lon": 29.6828253, "tags": {"amenity": "cafe", "check_date": "2023-03-03", "name": "Kocayusuf"}}, {"type": "node", "id": 10781531670, "lat": 37.4267776, "lon": 29.3514961, "tags": {"amenity": "restaurant", "name": "Nazar Pide"}}, {"type": "node", "id": 11799726447, "lat": 37.2878371, "lon": 29.5553692, "tags": {"amenity": "restaurant", "image": "https://photos.app.goo.gl/L3A5RY7YJK8Eb4XW9", "name": "Kibyra Antique Restaurant"}}, {"type": "node", "id": 11851290787, "lat": 37.1398687, "lon": 29.5073498, "tags": {"amenity": "cafe", "name": "Keyif Cafe"}}, {"type": "node", "id": 11851311954, "lat": 37.1504363, "lon": 29.511525, "tags": {"amenity": "restaurant", "name": "Nazilli"}}, {"type": "node", "id": 11851321363, "lat": 37.1371182, "lon": 29.5067728, "tags": {"amenity": "cafe", "name": "Cafe"}}, {"type": "node", "id": 11851362748, "lat": 37.1506948, "lon": 29.5106706, "tags": {"amenity": "cafe", "name": "Meydan Park"}}, {"type": "node", "id": 11872083162, "lat": 37.309019, "lon": 29.7739043, "tags": {"amenity": "cafe", "name": "\u00d6zy\u00f6r\u00fck"}}, {"type": "node", "id": 11872083163, "lat": 37.423562, "lon": 29.7822005, "tags": {"amenity": "cafe"}}, {"type": "node", "id": 11872090830, "lat": 37.3705145, "lon": 29.8220764, "tags": {"amenity": "restaurant", "name": "Dostlar Sofrasi"}}, {"type": "node", "id": 11872101698, "lat": 37.3097713, "lon": 29.7726565, "tags": {"amenity": "cafe", "name": "Caf\u00e9"}}, {"type": "node", "id": 11872107872, "lat": 37.3729485, "lon": 29.8237315, "tags": {"amenity": "cafe", "name": "Cadde Caf\u00e9"}}, {"type": "node", "id": 11872111859, "lat": 37.4503823, "lon": 29.8014105, "tags": {"amenity": "cafe"}}, {"type": "node", "id": 11872117210, "lat": 37.2402439, "lon": 29.6927711, "tags": {"amenity": "cafe", "name": "Caf\u00e9"}}, {"type": "node", "id": 11872118893, "lat": 37.37008, "lon": 29.8209453, "tags": {"amenity": "cafe", "name": "\u00c7ay Oca\u011fi"}}, {"type": "node", "id": 11872122276, "lat": 37.3616485, "lon": 29.81658, "tags": {"amenity": "restaurant", "name": "Kocapinar"}}, {"type": "way", "id": 633972033, "nodes": [5983793100, 5983793101, 5983793102, 5983793103, 5983793100], "tags": {"amenity": "cafe", "building": "yes", "name": "K\u00f6y Kiraathamesi"}}, {"type": "way", "id": 633972034, "nodes": [5983793104, 5983793105, 5983793106, 5983793107, 5983793104], "tags": {"amenity": "cafe", "building": "yes", "name": "K\u00f6y Kiraathamesi"}}]}