{"version": 0.6, "generator": "Overpass API 0.7.62.7 375dc00a", "osm3s": {"timestamp_osm_base": "2025-06-14T14:33:06Z", "copyright": "The data included in this document is from www.openstreetmap.org. The data is made available under ODbL."}, "elements": [{"type": "node", "id": 2607623915, "lat": 32.0545353, "lon": 20.0523535, "tags": {"amenity": "restaurant", "cuisine": "burger", "name": "\u0643\u0627\u0641\u062a\u064a\u0631\u064a\u0627 \u0627\u0644\u0639\u0644\u0648\u0645", "name:ar": "\u0643\u0627\u0641\u062a\u064a\u0631\u064a\u0627 \u0627\u0644\u0639\u0644\u0648\u0645", "name:en": "Science Cafeteria"}}, {"type": "node", "id": 3266607700, "lat": 32.1056192, "lon": 20.0510631, "tags": {"amenity": "restaurant", "name": "\u0645\u0637\u0639\u0645 \u0627\u0644\u0633\u0641\u064a\u0646\u0629", "name:ar": "\u0645\u0637\u0639\u0645 \u0627\u0644\u0633\u0641\u064a\u0646\u0629", "name:en": "Al Safeena Restaurant"}}, {"type": "node", "id": 3341140013, "lat": 32.0817175, "lon": 20.1338209, "tags": {"amenity": "restaurant", "name": "\u0645\u0642\u0647\u064a \u0648\u0645\u0637\u0639\u0645 \u0627\u0644\u0646\u0627\u0641\u0648\u0631\u0647", "name:ar": "\u0645\u0642\u0647\u064a \u0648\u0645\u0637\u0639\u0645 \u0627\u0644\u0646\u0627\u0641\u0648\u0631\u0647", "name:en": "Alnafora Restaurant & Coffeeshop"}}, {"type": "node", "id": 3345717957, "lat": 32.1242851, "lon": 20.0720815}, {"type": "node", "id": 3345717958, "lat": 32.1241806, "lon": 20.0720278}, {"type": "node", "id": 3345717959, "lat": 32.1241443, "lon": 20.0721136}, {"type": "node", "id": 3345717960, "lat": 32.1242487, "lon": 20.0721727}, {"type": "node", "id": 3347597266, "lat": 32.1264454, "lon": 20.088542}, {"type": "node", "id": 3347597267, "lat": 32.1263363, "lon": 20.0885742}, {"type": "node", "id": 3347597268, "lat": 32.1263227, "lon": 20.0885045}, {"type": "node", "id": 3347597269, "lat": 32.1264317, "lon": 20.0884723}, {"type": "node", "id": 3347597270, "lat": 32.1258639, "lon": 20.0888047}, {"type": "node", "id": 3347597271, "lat": 32.1258003, "lon": 20.0887725}, {"type": "node", "id": 3347597272, "lat": 32.1258503, "lon": 20.0887296}, {"type": "node", "id": 3348764702, "lat": 32.1528769, "lon": 20.1238072}, {"type": "node", "id": 3348764703, "lat": 32.1524647, "lon": 20.1240968}, {"type": "node", "id": 3348764704, "lat": 32.1524282, "lon": 20.1240229}, {"type": "node", "id": 3348764705, "lat": 32.1528403, "lon": 20.1237394}, {"type": "node", "id": 3507623722, "lat": 32.0813532, "lon": 20.0818461, "tags": {"amenity": "cafe", "cuisine": "pizza", "internet_access": "no", "name": "\u0627\u0644\u0643\u0647\u0641", "name:ar": "\u0627\u0644\u0643\u0647\u0641", "name:en": "Al-Kahif", "smoking": "isolated"}}, {"type": "node", "id": 3534427635, "lat": 32.0785709, "lon": 20.0793853, "tags": {"amenity": "restaurant", "name": "\u0627\u0644\u0645\u0648\u0639\u062f", "name:ar": "\u0627\u0644\u0645\u0648\u0639\u062f"}}, {"type": "node", "id": 3534427636, "lat": 32.07878, "lon": 20.0792458, "tags": {"amenity": "restaurant", "name": "\u0641\u0627\u0628\u064a\u0627\u0646\u0648", "name:ar": "\u0641\u0627\u0628\u064a\u0627\u0646\u0648", "name:en": "Fabiano Cafe"}}, {"type": "node", "id": 3534427637, "lat": 32.0780936, "lon": 20.0822445, "tags": {"amenity": "restaurant", "name": "\u0643\u0628\u0627\u0628 \u062d\u0643\u064a\u0645", "name:ar": "\u0643\u0628\u0627\u0628 \u062d\u0643\u064a\u0645", "name:en": "Hakeem's Kebab"}}, {"type": "node", "id": 3676423579, "lat": 32.1495441, "lon": 20.1134138, "tags": {"amenity": "cafe", "name": "\u0645\u0642\u0647\u0649 \u0634\u062c\u0631\u0629 \u0627\u0644\u0628\u0646", "name:ar": "\u0645\u0642\u0647\u0649 \u0634\u062c\u0631\u0629 \u0627\u0644\u0628\u0646", "name:en": "Cafe"}}, {"type": "node", "id": 3676438224, "lat": 32.1503437, "lon": 20.1127307, "tags": {"amenity": "restaurant", "name": "\u0645\u0637\u0639\u0645 \u0634\u0628\u0627\u0628 \u0628\u0646\u063a\u0627\u0632\u064a", "name:ar": "\u0645\u0637\u0639\u0645 \u0634\u0628\u0627\u0628 \u0628\u0646\u063a\u0627\u0632\u064a", "name:en": "Restaurant"}}, {"type": "node", "id": 3676439435, "lat": 32.1494542, "lon": 20.113481, "tags": {"amenity": "restaurant", "name": "\u0645\u0637\u0639\u0645 \u0631\u0628\u064a\u0627\u0646\u0629", "name:ar": "\u0645\u0637\u0639\u0645 \u0631\u0628\u064a\u0627\u0646\u0629", "name:en": "Restaurant"}}, {"type": "node", "id": 4107214991, "lat": 32.1468176, "lon": 20.115364, "tags": {"amenity": "restaurant", "name": "\u0643\u0648\u062f\u0648 \u062d\u064a \u0627\u0644\u0633\u0644\u0627\u0645", "name:ar": "\u0643\u0648\u062f\u0648 \u062d\u064a \u0627\u0644\u0633\u0644\u0627\u0645", "name:en": "Kudo Hay Assalam"}}, {"type": "node", "id": 4169997590, "lat": 32.0970753, "lon": 20.1275403, "tags": {"amenity": "cafe", "internet_access": "wlan", "name": "AL Hijaz"}}, {"type": "node", "id": 4211223290, "lat": 32.088157, "lon": 20.0957732, "tags": {"addr:street": "\u062c\u0632\u064a\u0631\u0629 \u0627\u0644\u0646\u0647\u0631 \u0627\u0644\u0635\u0646\u0627\u0639\u064a", "amenity": "restaurant", "name": "\u0645\u0637\u0639\u0645 \u0627\u0644\u0634\u0628\u0627\u0628", "name:ar": "\u0645\u0637\u0639\u0645 \u0627\u0644\u0634\u0628\u0627\u0628", "name:en": "Youth Restaurant"}}, {"type": "node", "id": 4222654436, "lat": 32.0878389, "lon": 20.0942831, "tags": {"addr:street": "\u0634\u0627\u0631\u0639 \u062f\u0627\u0642\u0627\u062f\u0648\u0633\u062a\u0627", "amenity": "restaurant", "name": "\u0645\u0637\u0639\u0645 \u0627\u0644\u0634\u0627\u0631\u0642\u0629", "name:ar": "\u0645\u0637\u0639\u0645 \u0627\u0644\u0634\u0627\u0631\u0642\u0629", "name:en": "sharjah Restaurant", "opening_hours": "Sa-Th 10:00-22:00"}}, {"type": "node", "id": 4255537393, "lat": 32.0885393, "lon": 20.0980757, "tags": {"amenity": "cafe", "name": "Aroma", "name:de": "Aroma", "name:fr": "Aroma"}}, {"type": "node", "id": 4256267289, "lat": 32.0850071, "lon": 20.0996952, "tags": {"addr:street": "\u0637\u0631\u064a\u0642 \u0627\u0644\u062f\u0627\u0626\u0631\u064a \u0627\u0644\u0627\u0648\u0644", "amenity": "cafe", "name": "\u0645\u0642\u0647\u0649 \u0628\u0631\u064a\u0645\u0627\u0641\u064a\u0631\u0627", "name:ar": "\u0645\u0642\u0647\u0649 \u0628\u0631\u064a\u0645\u0627\u0641\u064a\u0631\u0627", "name:de": "Caf\u00e9 Primavera", "name:en": "Primavera Caf\u00e9", "name:es": "Caf\u00e9 Primavera", "name:fr": "Caf\u00e9 Primavera"}}, {"type": "node", "id": 4273471793, "lat": 32.0821279, "lon": 20.0660401, "tags": {"amenity": "restaurant", "name": "\u0623\u064a \u0628\u0631\u0648\u0633\u062a", "name:ar": "\u0623\u064a \u0628\u0631\u0648\u0633\u062a", "name:en": "iBroast"}}, {"type": "node", "id": 4273565592, "lat": 32.0946089, "lon": 20.1046114, "tags": {"amenity": "cafe", "name": "\u0639\u0644\u0627\u0621 \u0644\u0644\u0628\u0646", "name:ar": "\u0639\u0644\u0627\u0621 \u0644\u0644\u0628\u0646", "name:en": "Alaa's Beans"}}, {"type": "node", "id": 4273581091, "lat": 32.1103016, "lon": 20.1055563, "tags": {"amenity": "restaurant", "brand": "\u0643\u0648\u062f\u0648", "name": "\u0643\u0648\u062f\u0648", "name:ar": "\u0643\u0648\u062f\u0648", "name:en": "Kudu"}}, {"type": "node", "id": 4273581389, "lat": 32.0851477, "lon": 20.0927131, "tags": {"amenity": "cafe", "name": "\u0645\u0642\u0647\u0649 \u0641\u0631\u064a\u0646\u062f\u0632", "name:ar": "\u0645\u0642\u0647\u0649 \u0641\u0631\u064a\u0646\u062f\u0632", "name:en": "Friend's Coffeehouse"}}, {"type": "node", "id": 4273581589, "lat": 32.0863122, "lon": 20.1228002, "tags": {"amenity": "restaurant", "name": "Dream"}}, {"type": "node", "id": 4273581590, "lat": 32.0937465, "lon": 20.1014154, "tags": {"amenity": "cafe", "name": "Nero"}}, {"type": "node", "id": 4342179389, "lat": 32.085174, "lon": 20.0687474, "tags": {"amenity": "cafe"}}, {"type": "node", "id": 4429190689, "lat": 32.1228933, "lon": 20.092477, "tags": {"amenity": "cafe", "name": "\u0645\u0642\u0647\u064a \u0639\u0644\u0627\u0621 \u0644\u0644\u0628\u0646", "name:ar": "\u0645\u0642\u0647\u064a \u0639\u0644\u0627\u0621 \u0644\u0644\u0628\u0646", "name:en": "Alaa's Coffee Brewery"}}, {"type": "node", "id": 4440373292, "lat": 32.1214352, "lon": 20.0990763, "tags": {"amenity": "restaurant", "name": "\u0645\u0637\u0639\u0645 \u0644\u0645\u0629 \u0627\u0644\u0627\u0635\u062d\u0627\u0628", "name:ar": "\u0645\u0637\u0639\u0645 \u0644\u0645\u0629 \u0627\u0644\u0627\u0635\u062d\u0627\u0628", "name:en": "Restaurant"}}, {"type": "node", "id": 4440378289, "lat": 32.1054051, "lon": 20.0802244, "tags": {"amenity": "cafe", "name": "\u0627\u0644\u0642\u0647\u0648\u0629", "name:ar": "\u0627\u0644\u0642\u0647\u0648\u0629", "name:en": "Coffee", "phone": "0926070425"}}, {"type": "node", "id": 4472309418, "lat": 32.1062821, "lon": 20.1420913, "tags": {"amenity": "restaurant", "name": "\u0645\u0637\u0639\u0645 \u0643\u0627\u0632\u0627\u0628\u0644\u0627\u0646\u0643\u0627", "name:ar": "\u0645\u0637\u0639\u0645 \u0643\u0627\u0632\u0627\u0628\u0644\u0627\u0646\u0643\u0627", "name:en": "Restaurant"}}, {"type": "node", "id": 4474699294, "lat": 32.0976896, "lon": 20.1222226, "tags": {"amenity": "restaurant", "name": "\u0643\u0648\u062f\u0648 \u0634\u0627\u0631\u0639 \u0627\u0644\u062d\u062c\u0627\u0632 Kudo", "name:ar": "\u0643\u0648\u062f\u0648 \u0634\u0627\u0631\u0639 \u0627\u0644\u062d\u062c\u0627\u0632 Kudo", "name:en": "Kudo"}}, {"type": "node", "id": 4585546597, "lat": 32.0878542, "lon": 20.0954578, "tags": {"amenity": "restaurant", "name": "\u0645\u0637\u0639\u0645 \u0627\u0644\u062f\u0645\u0634\u0642\u064a", "name:ar": "\u0645\u0637\u0639\u0645 \u0627\u0644\u062f\u0645\u0634\u0642\u064a", "name:en": "Al Demashcy Restaurant"}}, {"type": "node", "id": 4596652389, "lat": 32.0745694, "lon": 20.0835889, "tags": {"addr:street": "\u0643\u0648\u0628\u0631\u064a \u0627\u0644\u0641\u0631\u0634", "amenity": "cafe", "internet_access": "wlan", "name": "\u0645\u0642\u0647\u064a \u0641\u0631\u064a\u0646\u062f\u0632", "name:ar": "\u0645\u0642\u0647\u064a \u0641\u0631\u064a\u0646\u062f\u0632", "name:en": "Friends Cafe"}}, {"type": "node", "id": 4599161096, "lat": 32.1662396, "lon": 20.1243934, "tags": {"amenity": "restaurant", "name": "\u0645\u0637\u0639\u0645 \u0627\u0644\u0628\u064a\u0643", "name:ar": "\u0645\u0637\u0639\u0645 \u0627\u0644\u0628\u064a\u0643", "name:en": "Al Baik Restaurant"}}, {"type": "node", "id": 4599193794, "lat": 32.1398729, "lon": 20.1191441, "tags": {"amenity": "restaurant", "name": "\u0645\u0637\u0639\u0645 \u0631\u0648\u062a\u0627\u0646\u0627", "name:ar": "\u0645\u0637\u0639\u0645 \u0631\u0648\u062a\u0646\u0627", "name:en": "Rotana Restaurant"}}, {"type": "node", "id": 4608033291, "lat": 32.113956, "lon": 20.0672624, "tags": {"amenity": "cafe", "name": "\u0643\u0627\u0641\u064a \u0639\u0628\u062f \u0627\u0644\u0631\u062d\u0645\u0646", "name:ar": "\u0643\u0627\u0641\u064a \u0639\u0628\u062f \u0627\u0644\u0631\u062d\u0645\u0646", "name:en": "Caf\u00e9"}}, {"type": "node", "id": 4624902691, "lat": 32.0877897, "lon": 20.0944671, "tags": {"amenity": "cafe", "name": "\u0643\u0627\u0641\u064a \u0644\u0627\u06a4\u0627\u0632\u0627", "name:ar": "\u0643\u0627\u0641\u064a \u0644\u0627\u06a4\u0627\u0632\u0627", "name:en": "Lavaza Cafe"}}, {"type": "node", "id": 4643156889, "lat": 32.0750182, "lon": 20.0699801, "tags": {"addr:street": "\u0634\u0627\u0631\u0639 \u0627\u0644\u0645\u0642\u0627\u0628\u0644 \u0642\u0635\u0631 \u0639\u0628\u062f\u0648 \u0633\u0645\u0627\u0639\u064a\u0644", "amenity": "restaurant", "name": "\u0628\u064a\u062a \u0627\u0644\u0643\u0628\u0627\u0628", "name:ar": "\u0628\u064a\u062a \u0627\u0644\u0643\u0628\u0627\u0628", "name:en": "Kebab House", "opening_hours": "Sa-Th 18:00-12:00"}}, {"type": "node", "id": 4653453900, "lat": 32.0985335, "lon": 20.0801503, "tags": {"amenity": "cafe"}}, {"type": "node", "id": 4653453901, "lat": 32.1091465, "lon": 20.0734738, "tags": {"amenity": "cafe", "name": "\u0645\u0642\u0647\u0649 \u0645\u0633\u0639\u0648\u062f", "name:ar": "\u0645\u0642\u0647\u0649 \u0645\u0633\u0639\u0648\u062f", "name:en": "Masoud's Caf\u00e9"}}, {"type": "node", "id": 4653455422, "lat": 32.0916143, "lon": 20.0711211, "tags": {"addr:city": "\u0628\u0646\u063a\u0627\u0632\u064a", "amenity": "cafe", "name": "\u062a\u0648\u0633\u0643\u0627\u0646\u0627", "name:ar": "\u062a\u0648\u0633\u0643\u0627\u0646\u0627", "name:en": "TOSCANA"}}, {"type": "node", "id": 4691521491, "lat": 32.0977787, "lon": 20.0741176, "tags": {"amenity": "restaurant", "name": "\u0645\u0637\u0639\u0645 \u0627\u0644\u0645\u0627\u0626\u062f\u0647", "name:ar": "\u0645\u0637\u0639\u0645 \u0627\u0644\u0645\u0627\u0626\u062f\u0647", "name:en": "AL MAEDA Restaurant"}}, {"type": "node", "id": 4705841391, "lat": 32.11022, "lon": 20.106359, "tags": {"amenity": "restaurant", "name": "\u0645\u0637\u0639\u0645 \u0641\u0631\u064a\u0631\u064a-\u0628\u0646\u063a\u0627\u0632\u064a", "name:ar": "\u0645\u0637\u0639\u0645 \u0641\u0631\u064a\u0631\u064a-\u0628\u0646\u063a\u0627\u0632\u064a", "name:en": "Restaurant"}}, {"type": "node", "id": 4707732399, "lat": 32.089412, "lon": 20.106496}, {"type": "node", "id": 4707732400, "lat": 32.0894579, "lon": 20.106527}, {"type": "node", "id": 4707732401, "lat": 32.0894373, "lon": 20.1065695}, {"type": "node", "id": 4707732402, "lat": 32.0893914, "lon": 20.1065386}, {"type": "node", "id": 4714337489, "lat": 32.1095474, "lon": 20.0876863, "tags": {"addr:housenumber": "928470531", "addr:street": "\u0634\u0627\u0631\u0639 \u0623\u062d\u0645\u062f \u0627\u0644\u0645\u0642\u0631\u064a\u0641", "amenity": "restaurant", "cuisine": "italian_pizza", "name": "\u0628\u064a\u062a\u0632\u0627 \u0643\u0648\u064a\u0646", "name:ar": "\u0628\u064a\u062a\u0632\u0627 \u0643\u0648\u064a\u0646", "name:en": "Pizza Queen", "opening_hours": "Sa-Th 12:30-23:00; Fr 16:00-23:00", "phone": "0928470531"}}, {"type": "node", "id": 4809768123, "lat": 32.1065038, "lon": 20.0994063, "tags": {"addr:street": "\u0634\u0627\u0631\u0639 \u0639\u0634\u0631\u064a\u0646 st 20 st", "amenity": "cafe", "name": "\u0645\u0642\u0647\u0649 \u0642\u0648\u0631\u064a\u0646\u0627", "name:ar": "\u0645\u0642\u0647\u0649 \u0642\u0648\u0631\u064a\u0646\u0627", "name:en": "Qurena Caffe", "opening_hours": "24/7"}}, {"type": "node", "id": 4809786521, "lat": 32.1457303, "lon": 20.127661, "tags": {"addr:street": "\u0634\u0627\u0631\u0639 \u0644\u0628\u0646\u0627\u0646", "amenity": "cafe", "internet_access": "wlan", "name": "\u0645\u0642\u0647\u0649 \u0628\u0631\u0644\u064a\u0646", "name:ar": "\u0645\u0642\u0647\u0649 \u0628\u0631\u0644\u064a\u0646", "name:en": "Berlin Caf\u00e8"}}, {"type": "node", "id": 4809786623, "lat": 32.1258426, "lon": 20.1260974, "tags": {"addr:street": "\u0634\u0627\u0631\u0639 \u0641\u064a\u0646\u064a\u0633\u064a\u0627", "amenity": "restaurant", "name": "\u0645\u0637\u0639\u0645 \u0627\u0644\u0648\u0644\u0641", "name:ar": "\u0645\u0637\u0639\u0645 \u0627\u0644\u0648\u0644\u0641", "name:en": "Alwelf restorant", "opening_hours": "Sa-Th 08:00-22:00"}}, {"type": "node", "id": 4810000923, "lat": 32.1257323, "lon": 20.1262067, "tags": {"addr:street": "\u0634\u0627\u0631\u0639 \u0641\u064a\u0646\u064a\u0633\u064a\u0627", "amenity": "cafe", "internet_access": "wlan", "name": "\u0645\u0642\u0647\u0649 \u0627\u0644\u0639\u064a\u0646", "name:ar": "\u0645\u0642\u0647\u0649 \u0627\u0644\u0639\u064a\u0646", "name:en": "Cafe Al3ain", "opening_hours": "Mo-Su 07:00-22:30"}}, {"type": "node", "id": 4814073021, "lat": 32.1065882, "lon": 20.0746671, "tags": {"addr:city": "\u0628\u0646\u063a\u0627\u0632\u064a", "amenity": "cafe", "name": "\u0645\u0642\u0647\u0649 \u0627\u0644\u0631\u064a\u0627\u0636\u0629", "name:ar": "\u0645\u0642\u0647\u0649 \u0627\u0644\u0631\u064a\u0627\u0636\u0629", "name:en": "Sport Cafe"}}, {"type": "node", "id": 4919014921, "lat": 32.078298, "lon": 20.0626048, "tags": {"amenity": "restaurant", "cuisine": "steak_house;kebab;local;fine_dining;grill;diner;beef_bowl", "internet_access": "wlan", "name": "\u0645\u0637\u0639\u0645 \u062a\u0631\u064a\u0628\u064a\u0627\u0646\u0643\u0648\u0627 \u0644\u0644\u0639\u0627\u0626\u0644\u0627\u062a", "name:ar": "\u0645\u0637\u0639\u0645 \u062a\u0631\u064a\u0628\u064a\u0627\u0646\u0643\u0648\u0627 \u0644\u0644\u0639\u0627\u0626\u0644\u0627\u062a", "name:en": "Trebianco Grill House", "opening_hours": "Mo-Su 13:30-22:30", "phone": "00218925117007"}}, {"type": "node", "id": 4958731622, "lat": 32.1219991, "lon": 20.0969632, "tags": {"addr:street": "\u0634\u0627\u0631\u0639 \u0633\u0648\u0631\u064a\u0627", "amenity": "cafe", "name": "\u0643\u0627\u0641\u064a \u0639\u0632\u0648", "name:ar": "\u0643\u0627\u0641\u064a \u0639\u0632\u0648", "name:en": "caf\u00e9 \u00c2z\u00f2"}}, {"type": "node", "id": 5123642622, "lat": 32.110709, "lon": 20.0736112, "tags": {"amenity": "restaurant", "name": "\u0645\u0637\u0639\u0645 \u0627\u062d\u0645\u064a\u062f\u0629 \u0641\u0627\u0635\u0648\u0644\u064a\u0627", "name:ar": "\u0645\u0637\u0639\u0645 \u0627\u062d\u0645\u064a\u062f\u0629 \u0641\u0627\u0635\u0648\u0644\u064a\u0627", "name:en": "Restaurant"}}, {"type": "node", "id": 5163856722, "lat": 32.0905561, "lon": 20.2635596, "tags": {"amenity": "restaurant", "name": "\u0627\u0633\u062a\u0631\u0627\u062d\u0629 \u0648\u0645\u0637\u0639\u0645", "name:ar": "\u0627\u0633\u062a\u0631\u0627\u062d\u0629 \u0648\u0645\u0637\u0639\u0645", "name:en": "Restaurant"}}, {"type": "node", "id": 5273547322, "lat": 32.0676189, "lon": 20.1017751, "tags": {"amenity": "restaurant", "name": "\u0645\u0637\u0639\u0645 \u0634\u0648\u0627\u064a\u0627", "name:ar": "\u0645\u0637\u0639\u0645 \u0634\u0648\u0627\u064a\u0627", "name:en": "Shwaya Steakhouse"}}, {"type": "node", "id": 5286381725, "lat": 32.0694583, "lon": 20.0466251, "tags": {"amenity": "restaurant", "name": "\u0627\u0644\u0645\u062d\u0627\u0631\u0629 \u0644\u0644\u0623\u0633\u0645\u0627\u0643", "name:ar": "\u0627\u0644\u0645\u062d\u0627\u0631\u0629 \u0644\u0644\u0623\u0633\u0645\u0627\u0643"}}, {"type": "node", "id": 5286398921, "lat": 32.0696897, "lon": 20.0467249, "tags": {"addr:street": "\u0637\u0631\u064a\u0642 \u0642\u0645\u064a\u0646\u0633-\u0628\u0646\u063a\u0627\u0632\u064a", "amenity": "cafe", "name": "\u0627\u064a \u0644\u064a", "name:ar": "illy Cafe", "name:en": "illy Cafe"}}, {"type": "node", "id": 5320599422, "lat": 32.0976502, "lon": 20.0881609, "tags": {"amenity": "restaurant", "name": "\u0645\u0637\u0639\u0645 \u0627\u0644\u0631\u064a\u0627\u0646 \u0644\u0644\u0648\u062c\u0628\u0627\u062a \u0628\u0646\u063a\u0627\u0632\u064a", "name:ar": "\u0645\u0637\u0639\u0645 \u0627\u0644\u0631\u064a\u0627\u0646 \u0644\u0644\u0648\u062c\u0628\u0627\u062a \u0628\u0646\u063a\u0627\u0632\u064a", "name:en": "Al Rayyan Restaurant"}}, {"type": "node", "id": 5356979222, "lat": 32.1320544, "lon": 20.1233087, "tags": {"amenity": "restaurant", "name": "\u0645\u0637\u0639\u0645 \u0627\u0644\u0643\u0628\u0627\u0628 \u062d\u0643\u064a\u0645 \u0627\u0644\u062c\u062f\u064a\u062f", "name:ar": "\u0645\u0637\u0639\u0645 \u0627\u0644\u0643\u0628\u0627\u0628 \u062d\u0643\u064a\u0645 \u0627\u0644\u062c\u062f\u064a\u062f", "name:en": "Kabab Restaurant"}}, {"type": "node", "id": 5375679721, "lat": 32.0803637, "lon": 20.0677704, "tags": {"amenity": "cafe", "name": "\u0643\u0627\u0641\u064a \u0643\u0627\u0628\u062a\u0646", "name:ar": "\u0643\u0627\u0641\u064a \u0643\u0627\u0628\u062a\u0646", "name:en": "Cafe"}}, {"type": "node", "id": 5388638123, "lat": 32.124523, "lon": 20.1121659, "tags": {"amenity": "restaurant", "name": "\u0645\u0637\u0639\u0645 \u0628\u0646\u062a\u0627\u0628\u0648\u0644\u0633", "name:ar": "\u0645\u0637\u0639\u0645 \u0628\u0646\u062a\u0627\u0628\u0648\u0644\u0633", "name:en": "Pentabolice Restaurant"}}, {"type": "node", "id": 5454600621, "lat": 32.1218807, "lon": 20.0915902, "tags": {"amenity": "cafe", "name": "\u0645\u0642\u0647\u0649 \u0648\u0627\u0646\u062a\u0631\u0646\u062a", "name:ar": "\u0645\u0642\u0647\u0649 \u0648\u0627\u0646\u062a\u0631\u0646\u062a", "name:en": "Coffee &Internet"}}, {"type": "node", "id": 5456882421, "lat": 32.1354674, "lon": 20.0988078, "tags": {"addr:street": "\u0637\u0631\u064a\u0642 \u0627\u0644\u0639\u0631\u0648\u0628\u0629", "amenity": "restaurant", "name": "\u0645\u0637\u0639\u0645 \u062a\u0634\u0644\u0633\u064a", "name:ar": "\u0645\u0637\u0639\u0645 \u062a\u0634\u064a\u0644\u0633\u064a", "name:en": "Chelsea Restaurant"}}, {"type": "node", "id": 5456905830, "lat": 32.2581594, "lon": 20.2087094, "tags": {"addr:street": "\u0637\u0631\u064a\u0642 \u0627\u0644\u0633\u0627\u062d\u0644 \u0633\u064a\u062f\u064a \u062e\u0644\u064a\u0641\u0629", "amenity": "restaurant", "name": "\u0645\u0637\u0639\u0645 \u0627\u0644\u0636\u064a\u0627\u0641\u0629", "name:ar": "\u0645\u0637\u0639\u0645 \u0627\u0644\u0636\u064a\u0627\u0641\u0629", "name:en": "Diyafa Restaurant"}}, {"type": "node", "id": 5487055328, "lat": 32.0942331, "lon": 20.0747996, "tags": {"amenity": "cafe", "name": "\u0645\u0642\u0647\u0649 \u0633\u0645\u0627\u064a\u0644", "name:ar": "\u0645\u0642\u0647\u0649 \u0633\u0645\u0627\u064a\u0644", "name:en": "Smile Cafe"}}, {"type": "node", "id": 5544800621, "lat": 32.0865715, "lon": 20.0467126, "tags": {"amenity": "restaurant", "cuisine": "sandwich", "name": "\u0645\u0637\u0639\u0645 \u0628\u0648\u0644\u064a\u0641\u0647", "name:ar": "\u0645\u0637\u0639\u0645 \u0628\u0648\u0644\u064a\u0641\u0647", "name:en": "Bu lefa Restaurant"}}, {"type": "node", "id": 5595128223, "lat": 32.0977143, "lon": 20.0646635, "tags": {"amenity": "cafe", "internet_access": "wlan", "name": "\u0643\u0627\u0641\u064a \u0627\u0644\u0628\u0637\u0631\u064a\u0642", "name:ar": "\u0643\u0627\u0641\u064a \u0627\u0644\u0628\u0637\u0631\u064a\u0642", "name:en": "Penguin Caf\u00e9"}}, {"type": "node", "id": 5920157485, "lat": 32.0709264, "lon": 20.1000815, "tags": {"amenity": "restaurant", "name": "\u0645\u0637\u0639\u0645 \u0628\u064a\u0632\u0627", "name:ar": "\u0645\u0637\u0639\u0645 \u0628\u064a\u0632\u0627", "name:en": "PISA"}}, {"type": "node", "id": 5971296189, "lat": 32.0831516, "lon": 20.1282962, "tags": {"addr:street": "\u0634\u0627\u0631\u0639 \u0627\u0644\u062e\u0644\u064a\u062c \u0627\u0644\u0639\u0631\u0628\u064a", "amenity": "cafe", "internet_access": "wlan", "name": "Cofe Negroo", "name:ar": "\u0643\u0641\u064a \u0646\u064a\u0642\u0631\u0648", "name:en": "Cafe Negroi", "opening_hours": "Mo-Su 09:00-18:00"}}, {"type": "node", "id": 6002215785, "lat": 32.065186, "lon": 20.1179293, "tags": {"addr:street": "\u0637\u0631\u064a\u0642 \u0627\u0644\u0646\u0647\u0631", "amenity": "restaurant", "name": "\u0645\u0637\u0639\u0645 \u0632\u064a\u062f\u0648", "name:ar": "\u0645\u0637\u0639\u0645 \u0632\u064a\u062f\u0648", "name:en": "Zedo restaurant"}}, {"type": "node", "id": 6002219985, "lat": 32.0652474, "lon": 20.1180625, "tags": {"addr:street": "\u0637\u0631\u064a\u0642 \u0627\u0644\u0646\u0647\u0631", "amenity": "cafe", "name": "\u0645\u0642\u0647\u0649 \u0644\u0627\u062a\u064a", "name:ar": "\u0645\u0642\u0647\u0649 \u0644\u0627\u062a\u064a", "name:en": "Caffe latte"}}, {"type": "node", "id": 6016107587, "lat": 32.0566959, "lon": 20.0770616, "tags": {"addr:street": "\u0634\u0627\u0631\u0639 \u0641\u064a\u0646\u064a\u0633\u064a\u0627", "amenity": "cafe", "cuisine": "arab", "internet_access": "wlan", "name": "\u0643\u0627\u0646\u062a\u0631\u064a \u0643\u0627\u0641\u064a", "name:ar": "\u0643\u0627\u0646\u062a\u0631\u064a \u0643\u0627\u0641\u064a", "name:en": "Country Caf\u00e9", "opening_hours": "Mo-Su 08:00-00:00"}}, {"type": "node", "id": 6047018491, "lat": 32.0898452, "lon": 20.0673833, "tags": {"addr:street": "\u0627\u0644\u0637\u0631\u064a\u0642 \u0627\u0644\u062f\u0627\u0626\u0631\u064a \u0627\u0644\u0623\u0648\u0644", "amenity": "restaurant", "name": "\u0645\u0637\u0639\u0645 \u0648\u062c\u0628\u0627\u062a \u0639\u0627\u0626\u0644\u064a\u0629", "name:ar": "\u0645\u0637\u0639\u0645 \u0648\u062c\u0628\u0627\u062a \u0639\u0627\u0626\u0644\u064a\u0629", "name:en": "Family Restaurant"}}, {"type": "node", "id": 6148298586, "lat": 32.259694, "lon": 20.210691, "tags": {"amenity": "cafe", "name": "\u0642\u0647\u0648\u0629 \u0639\u064a\u0646 \u062c\u0648\u062f \u0627\u0631\u0642\u064a\u0644\u0647", "name:ar": "\u0642\u0647\u0648\u0629 \u0639\u064a\u0646 \u062c\u0648\u062f \u0627\u0631\u0642\u064a\u0644\u0647", "name:en": "Ein Jod Cafe"}}, {"type": "node", "id": 6238265291, "lat": 32.0926461, "lon": 20.1023909, "tags": {"amenity": "restaurant", "name": "\u0645\u0637\u0639\u0645 \u062a\u0627\u0646\u062c\u0648", "name:ar": "\u0645\u0637\u0639\u0645 \u062a\u0627\u0646\u062c\u0648", "name:en": "Tango Restaurant"}}, {"type": "node", "id": 6238294691, "lat": 32.0928539, "lon": 20.1021401, "tags": {"amenity": "restaurant", "name": "\u0645\u0637\u0639\u0645 \u0647\u0627\u0631\u062f\u064a\u0632", "name:ar": "\u0645\u0637\u0639\u0645 \u0647\u0627\u0631\u062f\u064a\u0632", "name:en": "Hardes\u2019s Restaurant"}}, {"type": "node", "id": 6353654885, "lat": 32.0742832, "lon": 20.0835676, "tags": {"amenity": "restaurant", "name": "\u0645\u0637\u0639\u0645 \u0631\u0648\u0634 \u0644\u0644\u0648\u062c\u0628\u0627\u062a \u0628\u0646\u063a\u0627\u0632\u064a", "name:ar": "\u0645\u0637\u0639\u0645 \u0631\u0648\u0634 \u0644\u0644\u0648\u062c\u0628\u0627\u062a \u0628\u0646\u063a\u0627\u0632\u064a"}}, {"type": "node", "id": 6379583555, "lat": 32.0779906, "lon": 20.0585697, "tags": {"amenity": "cafe"}}, {"type": "node", "id": 6382618632, "lat": 32.0796101, "lon": 20.0757309, "tags": {"addr:city": "\u0628\u0646\u063a\u0627\u0632\u064a", "addr:street": "\u0634\u0627\u0631\u0639 \u0627\u0644\u0642\u064a\u0631\u0648\u0627\u0646", "amenity": "cafe", "name": "Lavale Cafe"}}, {"type": "node", "id": 6419299286, "lat": 32.0583319, "lon": 20.0905779, "tags": {"amenity": "cafe", "name": "\u0642\u0631\u0627\u062c \u0643\u0627\u0641\u064a", "name:ar": "\u0642\u0631\u0627\u062c \u0643\u0627\u0641\u064a", "name:en": "Garage Cafe"}}, {"type": "node", "id": 6426674214, "lat": 32.0754431, "lon": 20.0640992, "tags": {"amenity": "cafe"}}, {"type": "node", "id": 6426939569, "lat": 32.0929665, "lon": 20.0871455, "tags": {"amenity": "cafe", "name": "\u0643\u0641\u064a \u0628\u0646 \u0639\u0631\u0648\u0633", "name:ar": "\u0643\u0641\u064a \u0628\u0646 \u0639\u0631\u0648\u0633", "name:en": "Bin Arous Cafe"}}, {"type": "node", "id": 6429191889, "lat": 32.0802867, "lon": 20.0679737, "tags": {"addr:city": "\u0628\u0646\u063a\u0627\u0632\u064a", "addr:postcode": "00218", "addr:street": "\u0627\u0644\u0637\u0631\u064a\u0642 \u0627\u0644\u062f\u0627\u0626\u0631\u064a \u0627\u0644\u062b\u0627\u0644\u062b", "amenity": "cafe", "cuisine": "\u0643\u0641\u064a_\u0648\u0627\u0641\u0637\u0627\u0631_\u0635\u0628\u0627\u062d\u064a", "name": "\u0643\u0641\u064a \u0641\u064a\u062a\u0648\u0631\u064a\u0627", "name:ar": "\u0643\u0641\u064a \u0641\u064a\u062a\u0648\u0631\u064a\u0627", "name:en": "Vittoria Cafe", "outdoor_seating": "no", "smoking": "\u0646\u0639\u0645"}}, {"type": "node", "id": 6429194468, "lat": 32.0815682, "lon": 20.0638497, "tags": {"addr:city": "\u0628\u0646\u063a\u0627\u0632\u064a", "addr:postcode": "00218", "addr:street": "\u0627\u0644\u0637\u0631\u064a\u0642 \u0627\u0644\u062f\u0627\u0626\u0631\u064a \u0627\u0644\u062b\u0627\u0646\u064a", "amenity": "restaurant", "cuisine": "all", "delivery": "yes", "name": "\u0645\u0637\u0639\u0645 \u0628\u064a\u062a\u0632\u0627", "name:ar": "\u0645\u0637\u0639\u0645 \u0628\u064a\u0632\u0627", "name:en": "Pizza", "outdoor_seating": "no", "smoking": "no"}}, {"type": "node", "id": 6429200907, "lat": 32.0799095, "lon": 20.0607513, "tags": {"amenity": "cafe", "name": "\u0643\u0641\u064a \u0632\u0643\u0631\u064a\u0627", "name:ar": "\u0643\u0641\u064a \u0632\u0643\u0631\u064a\u0627", "name:en": "Zakaria Cafe"}}, {"type": "node", "id": 6431795497, "lat": 32.0599674, "lon": 20.0791177, "tags": {"amenity": "cafe", "name": "\u0645\u0642\u0647\u0649 \u0645\u0648\u0646\u062f\u0648", "name:ar": "\u0645\u0642\u0647\u0649 \u0645\u0648\u0646\u062f\u0648", "name:en": "IL MONDO Cafe"}}, {"type": "node", "id": 6445474790, "lat": 32.0961972, "lon": 20.0827968, "tags": {"amenity": "cafe", "name": "\u0643\u0641\u064a \u0627\u0644\u062f\u0644\u0648\u0639\u0629", "name:ar": "\u0643\u0641\u064a \u0627\u0644\u062f\u0644\u0648\u0639\u0629", "name:en": "Cafe"}}, {"type": "node", "id": 6498272485, "lat": 32.0861411, "lon": 20.09465, "tags": {"addr:street": "Dubai street", "amenity": "cafe", "name": "\u0641\u0631\u0646\u062f\u0632", "name:ar": "\u0641\u0631\u0646\u062f\u0632", "name:en": "Friends"}}, {"type": "node", "id": 6632844885, "lat": 32.0692797, "lon": 20.1014179, "tags": {"amenity": "restaurant", "name": "\u0645\u0637\u0639\u0645 \u0628\u0627\u0644\u0647 \u0644\u0644\u0623\u0633\u0645\u0627\u0643", "name:ar": "\u0645\u0637\u0639\u0645 \u0628\u0627\u0644\u0647 \u0644\u0644\u0623\u0633\u0645\u0627\u0643", "name:en": "Seafood Restaurant"}}, {"type": "node", "id": 6704329188, "lat": 32.0458999, "lon": 20.0298184, "tags": {"amenity": "cafe", "name": "\u0643\u0627\u0641\u064a \u062f\u064a \u0631\u0648\u0645\u0627", "name:ar": "\u0643\u0627\u0641\u064a \u062f\u064a \u0631\u0648\u0645\u0627", "name:en": "De Roma cafe"}}, {"type": "node", "id": 6780644885, "lat": 32.1156006, "lon": 20.084488, "tags": {"amenity": "cafe", "name": "\u0643\u0627\u0641\u064a \u0628\u062f\u0627", "name:ar": "\u0643\u0627\u0641\u064a \u0628\u062f\u0627", "name:en": "Coffee"}}, {"type": "node", "id": 6780644985, "lat": 32.1161104, "lon": 20.0849498, "tags": {"amenity": "cafe", "name": "\u0643\u0627\u0641\u064a \u0648\u0646\u064a\u0633", "name:ar": "\u0643\u0627\u0641\u064a \u0648\u0646\u064a\u0633", "name:en": "Wanis Coffee"}}, {"type": "node", "id": 6784073385, "lat": 32.0619419, "lon": 20.089567, "tags": {"amenity": "cafe", "name": "\u0643\u0627\u0641\u064a \u062f\u064a \u0628\u0627\u0631\u064a\u0633", "name:ar": "\u0643\u0627\u0641\u064a \u062f\u064a \u0628\u0627\u0631\u064a\u0633", "name:en": "Cafe de Paris"}}, {"type": "node", "id": 6801437486, "lat": 32.0933577, "lon": 20.0857158, "tags": {"amenity": "restaurant", "name": "\u0645\u0637\u0639\u0645 \u0628\u064a\u0633\u0643\u0627\u0631\u0627", "name:ar": "\u0645\u0637\u0639\u0645 \u0628\u064a\u0633\u0643\u0627\u0631\u0627", "name:en": "Pescara Restaurant"}}, {"type": "node", "id": 6862551185, "lat": 32.0612558, "lon": 20.1061714, "tags": {"addr:street": "\u0637\u0631\u064a\u0642 \u0627\u0644\u0647\u0648\u0627\u0631\u064a", "amenity": "cafe", "internet_access": "wlan", "name": "\u0627\u0644\u0648\u0627\u062d\u0629", "name:ar": "\u0627\u0644\u0648\u0627\u062d\u0629", "name:en": "Waha"}}, {"type": "node", "id": 6879254085, "lat": 32.1058011, "lon": 20.076493, "tags": {"amenity": "restaurant", "name": "\u0645\u0637\u0639\u0645 \u0648\u0647\u0631\u0627\u0646", "name:ar": "\u0645\u0637\u0639\u0645 \u0648\u0647\u0631\u0627\u0646", "name:en": "Oran Restaurant"}}, {"type": "node", "id": 6883778685, "lat": 32.0888924, "lon": 20.0726516, "tags": {"addr:postcode": "218", "amenity": "cafe", "name": "\u0646\u0627\u062f\u064a \u0627\u0644\u0633\u062f", "name:ar": "\u0646\u0627\u062f\u064a \u0627\u0644\u0633\u062f", "name:en": "AL Sadd Football Club"}}, {"type": "node", "id": 6896716786, "lat": 32.0954091, "lon": 20.082917, "tags": {"amenity": "cafe", "name": "\u0643\u0648\u0633\u062a\u0627 \u0643\u0627\u0641\u064a", "name:ar": "\u0643\u0648\u0633\u062a\u0627 \u0643\u0627\u0641\u064a", "name:en": "Costa Cafe"}}, {"type": "node", "id": 7005661085, "lat": 32.0889998, "lon": 20.0903567, "tags": {"amenity": "cafe", "name": "\u0643\u0627\u0641\u064a \u063a\u0644\u0648\u0631\u064a\u0627", "name:ar": "\u0643\u0627\u0641\u064a \u063a\u0644\u0648\u0631\u064a\u0627", "name:en": "Gloria Cafe"}}, {"type": "node", "id": 7385947086, "lat": 32.0910566, "lon": 20.0772203, "tags": {"addr:street": "\u0634\u0627\u0631\u0639 \u0627\u0644\u0642\u064a\u0631\u0648\u0627\u0646", "amenity": "cafe", "internet_access": "wlan", "name": "\u0643\u0627\u0641\u064a \u0627\u0644\u0633\u0627\u062d\u0629", "name:ar": "\u0643\u0627\u0641\u064a \u0627\u0644\u0633\u0627\u062d\u0629", "name:en": "Alsaha coffee"}}, {"type": "node", "id": 7385947185, "lat": 32.0911619, "lon": 20.0771788, "tags": {"amenity": "cafe", "name": "\u0645\u0642\u0647\u0649 \u0633\u0627\u062d\u0629 \u0627\u0644\u0643\u064a\u0634", "name:ar": "\u0645\u0642\u0647\u0649 \u0633\u0627\u062d\u0629 \u0627\u0644\u0643\u064a\u0634", "name:en": "Cafe"}}, {"type": "node", "id": 7587839506, "lat": 32.182309, "lon": 20.1427939}, {"type": "node", "id": 7587839507, "lat": 32.1824878, "lon": 20.1425605}, {"type": "node", "id": 7587839508, "lat": 32.182637, "lon": 20.1431446}, {"type": "node", "id": 7587839509, "lat": 32.1825323, "lon": 20.1428552, "tags": {"amenity": "restaurant", "building": "yes"}}, {"type": "node", "id": 7587839511, "lat": 32.1828158, "lon": 20.1429112}, {"type": "node", "id": 7629273167, "lat": 32.0209679, "lon": 20.0782535, "tags": {"amenity": "restaurant"}}, {"type": "node", "id": 7629378759, "lat": 32.0575973, "lon": 20.0395119, "tags": {"amenity": "restaurant"}}, {"type": "node", "id": 7629378760, "lat": 32.0560351, "lon": 20.0387653, "tags": {"amenity": "cafe"}}, {"type": "node", "id": 7629378763, "lat": 32.0650122, "lon": 20.0435599, "tags": {"amenity": "cafe"}}, {"type": "node", "id": 7629378764, "lat": 32.065813, "lon": 20.0439216, "tags": {"amenity": "restaurant"}}, {"type": "node", "id": 7629378767, "lat": 32.0590627, "lon": 20.0627223, "tags": {"amenity": "cafe"}}, {"type": "node", "id": 7629378768, "lat": 32.0588043, "lon": 20.0626376, "tags": {"amenity": "cafe"}}, {"type": "node", "id": 7629378769, "lat": 32.0584167, "lon": 20.067871, "tags": {"amenity": "restaurant"}}, {"type": "node", "id": 7629378770, "lat": 32.0596942, "lon": 20.0724268, "tags": {"amenity": "restaurant"}}, {"type": "node", "id": 7629378771, "lat": 32.0583737, "lon": 20.0778973, "tags": {"amenity": "restaurant"}}, {"type": "node", "id": 7629378772, "lat": 32.058144, "lon": 20.0770505, "tags": {"amenity": "restaurant"}}, {"type": "node", "id": 7629378773, "lat": 32.0619333, "lon": 20.087568, "tags": {"amenity": "restaurant"}}, {"type": "node", "id": 7629378774, "lat": 32.0624644, "lon": 20.0882962, "tags": {"amenity": "cafe"}}, {"type": "node", "id": 7629378775, "lat": 32.0630529, "lon": 20.0879744, "tags": {"amenity": "cafe"}}, {"type": "node", "id": 7670689235, "lat": 32.0887228, "lon": 20.0903844, "tags": {"addr:city": "\u0628\u0646\u063a\u0627\u0632\u064a", "amenity": "cafe", "cuisine": "juice", "name": "\u0639\u0635\u0627\u0626\u0631 \u0648\u0627\u0644\u0643\u0631\u064a\u0628", "name:ar": "\u0639\u0635\u0627\u0626\u0631 \u0648\u0627\u0644\u0643\u0631\u064a\u0628", "name:en": "BlueBerry"}}, {"type": "node", "id": 7670689246, "lat": 32.0893846, "lon": 20.0872963, "tags": {"amenity": "cafe", "name": "BlueBerry \u0639\u0635\u0627\u0626\u0631 \u0641\u0631\u064a\u0634", "name:ar": "BlueBerry \u0639\u0635\u0627\u0626\u0631 \u0641\u0631\u064a\u0634"}}, {"type": "node", "id": 7714763098, "lat": 32.1687253, "lon": 20.1320956, "tags": {"amenity": "restaurant"}}, {"type": "node", "id": 7714763100, "lat": 32.0986472, "lon": 20.0792466, "tags": {"amenity": "cafe", "name": "\u0645\u0642\u0647\u0649 \u0627\u0644\u0634\u0645\u0627\u0644\u064a", "name:ar": "\u0645\u0642\u0647\u0649 \u0627\u0644\u0634\u0645\u0627\u0644\u064a"}}, {"type": "node", "id": 7806652985, "lat": 32.0784738, "lon": 20.0793026, "tags": {"amenity": "restaurant", "name": "\u0645\u0637\u0639\u0645", "name:ar": "\u0645\u0637\u0639\u0645"}}, {"type": "node", "id": 7859048685, "lat": 32.0730115, "lon": 20.087204, "tags": {"amenity": "cafe", "name": "\u0645\u0642\u0647\u0649 \u0628\u0631\u064a\u0643.\u0628\u0646\u063a\u0627\u0632\u064a", "name:ar": "\u0645\u0642\u0647\u0649 \u0628\u0631\u064a\u0643.\u0628\u0646\u063a\u0627\u0632\u064a", "name:en": "Break cafe"}}, {"type": "node", "id": 7866294932, "lat": 32.0872707, "lon": 20.0952338, "tags": {"amenity": "restaurant", "name": "Toscana"}}, {"type": "node", "id": 7866317136, "lat": 32.0874123, "lon": 20.0955942, "tags": {"amenity": "cafe", "name": "\u0645\u0642\u0647\u0649 \u0628\u0648\u0634\u0648\u064a\u0642\u064a\u0631", "name:ar": "\u0645\u0642\u0647\u0649 \u0628\u0648\u0634\u0648\u064a\u0642\u064a\u0631"}}, {"type": "node", "id": 7913203586, "lat": 32.0949756, "lon": 20.071535, "tags": {"amenity": "cafe"}}, {"type": "node", "id": 7985401286, "lat": 32.0833795, "lon": 20.1035815, "tags": {"amenity": "cafe", "name": "\u0643\u0627\u0641\u064a \u062a\u0627\u064a\u0645", "name:ar": "\u0643\u0627\u0641\u064a \u062a\u0627\u064a\u0645", "name:en": "Time Cafe"}}, {"type": "node", "id": 7986131488, "lat": 32.0822999, "lon": 20.0573078, "tags": {"amenity": "restaurant", "name": "\u0645\u0637\u0639\u0645 \u062a\u0648\u0633\u0643\u0627\u0646\u0627", "name:ar": "\u0645\u0637\u0639\u0645 \u062a\u0648\u0633\u0643\u0627\u0646\u0627", "name:en": "Toscana Restaurant"}}, {"type": "node", "id": 7986131489, "lat": 32.0819453, "lon": 20.0589139, "tags": {"amenity": "cafe", "name": "\u0643\u0627\u0641\u064a \u0628\u0631\u0648\u0646\u062a\u0648", "name:ar": "\u0643\u0627\u0641\u064a \u0628\u0631\u0648\u0646\u062a\u0648", "name:en": "Pronto Cafe"}}, {"type": "node", "id": 7986148085, "lat": 32.0811277, "lon": 20.0590099, "tags": {"amenity": "restaurant", "name": "\u0645\u0637\u0639\u0645 \u0628\u0646\u063a\u0627\u0632\u064a\u0646\u0627", "name:ar": "\u0645\u0637\u0639\u0645 \u0628\u0646\u063a\u0627\u0632\u064a\u0646\u0627", "name:en": "Restaurant"}}, {"type": "node", "id": 8085901439, "lat": 32.0804165, "lon": 20.0676608, "tags": {"amenity": "restaurant", "name": "\u0645\u0637\u0639\u0645 \u0628\u0644\u0627\u0632\u0627", "name:ar": "\u0645\u0637\u0639\u0645 \u0628\u0644\u0627\u0632\u0627"}}, {"type": "node", "id": 8293050246, "lat": 32.0820471, "lon": 20.0513701, "tags": {"amenity": "restaurant", "cuisine": "seafood", "name": "\u0645\u0637\u0639\u0645 \u0628\u0627\u0644\u0647"}}, {"type": "node", "id": 8293050248, "lat": 32.0824047, "lon": 20.0566548, "tags": {"amenity": "cafe", "name": "\u0645\u0642\u0647\u0649 \u0627\u0644\u0641\u064a\u062a\u0648\u0631\u064a", "name:en": "Cafe"}}, {"type": "node", "id": 8444983022, "lat": 32.0783358, "lon": 20.0799626, "tags": {"amenity": "restaurant", "name": "\u062a\u0648\u064a\u0633\u062a\u0631", "name:en": "Twister"}}, {"type": "node", "id": 8565200017, "lat": 32.0299669, "lon": 20.0270528, "tags": {"amenity": "restaurant", "name": "\u0645\u0637\u0639\u0645 \u0632\u0647\u0631\u0629 \u0628\u0646\u063a\u0627\u0632\u064a", "name:en": "Restaurant"}}, {"type": "node", "id": 8565311217, "lat": 32.0324637, "lon": 20.0218675, "tags": {"amenity": "cafe", "name": "\u0643\u0627\u0641\u064a \u0631\u064a\u0633\u062a\u0648", "name:en": "Resto Cafe"}}, {"type": "node", "id": 8565425817, "lat": 32.046298, "lon": 20.0296573, "tags": {"amenity": "restaurant", "name": "\u0645\u0637\u0639\u0645 \u0627\u0644\u0646\u064a\u0631\u0648\u0632 \u0644\u0644\u0625\u0633\u0645\u0627\u0643 \u0648\u0627\u0644\u0645\u0623\u0643\u0648\u0644\u0627\u062a \u0627\u0644\u0628\u062d\u0631\u064a\u0629", "name:en": "Seafood Restaurant"}}, {"type": "node", "id": 8565451317, "lat": 32.0526237, "lon": 20.035254, "tags": {"amenity": "restaurant", "name": "\u0645\u0637\u0639\u0645 \u0641\u0644\u0648\u0643\u0629 \u0644\u0644\u0645\u0623\u0643\u0648\u0644\u0627\u062a \u0627\u0644\u0628\u062d\u0631\u064a\u0629", "name:en": "Seafood Restaurant"}}, {"type": "node", "id": 8566493819, "lat": 32.053605, "lon": 20.0772158, "tags": {"amenity": "cafe", "name": "\u0643\u0627\u0641\u064a \u0627\u0644\u062e\u0627\u0646", "name:en": "Al Khan Cafe"}}, {"type": "node", "id": 8566493918, "lat": 32.0605083, "lon": 20.0838612, "tags": {"amenity": "restaurant", "name": "\u0645\u0637\u0639\u0645 \u0628\u0627\u0628 \u0627\u0644\u0647\u0646\u062f", "name:en": "Bab India Restaurant"}}, {"type": "node", "id": 8566511118, "lat": 32.0605445, "lon": 20.1028511, "tags": {"amenity": "restaurant", "name": "\u0645\u0637\u0639\u0645 \u0627\u0644\u0634\u0631\u0642 \u0644\u0644\u0645\u0634\u0648\u064a\u0627\u062a", "name:en": "Restaurant"}}, {"type": "node", "id": 8567901718, "lat": 32.0641103, "lon": 20.1166878, "tags": {"amenity": "cafe", "name": "\u0643\u0627\u0641\u064a VIP", "name:en": "VIP Cafe"}}, {"type": "node", "id": 8567929717, "lat": 32.0738622, "lon": 20.1180923, "tags": {"amenity": "restaurant", "name": "\u0645\u0637\u0639\u0645 \u0645\u0648\u0631\u064a\u0646\u0627", "name:en": "Restaurant"}}, {"type": "node", "id": 8569010417, "lat": 32.1368615, "lon": 20.101942, "tags": {"amenity": "restaurant", "name": "\u0645\u0637\u0639\u0645 \u0627\u0644\u0646\u0648\u0631\u0633 2", "name:en": "Restaurant"}}, {"type": "node", "id": 8570129317, "lat": 32.2416298, "lon": 20.1880016, "tags": {"amenity": "restaurant", "name": "\u0645\u0637\u0639\u0645 \u0627\u0644\u0645\u0630\u0627\u0642 \u0627\u0644\u0637\u064a\u0628", "name:en": "Restaurant"}}, {"type": "node", "id": 8570134417, "lat": 32.2416678, "lon": 20.1868368, "tags": {"amenity": "cafe", "name": "\u0643\u0627\u0641\u064a \u0646\u0648\u062a\u064a\u0644\u0627", "name:en": "Nutella Cafe"}}, {"type": "node", "id": 8570137017, "lat": 32.2547071, "lon": 20.1963902, "tags": {"amenity": "cafe", "name": "\u0643\u0627\u0641\u064a \u062d\u0633\u0646", "name:en": "Hassan Cafe"}}, {"type": "node", "id": 8573046917, "lat": 32.3837586, "lon": 20.3748682, "tags": {"amenity": "restaurant", "name": "\u0625\u0633\u062a\u0631\u0627\u062d\u0629 \u0627\u0644\u062e\u0634\u0645\u064a", "name:en": "Al Khashmi Restaurant"}}, {"type": "node", "id": 8734681308, "lat": 32.2727528, "lon": 20.2249332, "tags": {"amenity": "cafe"}}, {"type": "node", "id": 8862888017, "lat": 32.0756351, "lon": 20.074119, "tags": {"amenity": "restaurant", "name": "\u0627\u0645\u062d\u0645\u062f"}}, {"type": "node", "id": 8986829097, "lat": 32.3389477, "lon": 20.3081724, "tags": {"amenity": "restaurant"}}, {"type": "node", "id": 8986860162, "lat": 32.0953865, "lon": 20.3870485, "tags": {"amenity": "cafe"}}, {"type": "node", "id": 9347100906, "lat": 32.0337441, "lon": 20.1903568, "tags": {"amenity": "restaurant", "name": "\u0643\u0648\u062f\u0648", "name:en": "Kudo"}}, {"type": "node", "id": 9347100907, "lat": 32.0355723, "lon": 20.1887839, "tags": {"amenity": "cafe"}}, {"type": "node", "id": 9347100910, "lat": 32.0338601, "lon": 20.1905284, "tags": {"amenity": "restaurant", "cuisine": "pizza"}}, {"type": "node", "id": 9347100911, "lat": 32.0335573, "lon": 20.190178, "tags": {"amenity": "cafe"}}, {"type": "node", "id": 9348416573, "lat": 32.064181, "lon": 20.0913338, "tags": {"amenity": "cafe", "name": "York"}}, {"type": "node", "id": 9581640891, "lat": 32.3344824, "lon": 20.299777, "tags": {"amenity": "cafe"}}, {"type": "node", "id": 9581640892, "lat": 32.326516, "lon": 20.2867146, "tags": {"amenity": "cafe"}}, {"type": "node", "id": 9581643694, "lat": 32.3662096, "lon": 20.3506638, "tags": {"amenity": "restaurant"}}, {"type": "node", "id": 9611597117, "lat": 32.076001, "lon": 20.0810474, "tags": {"amenity": "cafe", "name": "\u0628\u0646 \u062c\u0648\u0631", "name:en": "bonjuor cafe"}}, {"type": "node", "id": 9712016317, "lat": 32.0925978, "lon": 20.1024305, "tags": {"amenity": "restaurant", "name": "\u0645\u0637\u0639\u0645 \u0643\u0648\u062f\u0648", "name:en": "Kudo"}}, {"type": "node", "id": 9854085298, "lat": 32.0762374, "lon": 20.2606214, "tags": {"amenity": "cafe"}}, {"type": "node", "id": 9854085309, "lat": 32.0760211, "lon": 20.2611033, "tags": {"amenity": "cafe"}}, {"type": "node", "id": 9922853457, "lat": 32.0748357, "lon": 20.0738768, "tags": {"addr:city": "\u0628\u0646\u063a\u0627\u0632\u064a", "amenity": "restaurant", "cuisine": "burger", "name": "Wow! Burgers and Sodas", "phone": "+218910952700", "website": "facebook.com/wowburger.ly"}}, {"type": "node", "id": 10080842711, "lat": 32.1225786, "lon": 20.0601777, "tags": {"amenity": "cafe"}}, {"type": "node", "id": 10080842712, "lat": 32.1230602, "lon": 20.0608295, "tags": {"amenity": "cafe"}}, {"type": "node", "id": 10080842713, "lat": 32.1238234, "lon": 20.0618192, "tags": {"amenity": "cafe"}}, {"type": "node", "id": 10139475022, "lat": 32.0583922, "lon": 20.097823, "tags": {"amenity": "restaurant", "cuisine": "italian", "name": "Flaminio - \u0641\u0644\u0627\u0645\u064a\u0646\u064a\u0648", "opening_hours": "Mo-Su 09:00-22:00", "phone": "+218-910181666"}}, {"type": "node", "id": 10154682117, "lat": 32.0970044, "lon": 20.0886062, "tags": {"amenity": "restaurant", "name:en": "\u0645\u0637\u0639\u0645 \u0648\u062c\u0628\u0627\u062a \u0645\u0634\u0648\u064a"}}, {"type": "node", "id": 10162689517, "lat": 32.1331737, "lon": 20.0717053, "tags": {"amenity": "restaurant", "name": "\u0645\u0637\u0639\u0645 \u0628\u0648\u0644\u064a \u0627\u0644\u0635\u0627\u0628\u0631\u064a"}}, {"type": "node", "id": 10162689617, "lat": 32.0751829, "lon": 20.0742106, "tags": {"amenity": "restaurant", "name": "\u0645\u0637\u0639\u0645 \u0628\u064a\u062a \u0627\u0644\u0645\u0634\u0648\u064a \u0628\u0646\u063a\u0627\u0632\u064a"}}, {"type": "node", "id": 10961292005, "lat": 32.0747899, "lon": 20.0736537, "tags": {"amenity": "restaurant", "name:en": "Laiali Alsham", "opening_hours": "Mo-Su 08:00-12:00", "phone": "0945780699"}}, {"type": "node", "id": 11111187406, "lat": 32.133363, "lon": 20.0986801, "tags": {"addr:street": "\u0623\u0631\u0636 \u0623\u0632\u0648\u0627\u0648\u0629", "amenity": "restaurant", "name": "\u0645\u0637\u0639\u0645 \u0643\u0627\u0632\u0628\u0644\u0627\u0646\u0643\u0627"}}, {"type": "way", "id": 327757337, "nodes": [3345717957, 3345717958, 3345717959, 3345717960, 3345717957], "tags": {"amenity": "restaurant", "building": "yes"}}, {"type": "way", "id": 327939896, "nodes": [3347597266, 3347597267, 3347597268, 3347597269, 3347597266], "tags": {"amenity": "restaurant", "building": "yes", "name": "\u0645\u0637\u0639\u0645 \u0627\u0644\u062c\u0631\u0647", "name:ar": "\u0645\u0637\u0639\u0645 \u0627\u0644\u062c\u0631\u0647", "name:en": "Restaurant"}}, {"type": "way", "id": 327939897, "nodes": [3347597270, 3347597271, 3347597272, 3347597270], "tags": {"amenity": "cafe", "building": "yes", "name": "\u0645\u0642\u0647\u064a \u0627\u0644\u062f\u064a\u0648\u0627\u0646\u064a\u0629", "name:ar": "\u0645\u0642\u0647\u064a \u0627\u0644\u062f\u064a\u0648\u0627\u0646\u064a\u0629", "name:en": "Al Dewaneya Cafe"}}, {"type": "way", "id": 328053395, "nodes": [3348764702, 3348764703, 3348764704, 3348764705, 3348764702], "tags": {"amenity": "restaurant", "building": "yes", "name": "\u0645\u0637\u0639\u0645 \u0643\u0627\u0632\u0627\u0628\u0644\u0627\u0646\u0643\u0627", "name:ar": "\u0645\u0637\u0639\u0645 \u0643\u0627\u0632\u0627\u0628\u0644\u0627\u0646\u0643\u0627", "name:en": "Casablanca Restaurant"}}, {"type": "way", "id": 441248366, "nodes": [4707732400, 4707732399, 4707732402, 4707732401, 4707732400], "tags": {"amenity": "cafe", "building": "yes", "internet_access": "yes", "name": "Classico Coffee", "name:ar": "\u0643\u0641\u064a \u0643\u0644\u0627\u0633\u064a\u0643\u0648", "name:en": "Classico Cafe", "smoking": "separated"}}, {"type": "way", "id": 812374940, "nodes": [7587839506, 7587839507, 7587839511, 7587839508, 7587839506], "tags": {"amenity": "restaurant", "building": "yes"}}]}