{"version": 0.6, "generator": "Overpass API 0.7.62.7 375dc00a", "osm3s": {"timestamp_osm_base": "2025-06-14T13:57:32Z", "copyright": "The data included in this document is from www.openstreetmap.org. The data is made available under ODbL."}, "elements": [{"type": "node", "id": 426784653, "lat": 39.9773813, "lon": 16.297248, "tags": {"addr:housenumber": "18", "addr:postcode": "85030", "addr:street": "Marconi", "amenity": "restaurant", "cuisine": "italian", "ele": "908", "email": "valicentifede@gmail.com", "name": "Luna Rossa", "operator": "Federico Valicenti", "phone": "+39 0973 93254", "website": "https://www.federicovalicenti.it/"}}, {"type": "node", "id": 470276112, "lat": 39.9450818, "lon": 15.9367281, "tags": {"amenity": "restaurant", "cuisine": "regional", "name": "Agriturismo Al Verneto"}}, {"type": "node", "id": 470313115, "lat": 39.955737, "lon": 15.9754719, "tags": {"amenity": "restaurant", "cuisine": "pizza", "name": "Lao Pizza"}}, {"type": "node", "id": 470316547, "lat": 39.9571781, "lon": 15.9700883, "tags": {"amenity": "restaurant", "name": "Palia's Hotel Ristorante", "stars": "3", "tourism": "hotel"}}, {"type": "node", "id": 470320479, "lat": 39.9646575, "lon": 15.936574, "tags": {"amenity": "restaurant", "cuisine": "regional", "name": "Taverna delle Ghiande"}}, {"type": "node", "id": 897249338, "lat": 39.8527848, "lon": 15.7916478, "tags": {"amenity": "restaurant", "cuisine": "italian", "name": "Ristorante Furano"}}, {"type": "node", "id": 1330930622, "lat": 39.972266, "lon": 16.0889732, "tags": {"amenity": "restaurant", "name": "La Locanda"}}, {"type": "node", "id": 1330937556, "lat": 39.9728895, "lon": 16.0864514, "tags": {"amenity": "restaurant", "name": "Oro Verde"}}, {"type": "node", "id": 1330983311, "lat": 39.9721183, "lon": 16.0816561, "tags": {"amenity": "restaurant", "name": "Le Ginestre"}}, {"type": "node", "id": 1330983332, "lat": 39.9645288, "lon": 16.0780941, "tags": {"amenity": "restaurant", "name": "Il Boschetto"}}, {"type": "node", "id": 1414409324, "lat": 39.6780119, "lon": 15.8152962, "tags": {"amenity": "restaurant", "name": "L'Approdo", "note": "Previously known as \"La Taverna del Pescatore\".", "website": "http://www.lapprododiamante.it/"}}, {"type": "node", "id": 1414409342, "lat": 39.6790871, "lon": 15.8195446, "tags": {"amenity": "restaurant", "name": "pizzeria il giardino"}}, {"type": "node", "id": 1414409411, "lat": 39.6757098, "lon": 15.8215402, "tags": {"amenity": "restaurant", "cuisine": "pizza", "name": "da Francesco"}}, {"type": "node", "id": 1829783942, "lat": 39.8156453, "lon": 15.7883141, "tags": {"amenity": "restaurant", "name": "Il Corsaro"}}, {"type": "node", "id": 1832006104, "lat": 39.8148531, "lon": 15.7899148, "tags": {"amenity": "cafe"}}, {"type": "node", "id": 1832007931, "lat": 39.8143046, "lon": 15.7912862, "tags": {"amenity": "cafe", "name": "Il Gelato"}}, {"type": "node", "id": 1855588959, "lat": 39.8123406, "lon": 15.7893806, "tags": {"amenity": "restaurant", "name": "La Playa"}}, {"type": "node", "id": 1988236313, "lat": 39.9106039, "lon": 15.9306053}, {"type": "node", "id": 1988236318, "lat": 39.9106672, "lon": 15.930489}, {"type": "node", "id": 1988236319, "lat": 39.9106465, "lon": 15.9306716}, {"type": "node", "id": 1988236320, "lat": 39.9107027, "lon": 15.9305322}, {"type": "node", "id": 1988236323, "lat": 39.9107518, "lon": 15.9306456}, {"type": "node", "id": 1988236324, "lat": 39.910798, "lon": 15.9305622}, {"type": "node", "id": 2228975825, "lat": 39.7965194, "lon": 15.872184, "tags": {"amenity": "restaurant", "name": "ristorante Castello di Mercuri."}}, {"type": "node", "id": 2244984418, "lat": 39.9372659, "lon": 15.7582029, "tags": {"amenity": "restaurant", "name": "Il Rustico", "phone": "+39 347 996 5318"}}, {"type": "node", "id": 2258081437, "lat": 39.9860562, "lon": 16.1713977, "tags": {"amenity": "restaurant"}}, {"type": "node", "id": 2350116990, "lat": 39.7974496, "lon": 15.9108272, "tags": {"amenity": "restaurant", "name": "Ristorante La Costa"}}, {"type": "node", "id": 2350116993, "lat": 39.7975897, "lon": 15.911817, "tags": {"amenity": "restaurant", "name": "Ristorante Golden Park Ranch"}}, {"type": "node", "id": 2350117086, "lat": 39.801258, "lon": 15.9574975, "tags": {"amenity": "restaurant"}}, {"type": "node", "id": 2705393847, "lat": 39.814865, "lon": 16.2001381, "tags": {"addr:city": "Castrovillari", "addr:housenumber": "3", "addr:postcode": "87012", "addr:street": "Corso Giuseppe Garibaldi", "amenity": "restaurant", "cuisine": "regional", "name": "Il Cavaliere"}}, {"type": "node", "id": 2921564519, "lat": 39.6766813, "lon": 15.8237295, "tags": {"amenity": "cafe"}}, {"type": "node", "id": 2958625177, "lat": 39.8146518, "lon": 15.7891443}, {"type": "node", "id": 2958625179, "lat": 39.814676, "lon": 15.7891676}, {"type": "node", "id": 2958625182, "lat": 39.8147155, "lon": 15.7890274}, {"type": "node", "id": 2958625183, "lat": 39.8146855, "lon": 15.7890248}, {"type": "node", "id": 2958625186, "lat": 39.8146586, "lon": 15.7890423}, {"type": "node", "id": 2958625195, "lat": 39.8146438, "lon": 15.7890695}, {"type": "node", "id": 2958625199, "lat": 39.8147532, "lon": 15.7890847}, {"type": "node", "id": 2958625201, "lat": 39.8147404, "lon": 15.7890494}, {"type": "node", "id": 2958625213, "lat": 39.8147059, "lon": 15.7891717}, {"type": "node", "id": 2958625215, "lat": 39.8147333, "lon": 15.7891556}, {"type": "node", "id": 2958625219, "lat": 39.8147506, "lon": 15.7891237}, {"type": "node", "id": 2958625224, "lat": 39.81464, "lon": 15.7891084}, {"type": "node", "id": 2972710507, "lat": 39.939549, "lon": 15.8409286, "tags": {"addr:city": "Aieta", "addr:postcode": "87020", "addr:street": "ctr. Massadita", "amenity": "restaurant", "name": "Agriturismo Terre Rosse Di Massadita", "phone": "+39 348 9297336", "website": "https://www.terrerossedimassadita.it/"}}, {"type": "node", "id": 2972710565, "lat": 39.9283393, "lon": 15.8247447, "tags": {"amenity": "restaurant", "name": "Le Due Lanterne"}}, {"type": "node", "id": 3093008439, "lat": 39.8162379, "lon": 16.198246, "tags": {"amenity": "restaurant", "cuisine": "regional", "name": "La Casa del Ferroviere"}}, {"type": "node", "id": 3134810088, "lat": 39.9204263, "lon": 15.7607264, "tags": {"amenity": "restaurant", "cuisine": "italian", "name": "Il Sombrero"}}, {"type": "node", "id": 3134841233, "lat": 39.9259309, "lon": 15.7659567, "tags": {"amenity": "restaurant"}}, {"type": "node", "id": 3641200734, "lat": 39.8979576, "lon": 15.7794263, "tags": {"amenity": "cafe"}}, {"type": "node", "id": 3772020289, "lat": 39.9038964, "lon": 15.9354142, "tags": {"addr:city": "Papasidero", "addr:housenumber": "9", "addr:postcode": "87020", "addr:street": "Via Grotta del Romito", "amenity": "restaurant", "cuisine": "regional", "name": "La Fontanella", "phone": "+39 0981 83136", "tourism": "guest_house"}}, {"type": "node", "id": 4252190389, "lat": 39.8075787, "lon": 15.7960694, "tags": {"addr:housenumber": "1", "addr:street": "Viale Primo Maggio", "amenity": "cafe", "name": "Gelato"}}, {"type": "node", "id": 4252200289, "lat": 39.8075029, "lon": 15.7962255, "tags": {"amenity": "cafe", "name": "Cafe & Snack"}}, {"type": "node", "id": 4260938327, "lat": 39.8090035, "lon": 16.2086321, "tags": {"addr:city": "Castrovillari", "addr:housenumber": "16", "addr:postcode": "87012", "addr:street": "Piazza Castello Aragonese", "amenity": "restaurant", "name": "Osteria \"Torre Infame\""}}, {"type": "node", "id": 4260938328, "lat": 39.8086837, "lon": 16.2086904, "tags": {"addr:city": "Castrovillari", "addr:housenumber": "1", "addr:postcode": "87012", "addr:street": "Via Francesco Celio", "amenity": "restaurant", "name": "Il Teatro dei Sapori"}}, {"type": "node", "id": 4267004711, "lat": 39.8193868, "lon": 16.1959997}, {"type": "node", "id": 4275639997, "lat": 39.825231, "lon": 16.2133581, "tags": {"addr:city": "Castrovillari", "addr:postcode": "87012", "addr:street": "Via Padre Francesco Russo", "amenity": "restaurant", "name": "Da Filomena"}}, {"type": "node", "id": 4284657313, "lat": 39.8202185, "lon": 16.2083529, "tags": {"addr:city": "Castrovillari", "addr:housenumber": "23", "addr:postcode": "87012", "addr:street": "Viale Umberto Caldora", "amenity": "restaurant", "name": "Mordi e Fuggi"}}, {"type": "node", "id": 4286041423, "lat": 39.8231133, "lon": 16.2051329, "tags": {"addr:city": "Castrovillari", "addr:housenumber": "7/ 9", "addr:postcode": "87012", "addr:street": "Via del Pino Loricato", "amenity": "restaurant", "name": "Benvenuti in Pizzeria"}}, {"type": "node", "id": 4286041467, "lat": 39.8211985, "lon": 16.2084594, "tags": {"addr:city": "Castrovillari", "addr:housenumber": "24", "addr:postcode": "87012", "addr:street": "Via Padre Pio da Pietrelcina", "alt_name": "Teatro dei Sapori", "amenity": "restaurant", "cuisine": "pizza", "name": "L' Antico Torchio"}}, {"type": "node", "id": 4286042879, "lat": 39.8208367, "lon": 16.2082058, "tags": {"addr:city": "Castrovillari", "addr:housenumber": "1", "addr:postcode": "87012", "addr:street": "Via delle Azalee", "amenity": "restaurant", "name": "Pomodoro Fresco"}}, {"type": "node", "id": 4293291488, "lat": 39.8196286, "lon": 16.1958158}, {"type": "node", "id": 4293292189, "lat": 39.8196947, "lon": 16.1959632}, {"type": "node", "id": 4293292192, "lat": 39.8194529, "lon": 16.1961471}, {"type": "node", "id": 4293445742, "lat": 39.8206873, "lon": 16.1956379, "tags": {"addr:city": "Castrovillari", "addr:housenumber": "138", "addr:postcode": "87012", "addr:street": "Corso Calabria", "amenity": "restaurant", "name": "Punto Pizza"}}, {"type": "node", "id": 4294185244, "lat": 39.8117704, "lon": 16.2021471, "tags": {"addr:city": "Castrovillari", "addr:postcode": "87012", "addr:street": "Vicoletto delle Clarisse", "amenity": "restaurant", "name": "Benvenuti al Sud"}}, {"type": "node", "id": 4295002326, "lat": 39.8174802, "lon": 16.2123864, "tags": {"addr:city": "Castrovillari", "addr:housenumber": "35", "addr:postcode": "87012", "addr:street": "Viale del Lavoro", "amenity": "restaurant", "name": "Caf\u00e8 e Restaurant"}}, {"type": "node", "id": 4296560705, "lat": 39.8140344, "lon": 16.205821, "tags": {"addr:city": "Castrovillari", "addr:postcode": "87012", "addr:street": "Via Roma", "amenity": "cafe", "name": "Torrefazione Castriocaf - Bomboniere"}}, {"type": "node", "id": 4301059970, "lat": 39.8169337, "lon": 16.2026903, "tags": {"addr:city": "Castrovillari", "addr:housenumber": "75", "addr:postcode": "87012", "addr:street": "Via Venti Settembre", "amenity": "restaurant", "name": "Rosticceria Sicily"}}, {"type": "node", "id": 4303592049, "lat": 39.8177147, "lon": 16.2148358, "tags": {"addr:city": "Castrovillari", "addr:postcode": "87012", "addr:street": "Viale del Lavoro", "amenity": "restaurant", "name": "Eat & Drink Izzo Bar Pizzeria Tavola calda"}}, {"type": "node", "id": 4307589744, "lat": 39.8140133, "lon": 16.2007874, "tags": {"addr:city": "Castrovillari", "addr:postcode": "87012", "addr:street": "Corso Giuseppe Garibaldi", "amenity": "restaurant", "name": "Kebabberia -Take Away"}}, {"type": "node", "id": 4313536966, "lat": 39.8103775, "lon": 16.2058194, "tags": {"addr:city": "Castrovillari", "addr:housenumber": "287", "addr:postcode": "87012", "addr:street": "Corso Giuseppe Garibaldi", "amenity": "restaurant", "name": "Strapizzami"}}, {"type": "node", "id": 4334028116, "lat": 39.8169283, "lon": 16.2070589, "tags": {"addr:city": "Castrovillari", "addr:housenumber": "15", "addr:postcode": "87012", "addr:street": "Via Manfriana", "amenity": "restaurant", "name": "La Paiza"}}, {"type": "node", "id": 4408528166, "lat": 39.758791, "lon": 15.9126608, "tags": {"addr:city": "Verbicaro", "addr:street": "Via Roma", "amenity": "restaurant", "check_date": "2023-07-21", "name": "Pizzeria"}}, {"type": "node", "id": 4683183518, "lat": 39.8242453, "lon": 16.2028631, "tags": {"addr:city": "Castrovillari", "addr:housenumber": "82", "addr:postcode": "87012", "addr:street": "Via Santi Medici", "amenity": "restaurant", "name": "Pizzeria La Favola"}}, {"type": "node", "id": 4694845306, "lat": 39.824817, "lon": 16.2124891, "tags": {"addr:city": "Castrovillari", "addr:postcode": "87012", "addr:street": "Via Padre Francesco Russo", "amenity": "restaurant", "name": "Trattoria Napoletana"}}, {"type": "node", "id": 4694849802, "lat": 39.8232443, "lon": 16.2113566, "tags": {"addr:city": "Castrovillari", "addr:housenumber": "11", "addr:postcode": "87012", "addr:street": "Via Padre Francesco Russo", "amenity": "restaurant", "name": "Bella Mbriana"}}, {"type": "node", "id": 4697355170, "lat": 39.9408446, "lon": 16.1474674, "tags": {"amenity": "cafe", "name": "La Baita"}}, {"type": "node", "id": 4946495222, "lat": 39.8947561, "lon": 15.7824319, "tags": {"amenity": "restaurant"}}, {"type": "node", "id": 5600367450, "lat": 39.8095681, "lon": 15.7953887, "tags": {"addr:city": "Scalea", "addr:postcode": "87029", "addr:street": "Via Lauro", "amenity": "restaurant", "cuisine": "pizza;italian;regional", "name": "Ristorante pizzeria Vesuvio", "outdoor_seating": "yes", "takeaway": "yes"}}, {"type": "node", "id": 5664035067, "lat": 39.8158445, "lon": 15.791013, "tags": {"addr:housenumber": "10", "addr:street": "Piazza de Palma Maggiore", "amenity": "restaurant", "cuisine": "mediterranean;italian", "name": "Ristorante Tari", "name:en": "Tari Restaurant", "phone": "+39 098591777"}}, {"type": "node", "id": 5740680620, "lat": 39.9356897, "lon": 15.753367}, {"type": "node", "id": 5740680821, "lat": 39.9355268, "lon": 15.7536829}, {"type": "node", "id": 5740680822, "lat": 39.9356429, "lon": 15.7537848}, {"type": "node", "id": 5740680823, "lat": 39.9358058, "lon": 15.7534688}, {"type": "node", "id": 5741189883, "lat": 39.734745, "lon": 15.8082513, "tags": {"addr:street": "Contrada", "amenity": "restaurant", "name": "Majorica Beach"}}, {"type": "node", "id": 5794060418, "lat": 39.8273284, "lon": 15.7806057, "tags": {"amenity": "restaurant", "cuisine": "pizza", "description": "Pane, pizze e cornetti", "name": "Il fornaio", "outdoor_seating": "yes", "takeaway": "yes"}}, {"type": "node", "id": 5837010785, "lat": 39.8174485, "lon": 15.7911571, "tags": {"addr:street": "Via Municipale", "amenity": "restaurant", "cuisine": "italian", "name": "Antica trattoria A' Taverna", "name:it": "Antica trattoria A' Taverna", "phone": "+39 388 604 4483"}}, {"type": "node", "id": 5936523556, "lat": 39.7122833, "lon": 15.8077165, "tags": {"amenity": "restaurant", "name": "Ristorante Da Lucio"}}, {"type": "node", "id": 6037717457, "lat": 39.5567393, "lon": 16.1196524, "tags": {"addr:city": "San Marco Argentano", "addr:postcode": "87018", "addr:street": "Via Roma", "amenity": "restaurant", "cuisine": "regional;italian", "currency:XBT": "yes", "diet:gluten_free": "yes", "diet:healthy": "yes", "diet:vegan": "yes", "diet:vegetarian": "yes", "name": "Le Baccanti - Enoteca Ristorante", "opening_hours": "Mo-Su 19:00-24:00", "operator": "Brusco A.", "payment:cash": "yes", "payment:credit_cards": "yes", "payment:cryptocurrencies": "yes", "payment:lightning": "yes", "payment:lightning_contactless": "no", "payment:onchain": "no", "phone": "+3909841906595", "survey:date": "2022-11-18", "website": "http://www.enobaccanti.com/"}}, {"type": "node", "id": 6080453713, "lat": 39.8149713, "lon": 15.7900397, "tags": {"addr:city": "Scalea", "addr:housenumber": "3", "addr:postcode": "87029", "addr:street": "Via Lido", "amenity": "cafe", "cuisine": "ice_cream", "internet_access": "yes", "name": "Jeni's Bakery", "outdoor_seating": "yes"}}, {"type": "node", "id": 6080453714, "lat": 39.8175442, "lon": 15.7859314, "tags": {"addr:city": "Scalea", "addr:postcode": "87029", "addr:street": "Lungomare Ruggero di Lauria", "amenity": "cafe", "cuisine": "italian", "internet_access": "wlan", "name": "Lido da Pietro"}}, {"type": "node", "id": 6203466641, "lat": 39.8154953, "lon": 15.7900069}, {"type": "node", "id": 6203466642, "lat": 39.8154015, "lon": 15.7899148}, {"type": "node", "id": 6203466643, "lat": 39.8153105, "lon": 15.7900635}, {"type": "node", "id": 6203466644, "lat": 39.8153553, "lon": 15.7901113}, {"type": "node", "id": 6203466645, "lat": 39.8153716, "lon": 15.790083}, {"type": "node", "id": 6203466646, "lat": 39.8154206, "lon": 15.7901272}, {"type": "node", "id": 6203466653, "lat": 39.8155877, "lon": 15.7897477}, {"type": "node", "id": 6203466654, "lat": 39.8155038, "lon": 15.7898797}, {"type": "node", "id": 6203466655, "lat": 39.815448, "lon": 15.7898196}, {"type": "node", "id": 6203466656, "lat": 39.8155319, "lon": 15.7896876}, {"type": "node", "id": 6203466768, "lat": 39.8169393, "lon": 15.7917655, "tags": {"amenity": "restaurant", "cuisine": "italian", "name": "Borgo Antico"}}, {"type": "node", "id": 6203466921, "lat": 39.8153825, "lon": 15.7917376, "tags": {"addr:housenumber": "22", "addr:street": "Via Vittorio Emanuele III", "amenity": "restaurant", "cuisine": "italian", "name": "La Rondinella"}}, {"type": "node", "id": 6203650020, "lat": 39.8163872, "lon": 15.7871657}, {"type": "node", "id": 6203650021, "lat": 39.8162849, "lon": 15.7870781}, {"type": "node", "id": 6203650022, "lat": 39.816258, "lon": 15.7870746}, {"type": "node", "id": 6203650023, "lat": 39.8162482, "lon": 15.7870512}, {"type": "node", "id": 6203650024, "lat": 39.8162311, "lon": 15.7870454}, {"type": "node", "id": 6203650025, "lat": 39.8161217, "lon": 15.7870944}, {"type": "node", "id": 6203650026, "lat": 39.8161244, "lon": 15.7871411}, {"type": "node", "id": 6203650027, "lat": 39.8161899, "lon": 15.7872649}, {"type": "node", "id": 6203650028, "lat": 39.8162033, "lon": 15.7872579}, {"type": "node", "id": 6203650029, "lat": 39.8163002, "lon": 15.7873443}, {"type": "node", "id": 6203650030, "lat": 39.8176017, "lon": 15.7858611}, {"type": "node", "id": 6203650031, "lat": 39.8174609, "lon": 15.7859859}, {"type": "node", "id": 6203650032, "lat": 39.8174947, "lon": 15.7860628}, {"type": "node", "id": 6203650033, "lat": 39.8176265, "lon": 15.7859104}, {"type": "node", "id": 6252244150, "lat": 39.9107756, "lon": 15.9306695}, {"type": "node", "id": 6252244151, "lat": 39.9107256, "lon": 15.9307548}, {"type": "node", "id": 6252244152, "lat": 39.9106537, "lon": 15.930653}, {"type": "node", "id": 6252244153, "lat": 39.9107295, "lon": 15.9304919}, {"type": "node", "id": 6318019347, "lat": 39.9530794, "lon": 16.07279, "tags": {"amenity": "restaurant", "name": "Agriturismo Campolerose"}}, {"type": "node", "id": 6412391391, "lat": 39.948814, "lon": 16.1779991, "tags": {"addr:city": "San Severino Lucano", "addr:postcode": "85030", "amenity": "restaurant", "name": "Rifugio Pino Loricato"}}, {"type": "node", "id": 6702667985, "lat": 39.992658, "lon": 16.1647749, "tags": {"amenity": "restaurant", "name": "Agriturismo Crescente"}}, {"type": "node", "id": 6746538541, "lat": 39.8044991, "lon": 15.7945429, "tags": {"addr:city": "Scalea", "addr:housenumber": "94", "addr:postcode": "87029", "addr:street": "Via Fiume Lao", "amenity": "restaurant", "cuisine": "pizza", "diet:lactose_free": "yes", "diet:mediterranean": "yes", "diet:vegan": "yes", "name": "Il peperoncino", "outdoor_seating": "yes", "phone": "+39 3200664446"}}, {"type": "node", "id": 6746601499, "lat": 39.8050415, "lon": 15.792709}, {"type": "node", "id": 6746601500, "lat": 39.8050856, "lon": 15.7930734}, {"type": "node", "id": 6746601501, "lat": 39.8049235, "lon": 15.7931067}, {"type": "node", "id": 6746601502, "lat": 39.8048888, "lon": 15.7928198}, {"type": "node", "id": 6746601503, "lat": 39.805006, "lon": 15.7927957}, {"type": "node", "id": 6746601504, "lat": 39.8049966, "lon": 15.7927183}, {"type": "node", "id": 6794167175, "lat": 39.9934204, "lon": 16.0630658, "tags": {"amenity": "restaurant", "cuisine": "pizza", "name": "Pizzeria La Lumera"}}, {"type": "node", "id": 6811702719, "lat": 39.7474098, "lon": 15.8367429, "tags": {"amenity": "restaurant", "name": "Vecchio Casale"}}, {"type": "node", "id": 7061540551, "lat": 39.6878736, "lon": 16.287515, "tags": {"addr:city": "Spezzano Albanese", "addr:housenumber": "33", "addr:postcode": "87019", "addr:street": "Viale delle Fonti", "air_conditioning": "yes", "amenity": "cafe", "bar": "yes", "brewery": "yes", "cuisine": "burger", "internet_access": "yes", "internet_access:fee": "yes", "name": "Bar Hotel San Francesco", "opening_hours": "Mo-Su 04:00-24:00", "outdoor_seating": "yes", "payment:american_express": "yes", "payment:cash": "yes", "payment:coins": "yes", "payment:contactless": "yes", "payment:credit_cards": "yes", "payment:cryptocurrencies": "yes", "payment:debit_cards": "yes", "payment:discover_card": "yes", "payment:electronic_purses": "yes", "payment:maestro": "yes", "payment:mastercard": "yes", "payment:notes": "yes", "payment:telephone_cards": "yes", "payment:unionpay": "yes", "payment:visa": "yes", "payment:visa_debit": "yes", "payment:visa_electron": "yes", "phone": "+39 3458062135", "smoking": "separated", "wheelchair": "yes"}}, {"type": "node", "id": 7131569650, "lat": 39.8078619, "lon": 15.7938037, "tags": {"addr:city": "Scalea", "addr:housenumber": "253", "addr:postcode": "87029", "addr:street": "Via Fiume Lao", "amenity": "restaurant", "cuisine": "pizza", "name": "Doppio Zero", "outdoor_seating": "yes", "phone": "+39 0985 920762", "takeaway": "yes"}}, {"type": "node", "id": 7540373577, "lat": 39.6193113, "lon": 15.8557528, "tags": {"addr:city": "Belvedere Marittimo", "addr:postcode": "87021", "addr:street": "via G. Fortunato", "amenity": "restaurant", "cuisine": "pizza", "name": "Il Cavallino Rosso"}}, {"type": "node", "id": 7540373578, "lat": 39.6236995, "lon": 15.8527273, "tags": {"addr:city": "Belvedere Marittimo", "addr:housenumber": "68", "addr:postcode": "87021", "addr:street": "Via della Repubblica", "amenity": "restaurant", "cuisine": "pizza", "name": "Il Segreto di Pulcinella"}}, {"type": "node", "id": 7540373579, "lat": 39.6210798, "lon": 15.8517403, "tags": {"amenity": "restaurant", "name": "Ristorante Pizzeria Milleluci"}}, {"type": "node", "id": 7547558315, "lat": 39.6534821, "lon": 15.8385724, "tags": {"amenity": "restaurant", "cuisine": "pizza", "name": "Pizzeria Nataly"}}, {"type": "node", "id": 7647081121, "lat": 39.6083655, "lon": 15.861184, "tags": {"amenity": "restaurant", "cuisine": "pizza;bar", "indoor_seating": "yes", "name": "il Ristoro", "outdoor_seating": "yes", "survey:date": "2024-03-17"}}, {"type": "node", "id": 7647081122, "lat": 39.6267006, "lon": 15.846802, "tags": {"amenity": "restaurant", "cuisine": "pizza", "indoor_seating": "yes", "name": "Alexa", "outdoor_seating": "yes", "survey:date": "2024-03-17"}}, {"type": "node", "id": 7647081123, "lat": 39.6623568, "lon": 15.8363521, "tags": {"addr:postcode": "87021", "addr:street": "C.da Piano delle Donne - SS18", "amenity": "restaurant", "cuisine": "italian;italian_pizza;pizza", "name": "il Casale Vecchia Fattoria", "phone": "+39338 905 9848", "website": "http://www.casalevecchiafattoria.com/"}}, {"type": "node", "id": 7862816038, "lat": 39.6140491, "lon": 16.2876129, "tags": {"amenity": "restaurant", "name": "Osteria sul Lago"}}, {"type": "node", "id": 7887956453, "lat": 39.6292235, "lon": 15.9399064}, {"type": "node", "id": 7887956454, "lat": 39.629018, "lon": 15.9401972}, {"type": "node", "id": 7887956455, "lat": 39.6289244, "lon": 15.9400857}, {"type": "node", "id": 7887956456, "lat": 39.6291299, "lon": 15.9397949}, {"type": "node", "id": 7904128464, "lat": 39.9424191, "lon": 15.8036107}, {"type": "node", "id": 7904128465, "lat": 39.942324, "lon": 15.8036451}, {"type": "node", "id": 7904128466, "lat": 39.9423003, "lon": 15.8035341}, {"type": "node", "id": 7904128467, "lat": 39.9423955, "lon": 15.8034997}, {"type": "node", "id": 7904128495, "lat": 39.9423457, "lon": 15.8035177}, {"type": "node", "id": 7906527091, "lat": 39.9399557, "lon": 15.8087804}, {"type": "node", "id": 7906527092, "lat": 39.9397922, "lon": 15.8089708}, {"type": "node", "id": 7906527093, "lat": 39.9396308, "lon": 15.808735}, {"type": "node", "id": 7906527094, "lat": 39.9397943, "lon": 15.8085445}, {"type": "node", "id": 7906527099, "lat": 39.9397644, "lon": 15.8089302}, {"type": "node", "id": 7906527102, "lat": 39.9396916, "lon": 15.8088239}, {"type": "node", "id": 8503606268, "lat": 39.9016881, "lon": 15.7785758, "tags": {"amenity": "restaurant", "description": "tavola calda, rosticceria", "name": "The Friends Pub"}}, {"type": "node", "id": 8715611589, "lat": 39.6386092, "lon": 16.2583267}, {"type": "node", "id": 8715611590, "lat": 39.6385843, "lon": 16.2585773}, {"type": "node", "id": 8715611591, "lat": 39.6384491, "lon": 16.2585546}, {"type": "node", "id": 8715611592, "lat": 39.6384941, "lon": 16.2583074}, {"type": "node", "id": 8715611911, "lat": 39.6385947, "lon": 16.2584724}, {"type": "node", "id": 8986062057, "lat": 39.7529372, "lon": 15.8050011, "tags": {"amenity": "restaurant", "cuisine": "pizza", "name": "Mary"}}, {"type": "node", "id": 9113101832, "lat": 39.8981288, "lon": 15.7830954}, {"type": "node", "id": 9113101833, "lat": 39.8981623, "lon": 15.7832712}, {"type": "node", "id": 9113101834, "lat": 39.8980308, "lon": 15.7832227}, {"type": "node", "id": 9113101835, "lat": 39.8979782, "lon": 15.7830927}, {"type": "node", "id": 9126480808, "lat": 39.6715147, "lon": 15.827482, "tags": {"amenity": "restaurant", "name": "La Guardiola"}}, {"type": "node", "id": 9943533847, "lat": 39.96533, "lon": 15.9578751}, {"type": "node", "id": 9943533848, "lat": 39.9653403, "lon": 15.9576072}, {"type": "node", "id": 9943533849, "lat": 39.9653127, "lon": 15.957543}, {"type": "node", "id": 9943533850, "lat": 39.9654107, "lon": 15.9574711}, {"type": "node", "id": 9943533851, "lat": 39.9654434, "lon": 15.9575471}, {"type": "node", "id": 9943533852, "lat": 39.9654937, "lon": 15.9575102}, {"type": "node", "id": 9943533853, "lat": 39.9654522, "lon": 15.9576626}, {"type": "node", "id": 9943533854, "lat": 39.9652449, "lon": 15.9576771}, {"type": "node", "id": 9943533855, "lat": 39.9654924, "lon": 15.9577562}, {"type": "node", "id": 9943533856, "lat": 39.9655336, "lon": 15.9576029}, {"type": "node", "id": 9951105796, "lat": 39.901008, "lon": 15.9758826}, {"type": "node", "id": 9951105797, "lat": 39.9010698, "lon": 15.9760462}, {"type": "node", "id": 9951105798, "lat": 39.901144, "lon": 15.9759986}, {"type": "node", "id": 9951105799, "lat": 39.9010822, "lon": 15.975835}, {"type": "node", "id": 9954448556, "lat": 39.8750077, "lon": 16.0662261}, {"type": "node", "id": 9954448557, "lat": 39.8748729, "lon": 16.0663147}, {"type": "node", "id": 9954448558, "lat": 39.8748358, "lon": 16.0662188}, {"type": "node", "id": 9954448559, "lat": 39.8749706, "lon": 16.0661302}, {"type": "node", "id": 9954448560, "lat": 39.8745723, "lon": 16.065461, "tags": {"amenity": "cafe"}}, {"type": "node", "id": 9979555117, "lat": 39.8711393, "lon": 15.9046752}, {"type": "node", "id": 9983806760, "lat": 39.913556, "lon": 16.1240753}, {"type": "node", "id": 9983806761, "lat": 39.9134808, "lon": 16.1240907}, {"type": "node", "id": 9983806762, "lat": 39.9134695, "lon": 16.1239977}, {"type": "node", "id": 9983806763, "lat": 39.9135447, "lon": 16.1239822}, {"type": "node", "id": 10690542598, "lat": 39.9318015, "lon": 15.7691236, "tags": {"amenity": "restaurant", "name": "On the road", "wheelchair": "yes"}}, {"type": "node", "id": 10692954962, "lat": 39.618295, "lon": 16.1502598}, {"type": "node", "id": 10692954963, "lat": 39.6182714, "lon": 16.1502547}, {"type": "node", "id": 10692954964, "lat": 39.6182911, "lon": 16.1500875}, {"type": "node", "id": 10692954965, "lat": 39.6183156, "lon": 16.1501016}, {"type": "node", "id": 10692954966, "lat": 39.6183343, "lon": 16.1499102}, {"type": "node", "id": 10692954967, "lat": 39.6184562, "lon": 16.1499446}, {"type": "node", "id": 10692954968, "lat": 39.6183952, "lon": 16.1502764}, {"type": "node", "id": 10692996961, "lat": 39.6151749, "lon": 16.1449052}, {"type": "node", "id": 10692996962, "lat": 39.6149053, "lon": 16.1446562}, {"type": "node", "id": 10692996963, "lat": 39.6147357, "lon": 16.1449503}, {"type": "node", "id": 10692996964, "lat": 39.6150596, "lon": 16.1451975}, {"type": "node", "id": 10692997173, "lat": 39.6085489, "lon": 16.1402312}, {"type": "node", "id": 10692997174, "lat": 39.6087179, "lon": 16.1403154}, {"type": "node", "id": 10692997175, "lat": 39.608829, "lon": 16.140397}, {"type": "node", "id": 10692997176, "lat": 39.6088575, "lon": 16.1403715}, {"type": "node", "id": 10692997177, "lat": 39.6088015, "lon": 16.1402963}, {"type": "node", "id": 10692997178, "lat": 39.6087238, "lon": 16.1402172}, {"type": "node", "id": 10692997179, "lat": 39.608654, "lon": 16.1401853}, {"type": "node", "id": 10692997180, "lat": 39.6085587, "lon": 16.1401521}, {"type": "node", "id": 10693058367, "lat": 39.6040613, "lon": 16.2047315}, {"type": "node", "id": 10693058368, "lat": 39.6041443, "lon": 16.2048286}, {"type": "node", "id": 10693058369, "lat": 39.604322, "lon": 16.2045646}, {"type": "node", "id": 10693058370, "lat": 39.6042309, "lon": 16.204466}, {"type": "node", "id": 10693107371, "lat": 39.6281724, "lon": 16.1164037}, {"type": "node", "id": 10693107372, "lat": 39.6280265, "lon": 16.1164109}, {"type": "node", "id": 10693107373, "lat": 39.6280474, "lon": 16.1167574}, {"type": "node", "id": 10693107374, "lat": 39.6281891, "lon": 16.1167538}, {"type": "node", "id": 10926277510, "lat": 39.7499561, "lon": 15.803768}, {"type": "node", "id": 10926277511, "lat": 39.7499974, "lon": 15.8039758}, {"type": "node", "id": 10926277512, "lat": 39.7497999, "lon": 15.8040435}, {"type": "node", "id": 10926277513, "lat": 39.7497586, "lon": 15.8038217}, {"type": "node", "id": 10959226889, "lat": 39.9539174, "lon": 15.7389955}, {"type": "node", "id": 10959226890, "lat": 39.9540188, "lon": 15.7390359}, {"type": "node", "id": 10959226891, "lat": 39.9540071, "lon": 15.739093}, {"type": "node", "id": 10959226892, "lat": 39.9540337, "lon": 15.7391036}, {"type": "node", "id": 10959226893, "lat": 39.9540124, "lon": 15.7392113}, {"type": "node", "id": 10959226894, "lat": 39.9538566, "lon": 15.7391529}, {"type": "node", "id": 10959226895, "lat": 39.9538758, "lon": 15.7390443}, {"type": "node", "id": 10959226896, "lat": 39.9539067, "lon": 15.7390568}, {"type": "node", "id": 10991732185, "lat": 39.6175663, "lon": 15.8532527, "tags": {"amenity": "cafe"}}, {"type": "node", "id": 10991733415, "lat": 39.6210236, "lon": 15.8507756, "tags": {"amenity": "restaurant"}}, {"type": "node", "id": 10991733445, "lat": 39.621747, "lon": 15.8513532, "tags": {"amenity": "restaurant", "cuisine": "regional;pizza", "indoor_seating": "yes", "outdoor_seating": "yes"}}, {"type": "node", "id": 10992184731, "lat": 39.6395113, "lon": 15.8425544, "tags": {"amenity": "restaurant", "cuisine": "pizza", "name": "Pizzeria da Graziano"}}, {"type": "node", "id": 11001912721, "lat": 39.6196856, "lon": 16.2727319}, {"type": "node", "id": 11001912722, "lat": 39.6196614, "lon": 16.2728319}, {"type": "node", "id": 11001912723, "lat": 39.6195989, "lon": 16.2728064}, {"type": "node", "id": 11001912724, "lat": 39.6196231, "lon": 16.2727064}, {"type": "node", "id": 11001912743, "lat": 39.6139848, "lon": 16.2876371}, {"type": "node", "id": 11001912744, "lat": 39.6141189, "lon": 16.2876311}, {"type": "node", "id": 11001912745, "lat": 39.6141173, "lon": 16.2875685}, {"type": "node", "id": 11001912746, "lat": 39.6141514, "lon": 16.287567}, {"type": "node", "id": 11001912747, "lat": 39.6141497, "lon": 16.2875028}, {"type": "node", "id": 11001912748, "lat": 39.6139814, "lon": 16.2875103}, {"type": "node", "id": 11001912756, "lat": 39.6140533, "lon": 16.2876341}, {"type": "node", "id": 11002060898, "lat": 39.6384623, "lon": 16.2584219}, {"type": "node", "id": 11002060899, "lat": 39.6384833, "lon": 16.2584165}, {"type": "node", "id": 11023594167, "lat": 39.8423057, "lon": 15.7926236, "tags": {"amenity": "cafe", "coffee:brand": "Carusi"}}, {"type": "node", "id": 11023594170, "lat": 39.8430434, "lon": 15.7940672, "tags": {"amenity": "restaurant", "cuisine": "pizza", "name": "Oasi"}}, {"type": "node", "id": 11029819493, "lat": 39.8474592, "lon": 15.7931834, "tags": {"amenity": "cafe", "coffee:brand": "Caff\u00e8 Moka Salerno", "name": "Esco Bar"}}, {"type": "node", "id": 11039360877, "lat": 39.847304, "lon": 15.792487, "tags": {"amenity": "cafe", "coffee:brand": "Trucillo", "internet_access:fee": "yes", "name": "Le Mele", "outdoor_seating": "yes", "toilets:access": "permissive", "wheelchair": "yes"}}, {"type": "node", "id": 11057081881, "lat": 39.7607606, "lon": 15.8121738}, {"type": "node", "id": 11057081882, "lat": 39.7608051, "lon": 15.8122253}, {"type": "node", "id": 11057081883, "lat": 39.7608398, "lon": 15.8122575}, {"type": "node", "id": 11057081884, "lat": 39.7607523, "lon": 15.8124742}, {"type": "node", "id": 11057081885, "lat": 39.7606946, "lon": 15.8125042}, {"type": "node", "id": 11057081886, "lat": 39.7606649, "lon": 15.8123755}, {"type": "node", "id": 11057081887, "lat": 39.7606303, "lon": 15.8123326}, {"type": "node", "id": 11057162189, "lat": 39.7462829, "lon": 15.8372674}, {"type": "node", "id": 11057162190, "lat": 39.7463135, "lon": 15.8374202}, {"type": "node", "id": 11057162191, "lat": 39.7461915, "lon": 15.8374738}, {"type": "node", "id": 11057162192, "lat": 39.7461502, "lon": 15.8372421}, {"type": "node", "id": 11156465372, "lat": 39.8712257, "lon": 15.9046303}, {"type": "node", "id": 11156465373, "lat": 39.8712196, "lon": 15.9048312}, {"type": "node", "id": 11156465374, "lat": 39.8712689, "lon": 15.9048111}, {"type": "node", "id": 11229801924, "lat": 39.9819621, "lon": 16.077568, "tags": {"amenity": "restaurant", "name": "Al Cantuccio"}}, {"type": "node", "id": 11241987137, "lat": 39.8963382, "lon": 15.7834233, "tags": {"amenity": "restaurant", "name": "La Piedigrotta"}}, {"type": "node", "id": 11491616720, "lat": 39.8996818, "lon": 15.7784824, "tags": {"amenity": "restaurant", "email": "taverna.antica@yahoo.it", "facebook": "https://www.facebook.com/TavernaAnticaRistorante/", "name": "Taverna Antica", "phone": "+39 3394582806"}}, {"type": "node", "id": 11640869520, "lat": 39.6769192, "lon": 15.8214437, "tags": {"amenity": "cafe"}}, {"type": "node", "id": 11708881262, "lat": 39.5854633, "lon": 16.0975392, "tags": {"addr:city": "Pianette", "addr:postcode": "87010", "amenity": "cafe", "name": "Bar Gelateria Ferraro"}}, {"type": "node", "id": 11716444819, "lat": 39.7135915, "lon": 15.8087975, "tags": {"amenity": "cafe"}}, {"type": "node", "id": 11716781582, "lat": 39.7157607, "lon": 15.8498966, "tags": {"amenity": "restaurant", "cuisine": "pizza"}}, {"type": "node", "id": 11716781583, "lat": 39.7157155, "lon": 15.8497044, "tags": {"amenity": "cafe"}}, {"type": "node", "id": 11736937304, "lat": 39.5588766, "lon": 15.8743748, "tags": {"amenity": "cafe", "indoor_seating": "yes", "outdoor_seating": "yes"}}, {"type": "node", "id": 11738392450, "lat": 39.5782775, "lon": 15.86939, "tags": {"amenity": "restaurant"}}, {"type": "node", "id": 11738400407, "lat": 39.5812364, "lon": 15.8693733, "tags": {"amenity": "restaurant"}}, {"type": "node", "id": 11738427535, "lat": 39.6303194, "lon": 15.8441414, "tags": {"amenity": "restaurant", "name": "Lido Azzurro", "wheelchair": "yes"}}, {"type": "node", "id": 11738454488, "lat": 39.6248432, "lon": 15.8477568, "tags": {"amenity": "restaurant", "cuisine": "pizza"}}, {"type": "node", "id": 11738460764, "lat": 39.6219334, "lon": 15.8506073, "tags": {"amenity": "cafe"}}, {"type": "node", "id": 11738489021, "lat": 39.6234921, "lon": 15.8487353, "tags": {"amenity": "cafe"}}, {"type": "node", "id": 11738499982, "lat": 39.6232351, "lon": 15.8490765, "tags": {"amenity": "cafe"}}, {"type": "node", "id": 11738604151, "lat": 39.659916, "lon": 15.8350222, "tags": {"amenity": "restaurant", "name": "Sabbia d'oro"}}, {"type": "node", "id": 11738622629, "lat": 39.6767877, "lon": 15.819298, "tags": {"amenity": "restaurant"}}, {"type": "node", "id": 11738653298, "lat": 39.6774877, "lon": 15.8177469, "tags": {"amenity": "restaurant", "indoor_seating": "yes", "mobile": "3760044038", "name": "Ristorante Lo spuntino sul mare", "outdoor_seating": "yes", "website": "https://m.facebook.com/Lo-Spuntino-416933031752512/?locale2=it_IT"}}, {"type": "node", "id": 11738658617, "lat": 39.6765173, "lon": 15.8198513, "tags": {"amenity": "restaurant"}}, {"type": "node", "id": 11738662363, "lat": 39.6758506, "lon": 15.8210079, "tags": {"amenity": "restaurant"}}, {"type": "node", "id": 11738680028, "lat": 39.699036, "lon": 15.8116966, "tags": {"amenity": "restaurant", "name": "Lido delle Sirene"}}, {"type": "node", "id": 11738793329, "lat": 39.7307889, "lon": 15.810783, "tags": {"amenity": "cafe"}}, {"type": "node", "id": 11738823352, "lat": 39.7377209, "lon": 15.8093766, "tags": {"amenity": "cafe"}}, {"type": "node", "id": 11738850553, "lat": 39.7508522, "lon": 15.8059271, "tags": {"amenity": "restaurant", "cuisine": "pizza", "indoor_seating": "yes", "outdoor_seating": "yes"}}, {"type": "node", "id": 11738851722, "lat": 39.7553222, "lon": 15.8041743, "tags": {"amenity": "restaurant", "cuisine": "pizza"}}, {"type": "node", "id": 11738900965, "lat": 39.7985053, "lon": 15.7923032, "tags": {"amenity": "restaurant", "cuisine": "sushi", "indoor_seating": "yes", "outdoor_seating": "yes"}}, {"type": "node", "id": 11738901207, "lat": 39.7724884, "lon": 15.7985274, "tags": {"amenity": "cafe", "indoor_seating": "yes", "outdoor_seating": "yes"}}, {"type": "node", "id": 11738951837, "lat": 39.8099873, "lon": 15.7902058, "tags": {"amenity": "cafe"}}, {"type": "node", "id": 11738976676, "lat": 39.8094361, "lon": 15.7902474, "tags": {"amenity": "restaurant", "cuisine": "pizza"}}, {"type": "node", "id": 11740599707, "lat": 39.8719362, "lon": 15.7888222, "tags": {"amenity": "restaurant"}}, {"type": "node", "id": 11740848946, "lat": 39.9585973, "lon": 15.7387178, "tags": {"amenity": "restaurant", "indoor_seating": "yes", "name": "White Horse", "outdoor_seating": "yes"}}, {"type": "node", "id": 12020608422, "lat": 39.6819092, "lon": 15.8431287}, {"type": "node", "id": 12020608423, "lat": 39.6819835, "lon": 15.8432521}, {"type": "node", "id": 12020608424, "lat": 39.6818596, "lon": 15.8434184}, {"type": "node", "id": 12020608425, "lat": 39.6817812, "lon": 15.8433004}, {"type": "node", "id": 12020669192, "lat": 39.8525066, "lon": 15.7911471}, {"type": "node", "id": 12020669193, "lat": 39.8525018, "lon": 15.7914615}, {"type": "node", "id": 12020669194, "lat": 39.8523532, "lon": 15.7914646}, {"type": "node", "id": 12020669195, "lat": 39.8523555, "lon": 15.7911486}, {"type": "node", "id": 12021096635, "lat": 39.6781476, "lon": 15.8185456, "tags": {"amenity": "restaurant", "mobile": "3493209768", "name": "A D\u00f9 Zi Toton", "website": "http://a-du-zi-toton.poi.place/"}}, {"type": "node", "id": 12021121045, "lat": 39.6775157, "lon": 15.8181885, "tags": {"amenity": "restaurant", "mobile": "3494025938", "name": "Sapore di Mare", "website": "https://www.saporedimare.it/"}}, {"type": "node", "id": 12021121046, "lat": 39.6776155, "lon": 15.818181, "tags": {"amenity": "restaurant", "mobile": "3349399630", "name": "A' Cucchiarella Ristorante", "website": "https://m.facebook.com/A-Cucchiarella-276364175875791/?locale2=it_IT"}}, {"type": "node", "id": 12021121050, "lat": 39.6772946, "lon": 15.8181916, "tags": {"amenity": "restaurant", "cuisine": "pizza", "name": "Pizzeria del Corso"}}, {"type": "node", "id": 12021121059, "lat": 39.6785026, "lon": 15.8181222, "tags": {"amenity": "restaurant", "mobile": "3773889893", "name": "La Rumba del Caribe", "website": "https://m.facebook.com/ElSombreroDiamante"}}, {"type": "node", "id": 12021121064, "lat": 39.6777344, "lon": 15.8178645, "tags": {"amenity": "restaurant", "mobile": "3476580045", "name": "Osteria dei murales"}}, {"type": "node", "id": 12031197335, "lat": 39.6290138, "lon": 15.849713, "tags": {"amenity": "cafe", "name": "Fata Morgana"}}, {"type": "node", "id": 12033502945, "lat": 39.8418436, "lon": 16.2452304, "tags": {"addr:city": "Castrovillari", "addr:postcode": "87012", "addr:street": "Autostrada del Mediterraneo", "amenity": "cafe", "name": "Lombardi", "ref:vatin": "IT01389860782"}}, {"type": "node", "id": 12043405660, "lat": 39.6261752, "lon": 15.8470117, "tags": {"amenity": "restaurant", "name": "Lo Stuzzichino"}}, {"type": "node", "id": 12043413909, "lat": 39.6320356, "lon": 15.8434594, "tags": {"amenity": "cafe", "name": "LIDO Stella Del Mare"}}, {"type": "node", "id": 12095648434, "lat": 39.8485302, "lon": 15.794819, "tags": {"amenity": "restaurant", "name": "Qc\u00e8c\u00e8"}}, {"type": "node", "id": 12159571594, "lat": 39.8138472, "lon": 15.7917268, "tags": {"addr:city": "Scalea", "addr:housenumber": "6", "addr:postcode": "87029", "addr:street": "Piazza Caloprese", "amenity": "restaurant", "cuisine": "pizza", "name": "Pizzeria La piazzetta", "opening_hours": "Mo-Su 17:00-24:00", "phone": "+390985803138"}}, {"type": "node", "id": 12281537716, "lat": 39.8046733, "lon": 15.7908724, "tags": {"amenity": "cafe", "contact:instagram": "https://www.instagram.com/_k_cafe", "name": "Kcaf\u00e8 Scalea"}}, {"type": "node", "id": 12400935023, "lat": 39.5731439, "lon": 16.1443642, "tags": {"amenity": "restaurant", "cuisine": "italian", "name": "L'Oasi - Ristorante Pinseria"}}, {"type": "node", "id": 12400936969, "lat": 39.5555036, "lon": 16.1200239, "tags": {"amenity": "restaurant", "cuisine": "steak_house", "name": "Rosticceria"}}, {"type": "node", "id": 12401043403, "lat": 39.5567709, "lon": 16.1227556, "tags": {"amenity": "cafe", "cuisine": "coffee_shop", "name": "Caff\u00e9 e Bistro Riforma"}}, {"type": "node", "id": 12401043411, "lat": 39.5568379, "lon": 16.1223637, "tags": {"amenity": "cafe", "cuisine": "coffee_shop", "name": "Caffeteria, Gelateria Dolce Nepoleone"}}, {"type": "node", "id": 12401045767, "lat": 39.5760553, "lon": 16.169703, "tags": {"amenity": "restaurant", "cuisine": "italian", "name": "Ristorante Europa"}}, {"type": "node", "id": 12413765158, "lat": 39.8980899, "lon": 15.7831065}, {"type": "node", "id": 12413765159, "lat": 39.898078, "lon": 15.7830462}, {"type": "node", "id": 12413765160, "lat": 39.8979927, "lon": 15.7831604}, {"type": "node", "id": 12413765161, "lat": 39.8980405, "lon": 15.7831487}, {"type": "node", "id": 12455681581, "lat": 39.6765816, "lon": 15.8213934, "tags": {"amenity": "cafe", "name": "Caffetteria Marino"}}, {"type": "node", "id": 12481898323, "lat": 39.8419676, "lon": 16.1335998}, {"type": "node", "id": 12481898324, "lat": 39.8416859, "lon": 16.1337582}, {"type": "node", "id": 12481898325, "lat": 39.8417214, "lon": 16.1338543}, {"type": "node", "id": 12481898326, "lat": 39.8419915, "lon": 16.1336921}, {"type": "node", "id": 12498083462, "lat": 39.8174575, "lon": 16.2116468, "tags": {"amenity": "restaurant", "name": "K2 Pizzeria & Kebabberia"}}, {"type": "node", "id": 12517046373, "lat": 39.8380439, "lon": 16.1492837}, {"type": "node", "id": 12517046374, "lat": 39.8379342, "lon": 16.1493293}, {"type": "node", "id": 12517046375, "lat": 39.8379844, "lon": 16.1495345}, {"type": "node", "id": 12517046376, "lat": 39.8380942, "lon": 16.1494889}, {"type": "node", "id": 12517046377, "lat": 39.8429802, "lon": 16.1384456, "tags": {"amenity": "restaurant", "cuisine": "pizza;regional", "name": "Ristorante Da Renato"}}, {"type": "node", "id": 12684354654, "lat": 39.816052, "lon": 15.7894989, "tags": {"amenity": "restaurant", "cuisine": "seafood", "name": "Vitazzurra"}}, {"type": "node", "id": 12684997918, "lat": 39.8163999, "lon": 15.7885742, "tags": {"amenity": "restaurant", "name": "Vigr\u00ec"}}, {"type": "node", "id": 12703289697, "lat": 39.811969, "lon": 15.7875265, "tags": {"amenity": "restaurant", "cuisine": "seafood", "name": "Lo Scoglio"}}, {"type": "node", "id": 12705819183, "lat": 39.8121433, "lon": 15.7895213, "tags": {"amenity": "restaurant", "cuisine": "pizza", "name": "Dragone"}}, {"type": "node", "id": 12731817530, "lat": 39.8154257, "lon": 15.7899385}, {"type": "node", "id": 12731817543, "lat": 39.8153603, "lon": 15.7899822}, {"type": "node", "id": 12731817547, "lat": 39.8153211, "lon": 15.7900748}, {"type": "node", "id": 12731817548, "lat": 39.8153427, "lon": 15.7900979}, {"type": "node", "id": 12843089087, "lat": 39.8482384, "lon": 15.7948657, "tags": {"amenity": "restaurant", "cuisine": "pizza", "name": "Arcomagno"}}, {"type": "node", "id": 12843112042, "lat": 39.8478858, "lon": 15.7936001, "tags": {"amenity": "restaurant", "cuisine": "pizza", "name": "Johnny's", "opening_hours": "18:30-23:00", "phone": "+39 246 5269861"}}, {"type": "node", "id": 12843112049, "lat": 39.8478605, "lon": 15.7933336, "tags": {"amenity": "cafe", "name": "Marbi"}}, {"type": "node", "id": 12843112051, "lat": 39.8477063, "lon": 15.7937546, "tags": {"amenity": "restaurant", "cuisine": "traditional", "name": "Da Nino"}}, {"type": "node", "id": 12843112052, "lat": 39.8477294, "lon": 15.7930297, "tags": {"amenity": "cafe", "name": "BarBaRossa"}}, {"type": "node", "id": 12843112097, "lat": 39.8491712, "lon": 15.794575, "tags": {"amenity": "restaurant", "name": "La vecchia guardia"}}, {"type": "way", "id": 188194609, "nodes": [1988236318, 1988236320, 6252244153, 1988236324, 1988236323, 6252244150, 6252244151, 1988236319, 6252244152, 1988236313, 1988236318], "tags": {"amenity": "restaurant", "building": "yes", "name": "Bar Ristoranti Grotta del Romito"}}, {"type": "way", "id": 292313383, "nodes": [2958625186, 2958625195, 2958625224, 2958625177, 2958625179, 2958625213, 2958625215, 2958625219, 2958625199, 2958625201, 2958625182, 2958625183, 2958625186], "tags": {"addr:city": "Scalea", "addr:postcode": "87029", "addr:street": "Via Lido", "amenity": "restaurant", "building": "yes", "cuisine": "regional;pizza;italian", "name": "Hotel Genova"}}, {"type": "way", "id": 430065156, "nodes": [4293291488, 4293292189, 4293292192, 4267004711, 4293291488], "tags": {"addr:city": "Castrovillari", "addr:housenumber": "103", "addr:postcode": "87012", "addr:street": "Corso Calabria", "amenity": "restaurant", "building": "yes", "name": "Il Portico"}}, {"type": "way", "id": 605208066, "nodes": [5740680620, 5740680821, 5740680822, 5740680823, 5740680620], "tags": {"amenity": "restaurant", "building": "yes", "name": "Mara Ranch"}}, {"type": "way", "id": 662648319, "nodes": [6203466641, 12731817530, 6203466642, 12731817543, 6203466643, 12731817547, 12731817548, 6203466644, 6203466645, 6203466646, 6203466641], "tags": {"amenity": "cafe", "building": "yes", "name": "Bar Melograno"}}, {"type": "way", "id": 662648321, "nodes": [6203466653, 6203466654, 6203466655, 6203466656, 6203466653], "tags": {"addr:housenumber": "3", "addr:street": "Via Rimoli", "amenity": "restaurant", "building": "yes", "cuisine": "italian;seafood", "name": "Insieme"}}, {"type": "way", "id": 662669438, "nodes": [6203650020, 6203650021, 6203650022, 6203650023, 6203650024, 6203650025, 6203650026, 6203650027, 6203650028, 6203650029, 6203650020], "tags": {"addr:housenumber": "1", "addr:street": "Lungomare Ruggero di Lauria", "amenity": "restaurant", "building": "yes", "cuisine": "pizza;italian", "indoor_seating": "yes", "name": "La Scogliera", "outdoor_seating": "yes", "wheelchair": "no"}}, {"type": "way", "id": 662669441, "nodes": [6203650030, 6203650031, 6203650032, 6203650033, 6203650030], "tags": {"amenity": "cafe", "building": "yes", "name": "Lido da Pietro"}}, {"type": "way", "id": 718422185, "nodes": [6746601499, 6746601500, 6746601501, 6746601502, 6746601503, 6746601504, 6746601499], "tags": {"addr:city": "Scalea", "addr:housenumber": "2", "addr:postcode": "87029", "addr:street": "Via Carlo Alberto dalla Chiesa", "air_conditioning": "yes", "amenity": "restaurant", "building": "yes", "cuisine": "pizza;italian", "name": "Ristorante Pizzeria Le Mimose", "opening_hours": "19:00-00:00", "phone": "+39 0985 20145"}}, {"type": "way", "id": 845468483, "nodes": [7887956453, 7887956454, 7887956455, 7887956456, 7887956453], "tags": {"amenity": "restaurant", "building": "yes", "description": "Maybe closed", "fixme": "Maybe closed", "name": "Ristorante La Betulla"}}, {"type": "way", "id": 847053438, "nodes": [7904128464, 7904128465, 7904128466, 7904128495, 7904128467, 7904128464], "tags": {"amenity": "restaurant", "building": "yes", "cuisine": "italian", "name": "Ristorante al Caminetto"}}, {"type": "way", "id": 847291933, "nodes": [7906527091, 7906527092, 7906527099, 7906527102, 7906527093, 7906527094, 7906527091], "tags": {"amenity": "restaurant", "building": "yes"}}, {"type": "way", "id": 941100794, "nodes": [8715611589, 8715611911, 8715611590, 8715611591, 11002060898, 11002060899, 8715611592, 8715611589], "tags": {"addr:city": "Tarsia", "addr:housenumber": "1", "addr:postcode": "87040", "addr:street": "Via Agriturismo Rende", "air_conditioning": "yes", "amenity": "restaurant", "building": "yes", "cuisine": "italian;mediterranean;pizza;pasta;fish;regional", "description": "Agriturismo e Ristorante con cucina tipica.", "diet:gluten_free": "yes", "diet:local": "yes", "diet:vegan": "yes", "diet:vegetarian": "yes", "internet_access": "yes", "internet_access:fee": "no", "name": "Agriturismo Rende", "name:it": "Agriturismo Rende", "phone": "+39 330661019", "toilets": "yes", "website": "https://www.facebook.com/Agriturismo-Rende-110722120766760/", "wheelchair": "yes"}}, {"type": "way", "id": 985773609, "nodes": [9113101832, 9113101833, 9113101834, 12413765161, 12413765160, 9113101835, 12413765159, 12413765158, 9113101832], "tags": {"amenity": "restaurant", "building": "yes", "description": "vineria"}}, {"type": "way", "id": 1085193605, "nodes": [9943533856, 9943533853, 9943533855, 9943533847, 9943533854, 9943533848, 9943533849, 9943533850, 9943533851, 9943533852, 9943533856], "tags": {"amenity": "restaurant", "building": "yes", "name": "Chiar di Luna"}}, {"type": "way", "id": 1086025018, "nodes": [9951105799, 9951105798, 9951105797, 9951105796, 9951105799], "tags": {"amenity": "restaurant", "building": "yes"}}, {"type": "way", "id": 1086399150, "nodes": [9954448559, 9954448556, 9954448557, 9954448558, 9954448559], "tags": {"amenity": "restaurant", "building": "yes"}}, {"type": "way", "id": 1089907726, "nodes": [9983806763, 9983806762, 9983806761, 9983806760, 9983806763], "tags": {"amenity": "cafe", "building": "yes"}}, {"type": "way", "id": 1149403641, "nodes": [10692954962, 10692954963, 10692954964, 10692954965, 10692954966, 10692954967, 10692954968, 10692954962], "tags": {"amenity": "restaurant", "building": "yes", "cuisine": "pizza"}}, {"type": "way", "id": 1149409434, "nodes": [10692996961, 10692996962, 10692996963, 10692996964, 10692996961], "tags": {"amenity": "restaurant", "building": "yes", "name": "Ristorante Bellavista"}}, {"type": "way", "id": 1149409469, "nodes": [10692997173, 10692997174, 10692997175, 10692997176, 10692997177, 10692997178, 10692997179, 10692997180, 10692997173], "tags": {"amenity": "restaurant", "building": "yes"}}, {"type": "way", "id": 1149417780, "nodes": [10693058367, 10693058368, 10693058369, 10693058370, 10693058367], "tags": {"amenity": "restaurant", "building": "yes"}}, {"type": "way", "id": 1149425674, "nodes": [10693107371, 10693107372, 10693107373, 10693107374, 10693107371], "tags": {"amenity": "restaurant", "building": "yes"}}, {"type": "way", "id": 1175903367, "nodes": [10926277510, 10926277511, 10926277512, 10926277513, 10926277510], "tags": {"amenity": "restaurant", "building": "yes", "cuisine": "pizza", "fee": "yes", "name": "Lid'Azzurro"}}, {"type": "way", "id": 1179953822, "nodes": [10959226889, 10959226890, 10959226891, 10959226892, 10959226893, 10959226894, 10959226895, 10959226896, 10959226889], "tags": {"addr:city": "Marina di Maratea", "addr:postcode": "85046", "addr:street": "Via Citrosello", "amenity": "restaurant", "building": "yes", "cuisine": "italian;seafood", "name": "La Locanda di Nettuno", "phone": "+390973879126", "website": "http://www.hotelmartino.net/ristorante.html"}}, {"type": "way", "id": 1184490544, "nodes": [11001912721, 11001912722, 11001912723, 11001912724, 11001912721], "tags": {"addr:city": "Tarsia", "addr:housenumber": "33", "addr:postcode": "87040", "addr:street": "Via Nuova", "amenity": "cafe", "building": "yes", "cuisine": "coffee_shop;bar", "name": "Sinopoli industrial caf\u00e8", "outdoor_seating": "yes", "wheelchair": "yes"}}, {"type": "way", "id": 1184490547, "nodes": [11001912743, 11001912756, 11001912744, 11001912745, 11001912746, 11001912747, 11001912748, 11001912743], "tags": {"air_conditioning": "yes", "amenity": "restaurant", "building": "yes", "cuisine": "italian;mediterraneo;regional;calabrese", "diet:local": "yes", "diet:vegan": "yes", "diet:vegetarian": "yes", "name": "Osteria del Lago", "toilets": "yes", "website": "https://www.facebook.com/OsteriaSulLagoTarsia", "wheelchair": "yes"}}, {"type": "way", "id": 1190864976, "nodes": [11057081881, 11057081882, 11057081883, 11057081884, 11057081885, 11057081886, 11057081887, 11057081881], "tags": {"amenity": "restaurant", "building": "yes", "name": "La Fiumana"}}, {"type": "way", "id": 1190875065, "nodes": [11057162189, 11057162190, 11057162191, 11057162192, 11057162189], "tags": {"amenity": "restaurant", "building": "yes", "cuisine": "pizza", "name": "Giagu\u00e0"}}, {"type": "way", "id": 1203541416, "nodes": [11156465372, 9979555117, 11156465373, 11156465374, 11156465372], "tags": {"amenity": "cafe", "building": "yes", "name": "Bar Spagnuolo"}}, {"type": "way", "id": 1297407727, "nodes": [12020608422, 12020608423, 12020608424, 12020608425, 12020608422], "tags": {"amenity": "restaurant", "building": "yes", "capacity": "200", "cuisine": "italian", "diet:local": "yes", "diet:non-vegetarian": "yes", "diet:vegetarian": "yes", "name": "Vecchio Frantoio", "phone": "0985876578", "website": "https://www.vecchiofrantoio.com/", "website:menu": "https://menu.vecchiofrantoio.com/menu"}}, {"type": "way", "id": 1297412113, "nodes": [12020669192, 12020669193, 12020669194, 12020669195, 12020669192], "tags": {"amenity": "restaurant", "building": "yes", "name": "Ristorante La Marinella", "phone": "3486369745"}}, {"type": "way", "id": 1349336119, "nodes": [12481898323, 12481898324, 12481898325, 12481898326, 12481898323], "tags": {"addr:city": "Morano Calabro", "addr:housenumber": "53", "addr:postcode": "87016", "addr:street": "Via Domenico Cappelli", "amenity": "restaurant", "building": "yes", "name": "L'antico borgo", "opening_hours": "Tu-Su 12:30-14:30,19:30-22:30", "phone": "+39 0981 30002", "website": "https://www.ristoranteanticoborgo.com/"}}, {"type": "way", "id": 1352781373, "nodes": [12517046373, 12517046374, 12517046375, 12517046376, 12517046373], "tags": {"addr:city": "Morano Calabro", "addr:street": "Contrada San Rocco", "amenity": "restaurant", "building": "yes", "cuisine": "regional;pizza", "name": "Ristorante San Rocco", "phone": "+393489336066"}}]}