{"version": 0.6, "generator": "Overpass API 0.7.62.7 375dc00a", "osm3s": {"timestamp_osm_base": "2025-06-14T15:03:48Z", "copyright": "The data included in this document is from www.openstreetmap.org. The data is made available under ODbL."}, "elements": [{"type": "node", "id": 4416335816, "lat": 39.1580123, "lon": 30.8633164, "tags": {"amenity": "cafe"}}, {"type": "node", "id": 4857334568, "lat": 39.2039389, "lon": 30.7144865, "tags": {"amenity": "cafe"}}, {"type": "node", "id": 5107001137, "lat": 39.1772043, "lon": 31.1495842, "tags": {"amenity": "restaurant"}}, {"type": "node", "id": 5221194335, "lat": 38.8901693, "lon": 31.0634199, "tags": {"amenity": "cafe"}}, {"type": "node", "id": 6533561176, "lat": 39.2300515, "lon": 30.7014404}, {"type": "node", "id": 6533561177, "lat": 39.2300862, "lon": 30.7015826}, {"type": "node", "id": 6533561178, "lat": 39.2299949, "lon": 30.7016182}, {"type": "node", "id": 6533561179, "lat": 39.2299602, "lon": 30.7014688}, {"type": "node", "id": 7001158504, "lat": 38.9940046, "lon": 31.1299775, "tags": {"amenity": "restaurant", "name": "Yunus Dinlenme Tesisi"}}, {"type": "node", "id": 7235872829, "lat": 38.844746, "lon": 30.7448188, "tags": {"amenity": "restaurant", "cuisine": "turkish", "name": "D\u00fcnya K\u00f6fte Et Mangal"}}, {"type": "node", "id": 11035602572, "lat": 38.9233847, "lon": 30.89263, "tags": {"amenity": "restaurant", "check_date": "2023-07-09", "cuisine": "et;barbecue", "diet:meat": "yes", "name": "K\u00f6ro\u011flu Et & Mangal - \u00c7ay & Kahvalt\u0131", "outdoor_seating": "yes", "payment:mastercard": "yes", "payment:visa": "yes", "takeaway": "no", "toilets": "yes", "wheelchair": "yes"}}, {"type": "node", "id": 12623246240, "lat": 39.0202806, "lon": 31.1509932, "tags": {"amenity": "restaurant", "cuisine": "steak_house", "name": "K\u00f6\u015fem D\u00f6ner K\u00f6fte ve Izgara Salonu"}}, {"type": "node", "id": 12623246252, "lat": 39.019946, "lon": 31.1515636, "tags": {"amenity": "restaurant", "name": "Muzaffer Restorant"}}, {"type": "node", "id": 12623246253, "lat": 39.0203655, "lon": 31.1503277, "tags": {"amenity": "restaurant", "name": "\u015eahin K\u00f6fte Kebap Salonu"}}, {"type": "node", "id": 12623246254, "lat": 39.0196912, "lon": 31.1526677, "tags": {"amenity": "restaurant", "cuisine": "turkish", "name": "\u00c7\u0131t\u0131r Kokore\u00e7"}}, {"type": "node", "id": 12623246255, "lat": 39.0195952, "lon": 31.1522803, "tags": {"amenity": "restaurant", "name": "Y\u0131ld\u0131z Restaurant"}}, {"type": "node", "id": 12623246256, "lat": 39.019657, "lon": 31.1516761, "tags": {"amenity": "restaurant", "cuisine": "turkish", "name": "Seyit Uata"}}, {"type": "node", "id": 12623246257, "lat": 39.0183549, "lon": 31.1495666, "tags": {"amenity": "restaurant", "name": "Bo\u011fzai\u00e7i Restaurant"}}, {"type": "node", "id": 12623282809, "lat": 39.0199779, "lon": 31.1498059, "tags": {"addr:district": "Emirda\u011f", "amenity": "restaurant", "name": "Abone \u00c7orba Kebap Salonu"}}, {"type": "node", "id": 12623282810, "lat": 39.0199664, "lon": 31.1497429, "tags": {"addr:district": "Emirda\u011f", "amenity": "restaurant", "name": "Abone Pide Salonu"}}, {"type": "node", "id": 12623282811, "lat": 39.0196986, "lon": 31.149704, "tags": {"amenity": "restaurant", "name": "\u0130nan Restaurant"}}, {"type": "node", "id": 12628613593, "lat": 39.0209642, "lon": 31.1510089, "tags": {"addr:district": "Emirda\u011f", "amenity": "restaurant", "name": "Ziraat Odas\u0131 Restorant"}}, {"type": "node", "id": 12628731720, "lat": 39.0201796, "lon": 31.1560657, "tags": {"amenity": "restaurant", "name": "Ata Pide Salonu"}}, {"type": "node", "id": 12690741439, "lat": 39.1030369, "lon": 31.1585215, "tags": {"amenity": "restaurant", "name": "Ayd\u0131nlar Dinlenme Tesisi"}}, {"type": "node", "id": 12690741440, "lat": 39.0558885, "lon": 31.0766807, "tags": {"amenity": "restaurant", "name": "G\u00f6m\u00fc Et Mangal"}}, {"type": "node", "id": 12690741450, "lat": 38.95744, "lon": 30.9113355, "tags": {"amenity": "restaurant", "name": "\u00c7aml\u0131k Restaurant"}}, {"type": "node", "id": 12690741451, "lat": 38.9212552, "lon": 30.8969575, "tags": {"amenity": "restaurant", "name": "Cumhuriyet Sucuklar\u0131 K\u00f6ro\u011flu Tesisleri"}}, {"type": "way", "id": 695792307, "nodes": [6533561176, 6533561177, 6533561178, 6533561179, 6533561176], "tags": {"amenity": "restaurant", "building": "yes", "name": "Midas Han Restoran"}}]}