{"version": 0.6, "generator": "Overpass API 0.7.62.7 375dc00a", "osm3s": {"timestamp_osm_base": "2025-06-14T13:16:00Z", "copyright": "The data included in this document is from www.openstreetmap.org. The data is made available under ODbL."}, "elements": [{"type": "node", "id": 3012258791, "lat": 36.7676759, "lon": 4.9646766}, {"type": "node", "id": 3012265840, "lat": 36.7679495, "lon": 4.9647773}, {"type": "node", "id": 3265279744, "lat": 36.8099889, "lon": 4.9843391, "tags": {"addr:city": "B\u00e9ja\u00efa", "addr:country": "DZ", "addr:street": "Le Thais Boulimat", "amenity": "restaurant", "cuisine": "regional", "name": "Le Tha\u00efs", "smoking": "separated", "tourism": "hotel"}}, {"type": "node", "id": 3771046141, "lat": 36.8231999, "lon": 4.949085, "tags": {"amenity": "restaurant", "name": "Resto", "name:fr": "Resto"}}, {"type": "node", "id": 4236730890, "lat": 36.8276737, "lon": 4.9382958, "tags": {"addr:street": "Route de Boulimat", "addr:street:ar": "\u0637\u0631\u064a\u0642 \u0628\u0648\u0644\u064a\u0645\u0627\u0637", "amenity": "cafe"}}, {"type": "node", "id": 5128462321, "lat": 36.8296406, "lon": 4.9361891, "tags": {"amenity": "restaurant", "name": "\u0645\u0637\u0639\u0645 \u0628\u064a\u062a\u0632\u0627 \u0627\u0644\u0634\u064a\u062e \u0639\u0627\u0645\u0631", "name:ar": "\u0645\u0637\u0639\u0645 \u0628\u064a\u062a\u0632\u0627 \u0627\u0644\u0634\u064a\u062e \u0639\u0627\u0645\u0631", "name:en": "Cheikh Amer Pizzeria", "name:fr": "Pizz\u00e9ria Cheikh Amer"}}, {"type": "node", "id": 10962500741, "lat": 36.767651, "lon": 4.964777}, {"type": "node", "id": 10962501092, "lat": 36.7679457, "lon": 4.9648898}, {"type": "node", "id": 10962501257, "lat": 36.767585, "lon": 4.9646809}, {"type": "node", "id": 10962501293, "lat": 36.7679071, "lon": 4.9648878}, {"type": "node", "id": 10962501386, "lat": 36.7677842, "lon": 4.9648625}, {"type": "node", "id": 10962501515, "lat": 36.7676789, "lon": 4.9647757}, {"type": "node", "id": 10962501859, "lat": 36.7676573, "lon": 4.9649833}, {"type": "node", "id": 10962502069, "lat": 36.7679067, "lon": 4.9648985}, {"type": "node", "id": 10962502287, "lat": 36.7677873, "lon": 4.9647688}, {"type": "node", "id": 10962502631, "lat": 36.7675942, "lon": 4.9649863}, {"type": "node", "id": 10962502808, "lat": 36.7678132, "lon": 4.9648935}, {"type": "node", "id": 10962503172, "lat": 36.7678142, "lon": 4.9648641}, {"type": "way", "id": 1180334245, "nodes": [10962502808, 10962502069, 10962501293, 10962501092, 3012265840, 10962502287, 10962501386, 10962503172, 10962502808], "tags": {"addr:country": "DZ", "amenity": "cafe", "building": "yes", "name": "Cafeteria", "source": "FB: Algerie Mapper Team"}}, {"type": "way", "id": 1180334246, "nodes": [10962502631, 10962501859, 10962500741, 10962501515, 3012258791, 10962501257, 10962502631], "tags": {"addr:country": "DZ", "amenity": "cafe", "building": "yes", "name": "Cafeteria", "source": "FB: Algerie Mapper Team"}}]}