{"version": 0.6, "generator": "Overpass API 0.7.62.7 375dc00a", "osm3s": {"timestamp_osm_base": "2025-06-14T13:10:55Z", "copyright": "The data included in this document is from www.openstreetmap.org. The data is made available under ODbL."}, "elements": [{"type": "node", "id": 3639673799, "lat": 32.2689151, "lon": 3.6319817, "tags": {"addr:city": "\u0645\u062a\u0644\u064a\u0644\u064a \u0627\u0644\u0634\u0639\u0627\u0646\u0628\u0629", "addr:city:ar": "\u0645\u062a\u0644\u064a\u0644\u064a \u0627\u0644\u0634\u0639\u0627\u0646\u0628\u0629", "amenity": "cafe"}}, {"type": "node", "id": 3639679416, "lat": 32.2622925, "lon": 3.6264617, "tags": {"addr:country": "DZ", "amenity": "cafe"}}, {"type": "node", "id": 3639681107, "lat": 32.2625012, "lon": 3.6269284, "tags": {"addr:country": "DZ", "amenity": "cafe"}}, {"type": "node", "id": 4206086513, "lat": 32.516982, "lon": 3.6712372, "tags": {"addr:country": "DZ", "amenity": "restaurant", "name": "Resto", "name:fr": "Resto"}}, {"type": "node", "id": 5191139721, "lat": 32.4923058, "lon": 3.6506267, "tags": {"addr:country": "DZ", "amenity": "restaurant", "name": "Resto", "name:fr": "Resto"}}, {"type": "node", "id": 11364946716, "lat": 32.4836615, "lon": 3.6798454, "tags": {"addr:city": "Gharda\u00efa", "addr:postcode": "47000", "addr:street": "Avenue de l'ALN", "air_conditioning": "yes", "amenity": "restaurant", "cuisine": "pizza;burger;sandwich;chicken", "delivery": "yes", "name": "\u0645\u0637\u0639\u0645 \u0627\u0644\u0632\u0639\u064a\u0645", "opening_hours": "Sa-Thu 08:30-23:00", "phone": "+213550474716"}}]}