{"version": 0.6, "generator": "Overpass API 0.7.62.7 375dc00a", "osm3s": {"timestamp_osm_base": "2025-06-14T13:49:28Z", "copyright": "The data included in this document is from www.openstreetmap.org. The data is made available under ODbL."}, "elements": [{"type": "node", "id": 1986800126, "lat": 32.7517216, "lon": 12.658803, "tags": {"amenity": "cafe", "name": "Today cafe"}}, {"type": "node", "id": 1986817259, "lat": 32.747264, "lon": 12.7290715, "tags": {"amenity": "cafe"}}, {"type": "node", "id": 1986999930, "lat": 32.7932269, "lon": 12.6141302, "tags": {"amenity": "cafe"}}, {"type": "node", "id": 1987027232, "lat": 32.752565, "lon": 12.6294381, "tags": {"addr:street": "\u0627\u0644\u062d\u0633\u064a \u0634\u0627\u0631\u0639", "amenity": "cafe", "name": "\u0645\u0642\u0647\u0649 \u0639\u0627\u062f\u0644 \u0627\u0644\u0628\u0643\u0648\u0634", "name:ar": "\u0645\u0642\u0647\u0649 \u0639\u0627\u062f\u0644 \u0627\u0644\u0628\u0643\u0648\u0634", "name:en": "Adel Cafe"}}, {"type": "node", "id": 4052734472, "lat": 32.7739713, "lon": 13.0223224, "tags": {"addr:city": "Njili", "addr:street": "Njila", "amenity": "cafe", "cuisine": "coffee_shop", "internet_access": "wlan", "name": "\u0642\u0647\u0648\u0629 \u0633\u0648\u0645\u064a\u0629 \u0639\u0643\u0633\u0629 \u0631\u0642\u064a\u0644\u0629", "name:ar": "\u0642\u0647\u0648\u0629 \u0633\u0648\u0645\u064a\u0629 \u0639\u0643\u0633\u0629 \u0631\u0642\u064a\u0644\u0629", "name:en": "somia", "opening_hours": "08:00-23:00"}}, {"type": "node", "id": 4194453590, "lat": 32.7627361, "lon": 12.7190723, "tags": {"amenity": "cafe", "name": "\u0645\u0642\u0647\u0649 \u0635\u0627\u0644\u0629 \u0627\u0644\u0634\u0631\u0641\u0627\u0621", "name:ar": "\u0645\u0642\u0647\u0649 \u0635\u0627\u0644\u0629 \u0627\u0644\u0634\u0631\u0641\u0627\u0621", "name:en": "Coffee Alsherfa"}}, {"type": "node", "id": 4244716591, "lat": 32.7989093, "lon": 13.0165457, "tags": {"amenity": "cafe", "name": "\u0645\u0642\u0647\u0649 \u0642\u0648\u064a\u0639\u0629 \u062c\u0646\u0632\u0648\u0631", "name:ar": "\u0645\u0642\u0647\u0649 \u0642\u0648\u064a\u0639\u0629 \u062c\u0646\u0632\u0648\u0631", "name:en": "Guiat janzor caffe"}}, {"type": "node", "id": 4252686502, "lat": 32.8090911, "lon": 13.0078162, "tags": {"amenity": "cafe", "name": "\u0645\u0642\u0647\u0649 \u0627\u0644\u0643\u0647\u0641 2", "name:ar": "\u0645\u0642\u0647\u0649 \u0627\u0644\u0643\u0647\u0641 2", "name:en": "Cafe"}}, {"type": "node", "id": 4252736891, "lat": 32.8118822, "lon": 13.0100704, "tags": {"amenity": "restaurant", "name": "\u0645\u0634\u0627\u0648\u064a \u0627\u0644\u0634\u0627\u0645", "name:ar": "\u0645\u0634\u0627\u0648\u064a \u0627\u0644\u0634\u0627\u0645", "name:en": "Restaurant"}}, {"type": "node", "id": 4253078494, "lat": 32.8121716, "lon": 13.009556, "tags": {"amenity": "cafe", "name": "\u0628\u064a\u062a\u0632\u0627 \u0627\u0644\u0646\u0648\u0627\u0633 2", "name:ar": "\u0628\u064a\u062a\u0632\u0627 \u0627\u0644\u0646\u0648\u0627\u0633 2", "name:en": "Pizza"}}, {"type": "node", "id": 4253181889, "lat": 32.8129822, "lon": 13.0134558, "tags": {"amenity": "cafe", "name": "\u0645\u0642\u0647\u0649 \u0627\u0644\u0628\u0648\u0639\u0629", "name:ar": "\u0645\u0642\u0647\u0649 \u0627\u0644\u0628\u0648\u0639\u0629", "name:en": "Cafe"}}, {"type": "node", "id": 4254482292, "lat": 32.7945691, "lon": 13.0236108, "tags": {"amenity": "restaurant"}}, {"type": "node", "id": 4260028891, "lat": 32.7951672, "lon": 13.0227905, "tags": {"amenity": "cafe", "name": "\u0645\u0642\u0647\u0649 \u0627\u0644\u062d\u0646\u0627\u0634\u064a", "name:ar": "\u0645\u0642\u0647\u0649 \u0627\u0644\u062d\u0646\u0627\u0634\u064a", "name:en": "Cafe"}}, {"type": "node", "id": 4260049989, "lat": 32.7993591, "lon": 13.0246343, "tags": {"amenity": "restaurant", "name": "\u0645\u0637\u0639\u0645 \u0627\u0644\u0628\u0627\u062f\u064a\u0629 \u0644\u0644\u0628\u0648\u0631\u062f\u064a\u0645", "name:ar": "\u0645\u0637\u0639\u0645 \u0627\u0644\u0628\u0627\u062f\u064a\u0629 \u0644\u0644\u0628\u0648\u0631\u062f\u064a\u0645", "name:en": "Restaurant"}}, {"type": "node", "id": 4260084853, "lat": 32.8250364, "lon": 13.0195516, "tags": {"amenity": "restaurant", "name": "\u0645\u0637\u0639\u0645 \u0648\u0645\u0642\u0647\u0649 \u0627\u0644\u0643\u0627\u0631\u064a\u0628\u064a", "name:ar": "\u0645\u0637\u0639\u0645 \u0648\u0645\u0642\u0647\u0649 \u0627\u0644\u0643\u0627\u0631\u064a\u0628\u064a"}}, {"type": "node", "id": 4260113267, "lat": 32.8100854, "lon": 13.0097694, "tags": {"amenity": "cafe", "name": "\u0645\u0642\u0647\u0649 \u0627\u0644\u0643\u0647\u0641", "name:ar": "\u0645\u0642\u0647\u0649 \u0627\u0644\u0643\u0647\u0641", "name:en": "Cafe"}}, {"type": "node", "id": 4260131555, "lat": 32.7674419, "lon": 13.0141103, "tags": {"amenity": "cafe", "name": "\u0645\u0642\u0647\u0649 \u0627\u0633\u0637\u0646\u0628\u0648\u0644", "name:ar": "\u0645\u0642\u0647\u0649 \u0627\u0633\u0637\u0646\u0628\u0648\u0644", "name:en": "Cafe"}}, {"type": "node", "id": 4260194724, "lat": 32.8157855, "lon": 13.008101, "tags": {"amenity": "cafe", "name": "\u0627\u0644\u0643\u0634\u0643", "name:ar": "\u0627\u0644\u0643\u0634\u0643"}}, {"type": "node", "id": 4260229675, "lat": 32.8230219, "lon": 13.0112738, "tags": {"amenity": "restaurant", "name": "\u0645\u0643\u0633\u062a", "name:ar": "\u0645\u0643\u0633\u062a", "name:en": "MEXET Restaurant"}}, {"type": "node", "id": 4264200793, "lat": 32.8145177, "lon": 13.0130198, "tags": {"amenity": "cafe", "name": "\u0645\u0642\u0647\u0649 \u0627\u0644\u0645\u0639\u0627\u0632\u064a\u0645", "name:ar": "\u0645\u0642\u0647\u0649 \u0627\u0644\u0645\u0639\u0627\u0632\u064a\u0645", "name:en": "Cafe"}}, {"type": "node", "id": 4264225993, "lat": 32.8190513, "lon": 13.0117009, "tags": {"amenity": "cafe", "name": "\u0645\u0642\u0647\u0649 \u0627\u0644\u062c\u0632\u064a\u0631\u0629", "name:ar": "\u0645\u0642\u0647\u0649 \u0627\u0644\u062c\u0632\u064a\u0631\u0629", "name:en": "Cafe"}}, {"type": "node", "id": 4265714494, "lat": 32.8300808, "lon": 13.0208081, "tags": {"amenity": "cafe", "name": "\u0643\u0627\u0641\u064a\u0647 \u0631\u0648\u0645\u0627", "name:ar": "\u0643\u0627\u0641\u064a\u0647 \u0631\u0648\u0645\u0627", "name:en": "Roma Cafe"}}, {"type": "node", "id": 4265725091, "lat": 32.8128148, "lon": 13.0094029, "tags": {"amenity": "cafe", "name": "\u0645\u0642\u0647\u0649 \u0627\u0644\u0633\u0644\u0627\u0645", "name:ar": "\u0645\u0642\u0647\u0649 \u0627\u0644\u0633\u0644\u0627\u0645", "name:en": "Cafe"}}, {"type": "node", "id": 4269479996, "lat": 32.8096792, "lon": 13.0094167, "tags": {"amenity": "cafe", "name": "\u0645\u0642\u0647\u0649 \u0627\u0644\u0645\u0631\u062d\u0648\u0645 \u0639\u0644\u064a \u0627\u0644\u0639\u0648\u064a\u0628", "name:ar": "\u0645\u0642\u0647\u0649 \u0627\u0644\u0645\u0631\u062d\u0648\u0645 \u0639\u0644\u064a \u0627\u0644\u0639\u0648\u064a\u0628", "name:en": "Cafe"}}, {"type": "node", "id": 4269503998, "lat": 32.8106968, "lon": 13.013778, "tags": {"amenity": "cafe", "cuisine": "cake;coffee_shop;crepe;diner;ice_cream;pancake;tea", "internet_access": "wlan", "name": "\u0645\u0642\u0647\u0649 \u0627\u0644\u0628\u0631\u062c \u0644\u0644\u0645\u0623\u0643\u0648\u0644\u0627\u062a \u0627\u0644\u062e\u0641\u064a\u0641\u0629 \u0648 \u0627\u0644\u0627\u0641\u0637\u0627\u0631 \u0627\u0644\u0635\u0628\u0627\u062d\u064a", "name:ar": "\u0645\u0642\u0647\u0649 \u0627\u0644\u0628\u0631\u062c \u0644\u0644\u0645\u0623\u0643\u0648\u0644\u0627\u062a \u0627\u0644\u062e\u0641\u064a\u0641\u0629 \u0648 \u0627\u0644\u0627\u0641\u0637\u0627\u0631 \u0627\u0644\u0635\u0628\u0627\u062d\u064a", "name:en": "Cafe"}}, {"type": "node", "id": 4269507109, "lat": 32.8098355, "lon": 13.0096308, "tags": {"amenity": "cafe", "name": "\u0628\u0634\u0627\u0631 \u0643\u0627\u0641\u064a\u0647", "name:ar": "\u0628\u0634\u0627\u0631 \u0643\u0627\u0641\u064a\u0647", "name:en": "Cafe"}}, {"type": "node", "id": 4269548693, "lat": 32.8105453, "lon": 13.0103935, "tags": {"amenity": "restaurant", "name": "\u0643\u0628\u0627\u0628 \u0627\u0644\u0633\u0627\u062d\u0644 3", "name:ar": "\u0643\u0628\u0627\u0628 \u0627\u0644\u0633\u0627\u062d\u0644 3", "name:en": "Kepap"}}, {"type": "node", "id": 4269549296, "lat": 32.8100252, "lon": 13.009851, "tags": {"amenity": "cafe", "name": "\u0627\u0644\u0643\u0647\u0641 1", "name:ar": "\u0627\u0644\u0643\u0647\u0641 1", "name:en": "Cafe"}}, {"type": "node", "id": 4269910894, "lat": 32.815778, "lon": 13.0128357, "tags": {"amenity": "restaurant", "name": "\u0645\u0637\u0639\u0645 \u0627\u0644\u0645\u0627\u0626\u062f\u0629", "name:ar": "\u0645\u0637\u0639\u0645 \u0627\u0644\u0645\u0627\u0626\u062f\u0629", "name:en": "Restaurant"}}, {"type": "node", "id": 4269929889, "lat": 32.8266087, "lon": 13.0139092, "tags": {"amenity": "restaurant", "name": "\u0645\u0637\u0639\u0645 \u0627\u0644\u064a\u0631\u0645\u0648\u0643 \u0644\u0644\u0645\u0624\u0643\u0644\u0627\u062a \u0627\u0644\u0634\u0639\u0628\u064a\u0629", "name:ar": "\u0645\u0637\u0639\u0645 \u0627\u0644\u064a\u0631\u0645\u0648\u0643 \u0644\u0644\u0645\u0624\u0643\u0644\u0627\u062a \u0627\u0644\u0634\u0639\u0628\u064a\u0629", "name:en": "LibyanTraditional Food"}}, {"type": "node", "id": 4278361091, "lat": 32.8209438, "lon": 13.0088288, "tags": {"amenity": "restaurant", "name": "\u0645\u0634\u0648\u064a\u0627\u062a \u0628\u0627\u0628 \u0627\u0644\u062e\u064a\u0631", "name:ar": "\u0645\u0634\u0648\u064a\u0627\u062a \u0628\u0627\u0628 \u0627\u0644\u062e\u064a\u0631", "name:en": "Bab Al Bahr Grills"}}, {"type": "node", "id": 4278367193, "lat": 32.8100741, "lon": 13.009471, "tags": {"amenity": "cafe", "name": "\u0645\u064a\u0627\u0645\u064a", "name:ar": "\u0645\u064a\u0627\u0645\u064a", "name:en": "Cafe"}}, {"type": "node", "id": 4278367991, "lat": 32.8278876, "lon": 13.021474, "tags": {"amenity": "cafe", "name": "\u0643\u0627\u0644\u0627\u0645\u0627\u0631 \u0644\u0644\u0645\u0623\u0643\u0648\u0644\u0627\u062a \u0627\u0644\u0628\u062d\u0631\u064a\u0629", "name:ar": "\u0643\u0627\u0644\u0627\u0645\u0627\u0631 \u0644\u0644\u0645\u0623\u0643\u0648\u0644\u0627\u062a \u0627\u0644\u0628\u062d\u0631\u064a\u0629", "name:en": "Calamari Seafood"}}, {"type": "node", "id": 4278367993, "lat": 32.8172865, "lon": 13.0077745, "tags": {"amenity": "cafe", "name": "\u0639\u0646\u062a\u0648\u062a", "name:ar": "\u0639\u0646\u062a\u0648\u062a", "name:en": "Cafe"}}, {"type": "node", "id": 4278370190, "lat": 32.8254207, "lon": 13.0126229, "tags": {"amenity": "cafe", "name": "\u0645\u0642\u0647\u0649 \u062c\u0627\u062f", "name:ar": "\u0645\u0642\u0647\u0649 \u062c\u0627\u062f", "name:en": "Jad Cafe"}}, {"type": "node", "id": 4355149347, "lat": 32.8014697, "lon": 13.0149757, "tags": {"amenity": "cafe", "name": "\u0645\u0642\u0647\u0649", "name:ar": "\u0645\u0642\u0647\u0649", "name:en": "Cafe"}}, {"type": "node", "id": 4373368493, "lat": 32.7627128, "lon": 12.5645857, "tags": {"amenity": "cafe", "internet_access": "yes", "internet_access:fee": "yes", "name": "\u0645\u0642\u0647\u0649 \u0646\u0627\u0631\u0646\u062c", "name:ar": "\u0645\u0642\u0647\u0649 \u0646\u0627\u0631\u0646\u062c", "name:en": "Naranj caf\u00e9", "outdoor_seating": "yes"}}, {"type": "node", "id": 4373368494, "lat": 32.7834498, "lon": 12.517401, "tags": {"amenity": "restaurant", "name": "\u0645\u0637\u0639\u0645 \u062d\u062f\u0627\u0626\u0642 \u0627\u0633\u0637\u0646\u0628\u0648\u0644", "name:ar": "\u0645\u0637\u0639\u0645 \u062d\u062f\u0627\u0626\u0642 \u0627\u0633\u0637\u0646\u0628\u0648\u0644", "name:en": "Istanbul Restaurant"}}, {"type": "node", "id": 4385906393, "lat": 32.7678252, "lon": 12.7547377, "tags": {"amenity": "restaurant", "name": "\u0627\u0644\u062d\u0641\u0631\u0629 \u0644\u0644\u0627\u0633\u0645\u0627\u0643", "name:ar": "\u0627\u0644\u062d\u0641\u0631\u0629 \u0644\u0644\u0627\u0633\u0645\u0627\u0643", "name:en": "Seafood Restaurant"}}, {"type": "node", "id": 4386833394, "lat": 32.7900708, "lon": 13.0232721, "tags": {"amenity": "cafe", "name": "\u0643\u0627\u0641\u064a \u0631\u0627\u0645\u064a", "name:ar": "\u0643\u0627\u0641\u064a \u0631\u0627\u0645\u064a", "name:en": "Cafe"}}, {"type": "node", "id": 4386876792, "lat": 32.8145608, "lon": 13.0056019, "tags": {"amenity": "cafe", "name": "\u0645\u0642\u0647\u0649 \u0627\u0644\u0631\u0627\u0646\u062f\u064a", "name:ar": "\u0645\u0642\u0647\u0649 \u0627\u0644\u0631\u0627\u0646\u062f\u064a", "name:en": "Randy Cafe"}}, {"type": "node", "id": 4389060193, "lat": 32.7677605, "lon": 12.7547995, "tags": {"amenity": "restaurant", "name": "\u0627\u0644\u0648\u0644\u064a\u0645\u0629", "name:ar": "\u0627\u0644\u062d\u0641\u0631\u0629 \u0644\u0644\u0623\u0633\u0645\u0627\u0643", "name:en": "Al huffra for fish"}}, {"type": "node", "id": 4400885795, "lat": 32.7815555, "lon": 12.7362402, "tags": {"amenity": "cafe", "name": "\u0628\u0627\u0628\u0627\u0631\u0648\u062a\u064a \u0644\u0644\u062d\u0644\u0648\u064a\u0627\u062a", "name:ar": "\u0628\u0627\u0628\u0627\u0631\u0648\u062a\u064a \u0644\u0644\u062d\u0644\u0648\u064a\u0627\u062a", "shop": "confectionery"}}, {"type": "node", "id": 4406632982, "lat": 32.7934646, "lon": 12.8426416, "tags": {"amenity": "restaurant", "name": "\u0645\u0637\u0639\u0645 \u0623\u0633\u0627\u0631\u064a\u0627 Asaria restaurant", "name:ar": "\u0645\u0637\u0639\u0645 \u0623\u0633\u0627\u0631\u064a\u0627 Asaria restaurant", "name:en": "Asaria restaurant"}}, {"type": "node", "id": 4417579497, "lat": 32.7647881, "lon": 12.7533847, "tags": {"amenity": "cafe", "name": "LEE'S", "name:ar": "LEE'S"}}, {"type": "node", "id": 4418018990, "lat": 32.7652402, "lon": 12.753718, "tags": {"amenity": "restaurant", "name": "\u0645\u0637\u0639\u0645 \u0646\u0633\u0645\u0629 Nessma restaurant", "name:ar": "\u0645\u0637\u0639\u0645 \u0646\u0633\u0645\u0629", "name:en": "Nessma restaurant"}}, {"type": "node", "id": 4420438792, "lat": 32.7680034, "lon": 12.7224228, "tags": {"amenity": "cafe", "name": "\u0645\u0642\u0647\u0649 \u0643\u0648\u0633\u062a\u0627", "name:ar": "\u0645\u0642\u0647\u0649 \u0643\u0648\u0633\u062a\u0627"}}, {"type": "node", "id": 4426303428, "lat": 32.7611001, "lon": 12.7476009, "tags": {"amenity": "cafe", "name": "Rapidos \u0631\u0627\u0628\u064a\u062f\u0648\u0633", "name:ar": "Rapidos \u0631\u0627\u0628\u064a\u062f\u0648\u0633"}}, {"type": "node", "id": 4426315331, "lat": 32.7658403, "lon": 12.7560243, "tags": {"amenity": "cafe", "name": "Yamen cafe \u0645\u0642\u0647\u0649 \u064a\u0627\u0645\u0646", "name:ar": "Yamen cafe \u0645\u0642\u0647\u0649 \u064a\u0627\u0645\u0646"}}, {"type": "node", "id": 4426327090, "lat": 32.759911, "lon": 12.7456081, "tags": {"amenity": "restaurant", "fixme": "name, name:ar mismatch.", "name": "\u0641\u064a\u0646\u064a\u0633\u064a\u0627 \u0643\u0627\u0641\u064a", "name:ar": "\u0641\u064a\u0646\u064a\u0633\u064a\u0627 venicia", "name:en": "Venice Cafe"}}, {"type": "node", "id": 4432983894, "lat": 32.7604876, "lon": 12.7357977, "tags": {"amenity": "cafe", "name": "\u0642\u0647\u0648\u0629 \u0639\u0635\u0627\u0645", "name:ar": "\u0642\u0647\u0648\u0629 \u0639\u0635\u0627\u0645", "name:en": "Caf\u00e9 Isam", "name:fr": "Caf\u00e9 Isam"}}, {"type": "node", "id": 4433061289, "lat": 32.7827464, "lon": 12.7432375, "tags": {"amenity": "cafe", "name": "\u0645\u0642\u0647\u0649 \u0641\u0647\u062f", "name:ar": "\u0645\u0642\u0647\u0649 \u0641\u0647\u062f"}}, {"type": "node", "id": 4441798991, "lat": 32.7547282, "lon": 12.7339063, "tags": {"amenity": "cafe", "name": "\u0646\u0627\u062f\u064a \u0645\u0648\u0631\u064a\u0627\u0644", "name:ar": "\u0646\u0627\u062f\u064a \u0645\u0648\u0631\u064a\u0627\u0644", "name:en": "Moryal Coffee"}}, {"type": "node", "id": 4441892489, "lat": 32.7586958, "lon": 12.7222461, "tags": {"amenity": "cafe", "name": "\u0645\u0642\u0647\u0649 \u062a\u0642\u0627\u0637\u0639 \u0627\u0644\u062d\u0636\u064a\u0631\u064a", "name:ar": "\u0645\u0642\u0647\u0649 \u062a\u0642\u0627\u0637\u0639 \u0627\u0644\u062d\u0636\u064a\u0631\u064a", "name:en": "Traffic Cafe"}}, {"type": "node", "id": 4442083290, "lat": 32.7520273, "lon": 12.7288893, "tags": {"amenity": "cafe", "name": "\u062c\u0648\u0647\u0631\u0629 \u0627\u0644\u0645\u064a\u062f\u0627\u0646. ... \u0627\u0641\u0637\u0627\u0631 \u0635\u0628\u0627\u062d\u064a \u0648\u062c\u0628\u0627\u062a", "name:ar": "\u062c\u0648\u0647\u0631\u0629 \u0627\u0644\u0645\u064a\u062f\u0627\u0646. ... \u0627\u0641\u0637\u0627\u0631 \u0635\u0628\u0627\u062d\u064a \u0648\u062c\u0628\u0627\u062a"}}, {"type": "node", "id": 4442099489, "lat": 32.7521058, "lon": 12.7288405, "tags": {"amenity": "cafe", "name": "\u0631\u0645\u0636\u0627\u0646 \u0627\u0628\u0648\u062f\u0631\u0628\u0627\u0644\u0629 \u0644\u0644\u0645\u0671\u0643\u0648\u0644\u0627\u062a \u0627\u0644\u062e\u0641\u064a\u0641\u0629", "name:ar": "\u0631\u0645\u0636\u0627\u0646 \u0627\u0628\u0648\u062f\u0631\u0628\u0627\u0644\u0629 \u0644\u0644\u0645\u0671\u0643\u0648\u0644\u0627\u062a \u0627\u0644\u062e\u0641\u064a\u0641\u0629"}}, {"type": "node", "id": 4445204390, "lat": 32.8113627, "lon": 13.0111407, "tags": {"amenity": "restaurant", "name": "\u0645\u0637\u0639\u0645 \u0627\u0644\u0631\u064a\u0641", "name:ar": "\u0645\u0637\u0639\u0645 \u0627\u0644\u0631\u064a\u0641", "name:en": "Pizza"}}, {"type": "node", "id": 4451748494, "lat": 32.7949839, "lon": 13.0228836, "tags": {"amenity": "cafe", "name": "\u0645\u0642\u0647\u0649 \u0628\u0648\u0646\u062c\u0648\u0631\u0646\u0648", "name:ar": "\u0645\u0642\u0647\u0649 \u0628\u0648\u0646\u062c\u0648\u0631\u0646\u0648", "name:en": "Cafe"}}, {"type": "node", "id": 4451805893, "lat": 32.8029541, "lon": 13.0146686, "tags": {"amenity": "cafe", "name": "\u0643\u0627\u0641\u064a", "name:ar": "\u0643\u0627\u0641\u064a", "name:en": "Cafe"}}, {"type": "node", "id": 4451806691, "lat": 32.8294109, "lon": 13.0150104, "tags": {"amenity": "restaurant", "name": "\u0642\u0647\u0648\u0629 \u0627\u0644\u064a\u0631\u0645\u0648\u0643 (\u0627\u0644\u0643\u0631\u0648\u0627\u0646)", "name:ar": "\u0627\u0644\u0643\u0631\u0648\u0627\u0646 \u0644\u0634\u0648\u064a \u0627\u0644\u0623\u0633\u0645\u0627\u0643", "name:en": "Al-Yarmook Coffee (Karwan)"}}, {"type": "node", "id": 4453248790, "lat": 32.8286517, "lon": 13.0209406, "tags": {"amenity": "cafe", "name": "\u0645\u0642\u0647\u064a \u0627\u0644\u062f\u0648\u0644\u0641\u064a\u0646", "name:ar": "\u0645\u0642\u0647 \u0627\u0644\u062f\u0648\u0644\u0641\u064a\u0646", "name:en": "Cafe"}}, {"type": "node", "id": 4453685091, "lat": 32.7571901, "lon": 12.7494941, "tags": {"amenity": "cafe", "name": "\u0645\u0642\u0647\u0649 \u0627\u0644\u0643\u0644\u0627\u0633\u064a\u0643\u0648", "name:ar": "\u0645\u0642\u0647\u0649 \u0627\u0644\u0643\u0644\u0627\u0633\u064a\u0643\u0648", "name:en": "Classico Cafe"}}, {"type": "node", "id": 4453699590, "lat": 32.7578305, "lon": 12.7500469, "tags": {"amenity": "cafe", "name": "\u0643\u0627\u0641\u064a \u062f\u0627\u064a", "name:ar": "\u0643\u0627\u0641\u064a \u062f\u0627\u064a coffee day", "name:en": "coffee day"}}, {"type": "node", "id": 4455281398, "lat": 32.8192519, "lon": 13.0077051, "tags": {"amenity": "restaurant", "name": "\u0645\u0634\u0627\u0648\u064a \u0633\u0644\u064a\u0645\u0627\u0646 \u062e\u0627\u0637\u0631", "name:ar": "\u0645\u0634\u0627\u0648\u064a \u0633\u0644\u064a\u0645\u0627\u0646 \u062e\u0627\u0637\u0631", "name:en": "Grills"}}, {"type": "node", "id": 4458346390, "lat": 32.8020181, "lon": 13.009165, "tags": {"amenity": "restaurant", "name": "\u0644\u0644\u0623\u0633\u0645\u0627\u0643 \u0627\u0644\u0637\u0627\u0632\u062c\u0629 \u0648\u0627\u0644\u0645\u0623\u0643\u0648\u0644\u0627\u062a \u0627\u0644\u0628\u062d\u0631\u064a\u0629", "name:ar": "RED LOBSTER \u0644\u0644\u0623\u0633\u0645\u0627\u0643 \u0627\u0644\u0637\u0627\u0632\u062c\u0629 \u0648\u0627\u0644\u0645\u0623\u0643\u0648\u0644\u0627\u062a \u0627\u0644\u0628\u062d\u0631\u064a\u0629", "name:en": "Seafood"}}, {"type": "node", "id": 4460138195, "lat": 32.7477456, "lon": 12.7179184, "tags": {"amenity": "cafe", "name": "\u0645\u0642\u0647\u0649 \u0627\u0644\u0633\u0631\u0627\u064a\u0627", "name:ar": "\u0645\u0642\u0647\u0649 \u0627\u0644\u0633\u0631\u0627\u064a\u0627", "name:en": "Saraya Cafe"}}, {"type": "node", "id": 4461060189, "lat": 32.8228452, "lon": 13.011792, "tags": {"amenity": "cafe", "name": "\u0642\u0648\u0644\u062f\u0646 \u0643\u0627\u0641\u064a", "name:ar": "\u062c\u0648\u0644\u062f\u0646 \u0643\u0627\u0641\u064a", "name:en": "Golden Coffee"}}, {"type": "node", "id": 4461060389, "lat": 32.8253232, "lon": 13.0195251, "tags": {"amenity": "cafe", "name": "\u0641\u0633\u062a \u0641\u0648\u062f", "name:ar": "\u0641\u0633\u062a \u0641\u0648\u062f", "name:en": "Fast food"}}, {"type": "node", "id": 4463108591, "lat": 32.7614855, "lon": 12.7239313, "tags": {"addr:city": "\u0627\u0644\u0632\u0627\u0648\u064a\u0629", "amenity": "cafe"}}, {"type": "node", "id": 4464596992, "lat": 32.8257407, "lon": 13.0217081, "tags": {"amenity": "cafe", "name": "\u0645\u0642\u0647\u0649 \u0646\u0627\u0628\u0648\u0644\u064a", "name:ar": "\u0645\u0642\u0647\u0649 \u0646\u0627\u0628\u0648\u0644\u064a", "name:en": "Napoli Cafe"}}, {"type": "node", "id": 4469119590, "lat": 32.8058285, "lon": 13.0025255, "tags": {"amenity": "cafe", "name": "\u0645\u0642\u0647\u0649 \u0627\u0644\u0648\u0633\u064a\u0637", "name:ar": "\u0645\u0642\u0647\u0649 \u0627\u0644\u0648\u0633\u064a\u0637", "name:en": "Cafe"}}, {"type": "node", "id": 4500598890, "lat": 32.8226323, "lon": 13.0108332, "tags": {"amenity": "cafe", "name": "\u0643\u0627\u0641\u064a \u0633\u0646\u062a\u0631", "name:ar": "\u0643\u0627\u0641\u064a \u0633\u0646\u062a\u0631", "name:en": "Cafe"}}, {"type": "node", "id": 4513405990, "lat": 32.8120716, "lon": 13.00481, "tags": {"amenity": "cafe", "name": "\u0627\u0644\u062c\u0631\u0627\u0628\u0629 \u0643\u0627\u0641\u064a\u0629", "name:ar": "\u0627\u0644\u062c\u0631\u0627\u0628\u0629 \u0643\u0627\u0641\u064a\u0629", "name:en": "Cafe"}}, {"type": "node", "id": 4520459392, "lat": 32.824787, "lon": 13.0063851, "tags": {"amenity": "restaurant", "name": "\u0643\u0628\u0627\u0628 \u062c\u0646\u0632\u0648\u0631", "name:ar": "\u0643\u0628\u0627\u0628 \u062c\u0646\u0632\u0648\u0631", "name:en": "Kepap"}}, {"type": "node", "id": 4525500705, "lat": 32.8264936, "lon": 13.0141684, "tags": {"amenity": "cafe", "name": "\u0647\u0648\u062a \u0628\u064a\u062a\u0632\u0627", "name:ar": "\u0647\u0648\u062a \u0628\u064a\u062a\u0632\u0627", "name:en": "Pizza Hut"}}, {"type": "node", "id": 4527747293, "lat": 32.8238641, "lon": 13.0151171, "tags": {"amenity": "cafe", "name": "\u0643\u0648\u0631\u0646\u0631", "name:ar": "\u0643\u0648\u0631\u0646\u0631", "name:en": "Cafe"}}, {"type": "node", "id": 4527747393, "lat": 32.7902637, "lon": 13.0229839, "tags": {"amenity": "restaurant", "name": "\u0645\u0637\u0639\u0645 \u0627\u0644\u0646\u062e\u064a\u0644 \u0644\u0644\u0645\u0634\u0627\u0648\u064a", "name:ar": "\u0645\u0637\u0639\u0645 \u0627\u0644\u0646\u062e\u064a\u0644 \u0644\u0644\u0645\u0634\u0627\u0648\u064a", "name:en": "Restaurant"}}, {"type": "node", "id": 4532455689, "lat": 32.7847664, "lon": 13.0237505, "tags": {"amenity": "cafe", "name": "\u0643\u0627\u0641\u064a\u0629 \u0644\u0627\u064a\u0641", "name:ar": "\u0643\u0627\u0641\u064a\u0629 \u0644\u0627\u064a\u0641", "name:en": "Cafe"}}, {"type": "node", "id": 4532456091, "lat": 32.7955018, "lon": 12.9984943, "tags": {"amenity": "cafe", "name": "\u0645\u0642\u0647\u0649 \u0627\u0644\u0634\u0627\u0645", "name:ar": "\u0645\u0642\u0647\u0649 \u0627\u0644\u0634\u0627\u0645"}}, {"type": "node", "id": 4532456092, "lat": 32.7973456, "lon": 12.9981052, "tags": {"amenity": "cafe", "name": "\u0645\u0642\u0647\u0649", "name:ar": "\u0645\u0642\u0647\u0649"}}, {"type": "node", "id": 4535482091, "lat": 32.7689287, "lon": 12.7215685, "tags": {"amenity": "cafe", "name": "\u0644\u0627 \u0641\u064a\u0644\u0627. La villa", "name:ar": "\u0644\u0627 \u0641\u064a\u0644\u0627. La villa"}}, {"type": "node", "id": 4540264292, "lat": 32.8172059, "lon": 13.0077615, "tags": {"amenity": "cafe", "name": "\u0647\u0648\u062a \u062a\u0634\u0643\u0646", "name:ar": "\u0647\u0648\u062a \u062a\u0634\u0643\u0646", "name:en": "Hot Chicken"}}, {"type": "node", "id": 4547688789, "lat": 32.7766335, "lon": 12.7152898, "tags": {"amenity": "cafe", "name": "\u0645\u0642\u0647\u0649 \u0627\u0633\u0628\u0627\u0646", "name:ar": "\u0645\u0642\u0647\u0649 \u0627\u0633\u0628\u0627\u0646", "name:en": "Cafe"}}, {"type": "node", "id": 4553320493, "lat": 32.7909056, "lon": 13.0230064, "tags": {"amenity": "cafe", "name": "\u0644\u0627\u0641\u0627\u0632\u0627 \u0643\u0627\u0641\u064a", "name:ar": "\u0644\u0627\u0641\u0627\u0632\u0627 \u0643\u0627\u0641\u064a", "name:en": "Lavazza Cafe"}}, {"type": "node", "id": 4559912592, "lat": 32.8248852, "lon": 13.0063703, "tags": {"addr:housenumber": "925026666", "addr:street": "\u0634\u0627\u0631\u0639 \u0627\u0644\u0642\u0635\u064a\u0628\u0629", "amenity": "restaurant", "cuisine": "barbecue", "name": "\u0643\u0628\u0627\u0628 \u062c\u0646\u0632\u0648\u0631", "name:ar": "\u0643\u0628\u0627\u0628 \u062c\u0646\u0632\u0648\u0631", "name:en": "Kebab", "opening_hours": "Mo-Su 10:00-22:00", "phone": "0925026666"}}, {"type": "node", "id": 4570348094, "lat": 32.7448683, "lon": 12.7165133, "tags": {"amenity": "restaurant", "name": "\u0645\u0637\u0639\u0645 \u0633\u0648\u0644\u0627\u0631", "name:ar": "\u0645\u0637\u0639\u0645 \u0633\u0648\u0644\u0627\u0631"}}, {"type": "node", "id": 4583551391, "lat": 32.8307165, "lon": 13.0214957, "tags": {"amenity": "cafe", "name": "\u0643\u0627\u0641\u064a\u0629 \u0631\u064a\u062a\u0634\u064a", "name:ar": "\u0643\u0627\u0641\u064a\u0629 \u0631\u064a\u062a\u0634\u064a", "name:en": "Ricci Cafe"}}, {"type": "node", "id": 4583560890, "lat": 32.8308031, "lon": 13.0212274, "tags": {"amenity": "cafe", "name": "\u0645\u0642\u0647\u0649 \u0627\u0644\u0634\u062c\u0631\u0629", "name:ar": "\u0645\u0642\u0647\u0649 \u0627\u0644\u0634\u062c\u0631\u0629"}}, {"type": "node", "id": 4585097792, "lat": 32.7988994, "lon": 13.024874, "tags": {"amenity": "cafe", "name": "\u0645\u0642\u0647\u0649 \u0627\u0644\u0645\u062c\u0644\u0633", "name:ar": "\u0645\u0642\u0647\u0649 \u0627\u0644\u0645\u062c\u0644\u0633", "name:en": "Cafe"}}, {"type": "node", "id": 4597025996, "lat": 32.8171551, "lon": 13.0119947, "tags": {"amenity": "restaurant", "name": "\u0645\u0637\u0639\u0645 \u0627\u0644\u0632\u0639\u064a\u0645", "name:ar": "\u0645\u0637\u0639\u0645 \u0627\u0644\u0632\u0639\u064a\u0645", "name:en": "Al Zaeem Restaurant"}}, {"type": "node", "id": 4597080997, "lat": 32.8166092, "lon": 13.0080513, "tags": {"amenity": "restaurant", "name": "\u0641\u064a\u062c\u064a", "name:ar": "\u0641\u064a\u062c\u064a", "name:en": "Restaurant"}}, {"type": "node", "id": 4597798690, "lat": 32.7677036, "lon": 12.7569084, "tags": {"amenity": "cafe", "name": "\u0643\u0627\u0641\u064a \u0627\u0644\u0642\u0628\u0637\u0627\u0646", "name:ar": "\u0643\u0627\u0641\u064a \u0627\u0644\u0642\u0628\u0637\u0627\u0646", "name:en": "The captain Cafe"}}, {"type": "node", "id": 4601491896, "lat": 32.8269248, "lon": 12.9997837, "tags": {"amenity": "cafe", "name": "\u0645\u0642\u0647\u0649 \u0639\u0627\u0644\u0645\u0627\u0634\u064a", "name:ar": "\u0645\u0642\u0647\u0649 \u0639\u0627\u0644\u0645\u0627\u0634\u064a", "name:en": "Cafe"}}, {"type": "node", "id": 4602089795, "lat": 32.7676675, "lon": 12.75891, "tags": {"amenity": "cafe", "name": "\u0645\u0642\u0647\u0649", "name:ar": "\u0645\u0642\u0647\u0649", "name:en": "Cafe"}}, {"type": "node", "id": 4603208490, "lat": 32.8209554, "lon": 13.0008376, "tags": {"amenity": "cafe", "name": "\u0639\u0645\u0627\u062f \u0643\u0627\u0641\u064a", "name:ar": "\u0639\u0645\u0627\u062f \u0643\u0627\u0641\u064a"}}, {"type": "node", "id": 4603254991, "lat": 32.8103764, "lon": 13.0002762, "tags": {"amenity": "cafe", "name": "\u0643\u0627\u0641\u064a \u0639\u0645\u0631", "name:ar": "\u0643\u0627\u0641\u064a \u0639\u0645\u0631", "name:en": "Cafe"}}, {"type": "node", "id": 4646419192, "lat": 32.7610824, "lon": 12.7188154, "tags": {"addr:street": "\u0634\u0627\u0631\u0639 \u0627\u0644\u062e\u0631\u0637\u0648\u0645", "amenity": "cafe", "name": "\u0645\u0642\u0647\u0649 \u0627\u0644\u062f\u0639\u064a\u0643", "opening_hours": "Mo-Su 09:00-20:00"}}, {"type": "node", "id": 4735833021, "lat": 32.8121374, "lon": 13.0050831, "tags": {"amenity": "cafe", "name": "\u0628\u0648\u0643\u0631 \u0644\u0644\u0648\u062c\u0628\u0627\u062a \u0648\u0627\u0644\u0633\u0646\u062f\u0648\u062a\u0634\u0627\u062a", "name:ar": "\u0628\u0648\u0643\u0631 \u0644\u0644\u0648\u062c\u0628\u0627\u062a \u0648\u0627\u0644\u0633\u0646\u062f\u0648\u062a\u0634\u0627\u062a", "name:en": "Fast Food"}}, {"type": "node", "id": 4744680223, "lat": 32.7517222, "lon": 12.729082, "tags": {"amenity": "cafe", "fixme": "name, name:ar mismatch.", "name": "\u0643\u0627\u0641\u064a \u0627\u0643\u0627\u0643\u0648\u0633", "name:ar": "\u0627\u0643\u0627\u0643\u0648\u0633", "name:en": "Acacus Cafe"}}, {"type": "node", "id": 4744680224, "lat": 32.7476132, "lon": 12.7317236, "tags": {"addr:city": "\u0627\u0644\u0632\u0627\u0648\u064a\u0629", "amenity": "cafe"}}, {"type": "node", "id": 4744686621, "lat": 32.7476854, "lon": 12.7320621, "tags": {"addr:city": "\u0627\u0644\u0632\u0627\u0648\u064a\u0629", "addr:street": "\u0627\u0644\u0637\u0631\u064a\u0642 \u0627\u0644\u0633\u0627\u062d\u0644\u064a", "amenity": "cafe", "brand": "\u0643\u0633\u062a\u0627", "brand:ar": "\u0643\u0633\u062a\u0627", "brand:azb": "\u06a9\u0633\u062a\u0627", "brand:fa": "\u06a9\u0633\u062a\u0627", "brand:ks": "\u06a9\u0633\u062a\u0627", "brand:ur": "\u06a9\u0633\u062a\u0627", "brand:wikidata": "Q608845", "brand:wikipedia": "ar:\u0643\u0648\u0633\u062a\u0627 \u0643\u0648\u0641\u064a", "cuisine": "coffee_shop", "long_name": "\u0643\u0633\u062a\u0627 \u0643\u0641\u064a", "long_name:ar": "\u0643\u0633\u062a\u0627 \u0643\u0641\u064a", "name": "\u0643\u0633\u062a\u0627", "name:ar": "\u0643\u0633\u062a\u0627", "name:azb": "\u06a9\u0633\u062a\u0627", "name:en": "Costa", "name:fa": "\u06a9\u0633\u062a\u0627", "name:ks": "\u06a9\u0633\u062a\u0627", "name:ur": "\u06a9\u0633\u062a\u0627", "takeaway": "yes"}}, {"type": "node", "id": 4752565021, "lat": 32.7756236, "lon": 12.782781, "tags": {"amenity": "cafe", "name": "Victory cafe", "name:ar": "Victory cafe"}}, {"type": "node", "id": 4778328125, "lat": 32.7540493, "lon": 12.73204, "tags": {"addr:city": "\u0627\u0644\u0632\u0627\u0648\u064a\u0629", "addr:street": "\u0634\u0627\u0631\u0639 \u062c\u0645\u0627\u0644 \u0639\u0628\u062f \u0627\u0644\u0646\u0627\u0635\u0631", "amenity": "cafe", "name": "\u0645\u0642\u0647\u0649 \u0623\u0628\u0648 \u062f\u0631\u0628\u0627\u0644\u0629 \u0644\u0644\u0645\u0623\u0643\u0648\u0644\u0627\u062a \u0627\u0644\u062e\u0641\u064a\u0641\u0629", "name:ar": "\u0645\u0642\u0647\u0649 \u0623\u0628\u0648 \u062f\u0631\u0628\u0627\u0644\u0629 \u0644\u0644\u0645\u0623\u0643\u0648\u0644\u0627\u062a \u0627\u0644\u062e\u0641\u064a\u0641\u0629", "name:en": "Fast Food"}}, {"type": "node", "id": 4781883821, "lat": 32.7380498, "lon": 12.8035414, "tags": {"amenity": "cafe", "name": "\u0645\u0642\u0647\u0649 \u0627\u0644\u0645\u0631\u064a\u0645\u064a", "name:ar": "\u0645\u0642\u0647\u0649 \u0627\u0644\u0645\u0631\u064a\u0645\u064a"}}, {"type": "node", "id": 4799830621, "lat": 32.7574428, "lon": 12.7403321, "tags": {"addr:street": "\u0634\u0627\u0631\u0639 \u0639\u0645\u0631 \u0627\u0644\u0645\u062e\u062a\u0627\u0631", "amenity": "cafe", "cuisine": "pizza", "name": "\u0645\u0642\u0647\u0649 \u0627\u0644\u0645\u0644\u0627\u062d", "name:ar": "\u0645\u0642\u0647\u0649 \u0627\u0644\u0645\u0644\u0627\u062d", "name:en": "Mallah Cafe"}}, {"type": "node", "id": 4909565922, "lat": 32.7527714, "lon": 12.7250592, "tags": {"addr:city": "\u0627\u0644\u0632\u0627\u0648\u064a\u0629", "amenity": "cafe", "name": "\u0627\u0644\u0628\u064a\u0627\u0635\u0629", "name:ar": "\u0627\u0644\u0628\u064a\u0627\u0635\u0629"}}, {"type": "node", "id": 4938520021, "lat": 32.7475879, "lon": 12.7313947, "tags": {"addr:street": "\u0634\u0627\u0631\u0639 \u0627\u0644\u0642\u0644\u0641\u0627\u0637", "amenity": "cafe", "name:en": "Costa coffee"}}, {"type": "node", "id": 5739257724, "lat": 32.7391656, "lon": 12.725725, "tags": {"addr:street": "Main Road", "amenity": "cafe", "name": "\u0634\u0627\u0631\u0639 \u0627\u0644\u0634\u0639\u0644\u0647", "name:ar": "\u0634\u0627\u0631\u0639 \u0627\u0644\u0634\u0639\u0644\u0647", "name:en": "alshoaala", "opening_hours": "24/7"}}, {"type": "node", "id": 5838095137, "lat": 32.7208176, "lon": 12.7414411, "tags": {"addr:housenumber": "0926964000", "addr:street": "\u0634\u0627\u0631\u0639 \u0627\u0644\u0645\u0646\u0642\u0639", "amenity": "cafe", "cuisine": "breakfast", "internet_access": "wlan", "name": "coffe evil", "name:ar": "\u0645\u0642\u0647\u0649 \u0627\u064a\u0641\u0644", "opening_hours": "Mo-Su 07:00-23:30", "phone": "0926964000", "website": "https://m.facebook.com/evill.coffee"}}, {"type": "node", "id": 6034619491, "lat": 32.8227258, "lon": 13.0108316, "tags": {"amenity": "cafe", "name": "\u0628\u064a\u062a\u0632\u0627 \u0646\u0627\u0628\u0648\u0644\u064a", "name:ar": "\u0628\u064a\u062a\u0632\u0627 \u0646\u0627\u0628\u0648\u0644\u064a", "name:en": "Pizza"}}, {"type": "node", "id": 6113034688, "lat": 32.6595976, "lon": 12.6471146, "tags": {"amenity": "cafe", "name": "\u0648\u062c\u0628\u0627\u062a \u062e\u0641\u064a\u0641\u0629", "name:ar": "\u0648\u062c\u0628\u0627\u062a \u062e\u0641\u064a\u0641\u0629", "name:en": "Restaurant"}}, {"type": "node", "id": 6341635996, "lat": 32.7550116, "lon": 12.6825676, "tags": {"amenity": "cafe", "internet_access": "wlan", "name": "\u0645\u0642\u0647\u064a \u0627\u0644\u062e\u0627\u0644", "name:ar": "\u0645\u0642\u0647\u064a \u0627\u0644\u062e\u0627\u0644", "name:en": "ankle Cafe"}}, {"type": "node", "id": 6359090590, "lat": 32.7521204, "lon": 12.7356166, "tags": {"addr:street": "\u0634\u0627\u0631\u0639 \u0627\u0644\u0642\u0631\u0636\u0627\u0628\u064a\u0629", "amenity": "cafe", "name": "\u0633\u0648\u064a\u062a \u0645\u0627\u0643\u0633", "name:ar": "\u0633\u0648\u064a\u062a \u0645\u0627\u0643\u0633", "name:en": "sweet mix", "opening_hours": "Mo-Su 07:00-22:00"}}, {"type": "node", "id": 6365950187, "lat": 32.7651724, "lon": 12.5584027, "tags": {"amenity": "cafe", "name": "Route 66 Caf\u00e8"}}, {"type": "node", "id": 6366156786, "lat": 32.7601605, "lon": 12.7510441, "tags": {"amenity": "cafe", "name": "Castillo Caf\u00e8"}}, {"type": "node", "id": 6402243253, "lat": 32.7547461, "lon": 12.8410009}, {"type": "node", "id": 6402243254, "lat": 32.754729, "lon": 12.8409582}, {"type": "node", "id": 6402243255, "lat": 32.7546606, "lon": 12.841007}, {"type": "node", "id": 6402243256, "lat": 32.7546931, "lon": 12.8410497}, {"type": "node", "id": 6691811685, "lat": 32.793635, "lon": 12.5661764, "tags": {"amenity": "cafe", "name": "\u0643\u0627\u0641\u064a \u0628\u064a\u0648\u062a \u0627\u0644\u0634\u0628\u0627\u0628", "name:ar": "\u0643\u0627\u0641\u064a \u0628\u064a\u0648\u062a \u0627\u0644\u0634\u0628\u0627\u0628", "name:en": "Youth Association Cafe"}}, {"type": "node", "id": 6750542086, "lat": 32.7469388, "lon": 12.7167299, "tags": {"amenity": "restaurant", "name": "\u0645\u0637\u0627\u0639\u0645 \u0648 \u0645\u0634\u0627\u0648\u064a \u062f\u062c\u0627\u062c", "name:ar": "\u0645\u0637\u0627\u0639\u0645 \u0648 \u0645\u0634\u0627\u0648\u064a \u062f\u062c\u0627\u062c", "name:en": "Chicken Restaurant"}}, {"type": "node", "id": 6875637186, "lat": 32.8019626, "lon": 13.0091728, "tags": {"amenity": "restaurant", "name": "\u0645\u0637\u0639\u0645 \u0627\u0644\u0643\u0647\u0641 \u0644\u0644\u0645\u0634\u0648\u064a\u0627\u062a \u0648\u0627\u0644\u0648\u062c\u0628\u0627\u062a \u0627\u0644\u0634\u0639\u0628\u064a\u0629", "name:ar": "\u0645\u0637\u0639\u0645 \u0627\u0644\u0643\u0647\u0641 \u0644\u0644\u0645\u0634\u0648\u064a\u0627\u062a \u0648\u0627\u0644\u0648\u062c\u0628\u0627\u062a \u0627\u0644\u0634\u0639\u0628\u064a\u0629", "name:en": "Restaurant"}}, {"type": "node", "id": 6875637187, "lat": 32.8149349, "lon": 13.0066288, "tags": {"amenity": "cafe", "name": "Fast food"}}, {"type": "node", "id": 7021630586, "lat": 32.8253391, "lon": 13.0220096, "tags": {"amenity": "restaurant", "cuisine": "pizza", "name": "\u0628\u064a\u062a\u0632\u0627 \u0643\u0648\u064a\u0646", "name:ar": "\u0628\u064a\u062a\u0632\u0627 \u0643\u0648\u064a\u0646", "name:en": "pizza queen", "opening_hours": "Sa-Th 11:00-23:00", "phone": "0923854243"}}, {"type": "node", "id": 7178121185, "lat": 32.8203894, "lon": 13.0018579, "tags": {"addr:street": "\u062c\u0632\u064a\u0631\u0629 \u0633\u0627\u0642\u0627\u0637\u0627", "amenity": "cafe", "internet_access": "wlan", "name": "\u0645\u0642\u0647\u0649 \u0627\u0644\u062c\u0632\u064a\u0631\u0629", "name:ar": "\u0645\u0642\u0647\u0649 \u0627\u0644\u062c\u0632\u064a\u0631\u0629", "name:en": "Island coffee"}}, {"type": "node", "id": 7649517549, "lat": 32.7818482, "lon": 12.8003309, "tags": {"amenity": "restaurant", "cuisine": "seafood"}}, {"type": "node", "id": 7649517557, "lat": 32.787359, "lon": 12.8001161, "tags": {"amenity": "restaurant"}}, {"type": "node", "id": 7663717554, "lat": 32.7668404, "lon": 13.0114951, "tags": {"amenity": "cafe"}}, {"type": "node", "id": 7663870143, "lat": 32.678079, "lon": 13.0353082, "tags": {"amenity": "cafe"}}, {"type": "node", "id": 7674318718, "lat": 32.7740527, "lon": 12.6605671, "tags": {"amenity": "cafe", "name": "\u0623\u0628\u0646\u0627\u0621 \u0639\u0628\u062f \u0627\u0644\u0635\u0627\u062f\u0642", "name:ar": "\u0623\u0628\u0646\u0627\u0621 \u0639\u0628\u062f \u0627\u0644\u0635\u0627\u062f\u0642"}}, {"type": "node", "id": 7725410763, "lat": 32.7409013, "lon": 12.6455655, "tags": {"amenity": "restaurant"}}, {"type": "node", "id": 7725410764, "lat": 32.7423091, "lon": 12.646239, "tags": {"amenity": "cafe"}}, {"type": "node", "id": 7725424983, "lat": 32.7468787, "lon": 12.6493455, "tags": {"amenity": "restaurant"}}, {"type": "node", "id": 7808354520, "lat": 32.7408466, "lon": 12.9389665, "tags": {"amenity": "cafe"}}, {"type": "node", "id": 7913445585, "lat": 32.7432433, "lon": 12.9136465, "tags": {"amenity": "cafe"}}, {"type": "node", "id": 7913447385, "lat": 32.7433967, "lon": 12.9135597, "tags": {"amenity": "restaurant", "name": "\u0645\u0637\u0639\u0645 \u0627\u0644\u0646\u0627\u0641\u0648\u0631\u0629", "name:ar": "\u0645\u0637\u0639\u0645 \u0627\u0644\u0646\u0627\u0641\u0648\u0631\u0629", "name:en": "Restaurant"}}, {"type": "node", "id": 7956338885, "lat": 32.6765551, "lon": 12.8717159, "tags": {"amenity": "restaurant", "name": "\u0645\u0637\u0639\u0645 \u0627\u0644\u0646\u0628\u0631\u0627\u0633", "name:ar": "\u0645\u0637\u0639\u0645 \u0627\u0644\u0646\u0628\u0631\u0627\u0633", "name:en": "Restaurant"}}, {"type": "node", "id": 7982607385, "lat": 32.7538651, "lon": 12.7046391, "tags": {"addr:street": "\u0634\u0627\u0631\u0639 \u062c\u0645\u0627\u0644 \u0639\u0628\u062f \u0627\u0644\u0646\u0627\u0635\u0631", "amenity": "restaurant", "name": "\u0645\u0637\u0639\u0645 \u0627\u0628\u0648\u062f\u0631\u0628\u0627\u0644\u0629", "name:ar": "\u0645\u0637\u0639\u0645 \u0627\u0628\u0648\u062f\u0631\u0628\u0627\u0644\u0629"}}, {"type": "node", "id": 8071436317, "lat": 32.7945324, "lon": 12.858851, "tags": {"amenity": "restaurant", "name": "\u0645\u0637\u0639\u0645 \u0627\u0644\u0628\u0648\u0627\u062f\u064a", "name:ar": "\u0645\u0637\u0639\u0645 \u0627\u0644\u0628\u0648\u0627\u062f\u064a", "name:en": "Restaurant"}}, {"type": "node", "id": 8071438617, "lat": 32.7943276, "lon": 12.8555699, "tags": {"amenity": "restaurant", "name": "\u0645\u0637\u0639\u0645 \u0627\u0644\u0641\u0631\u0633\u0627\u0646", "name:ar": "\u0645\u0637\u0639\u0645 \u0627\u0644\u0641\u0631\u0633\u0627\u0646", "name:en": "Restaurant"}}, {"type": "node", "id": 8151298717, "lat": 32.7817751, "lon": 12.8003066, "tags": {"amenity": "restaurant", "name": "\u062f\u0627\u0631 \u0627\u0644\u062d\u0648\u062a\u0629", "name:ar": "\u062f\u0627\u0631 \u0627\u0644\u062d\u0648\u062a\u0629", "name:en": "Far alhotah"}}, {"type": "node", "id": 8171536121, "lat": 32.8225367, "lon": 13.0138589, "tags": {"amenity": "restaurant", "name": "\u0628\u064a\u062a\u0632\u0627 \u062a\u0648\u0631\u064a\u0646\u0648"}}, {"type": "node", "id": 8197379586, "lat": 32.8232574, "lon": 13.0116442}, {"type": "node", "id": 8197379587, "lat": 32.8232516, "lon": 13.0115816}, {"type": "node", "id": 8197379588, "lat": 32.8232677, "lon": 13.0115795}, {"type": "node", "id": 8197379589, "lat": 32.823259, "lon": 13.011486}, {"type": "node", "id": 8197379590, "lat": 32.823226, "lon": 13.0114903}, {"type": "node", "id": 8197379591, "lat": 32.8232241, "lon": 13.0114698}, {"type": "node", "id": 8197379592, "lat": 32.8230843, "lon": 13.0114882}, {"type": "node", "id": 8197379593, "lat": 32.8230732, "lon": 13.0114897}, {"type": "node", "id": 8197379594, "lat": 32.8229859, "lon": 13.0115011}, {"type": "node", "id": 8197379595, "lat": 32.8230024, "lon": 13.0116778}, {"type": "node", "id": 8324086246, "lat": 32.7447043, "lon": 12.7754725, "tags": {"addr:city": "\u062c\u0648\u062f\u062f\u0627\u0626\u0645", "amenity": "cafe"}}, {"type": "node", "id": 8530852317, "lat": 32.7308384, "lon": 12.6176093, "tags": {"amenity": "cafe", "name": "\u0643\u0627\u0641\u064a", "name:en": "Cafe"}}, {"type": "node", "id": 8538620517, "lat": 32.725521, "lon": 12.7104686, "tags": {"amenity": "cafe", "name": "\u0643\u0627\u0641\u064a", "name:en": "Cafe"}}, {"type": "node", "id": 8746931770, "lat": 32.7308911, "lon": 12.7306771, "tags": {"amenity": "cafe"}}, {"type": "node", "id": 9071327743, "lat": 32.7575486, "lon": 12.5766715}, {"type": "node", "id": 9071327746, "lat": 32.7576374, "lon": 12.5766414}, {"type": "node", "id": 9123502015, "lat": 32.7655215, "lon": 12.557961}, {"type": "node", "id": 9123502016, "lat": 32.7653373, "lon": 12.5578062}, {"type": "node", "id": 9123502017, "lat": 32.7654555, "lon": 12.5576071}, {"type": "node", "id": 9123502018, "lat": 32.7656398, "lon": 12.557762}, {"type": "node", "id": 9125354389, "lat": 32.7794177, "lon": 12.728742}, {"type": "node", "id": 9125354390, "lat": 32.77941, "lon": 12.728574}, {"type": "node", "id": 9125354391, "lat": 32.7793378, "lon": 12.7285787}, {"type": "node", "id": 9125354392, "lat": 32.7793402, "lon": 12.72863}, {"type": "node", "id": 9125354393, "lat": 32.7793085, "lon": 12.728632}, {"type": "node", "id": 9125354394, "lat": 32.7793145, "lon": 12.7287622}, {"type": "node", "id": 9125354395, "lat": 32.7793591, "lon": 12.7287593}, {"type": "node", "id": 9125354396, "lat": 32.7793584, "lon": 12.7287458}, {"type": "node", "id": 9125354397, "lat": 32.7792967, "lon": 12.7283425}, {"type": "node", "id": 9125354398, "lat": 32.7793147, "lon": 12.7285181}, {"type": "node", "id": 9125354399, "lat": 32.7792092, "lon": 12.7285335}, {"type": "node", "id": 9125354400, "lat": 32.7791912, "lon": 12.7283578}, {"type": "node", "id": 9172469852, "lat": 32.7629311, "lon": 12.7181876}, {"type": "node", "id": 9172469853, "lat": 32.7627818, "lon": 12.7181814}, {"type": "node", "id": 9172469854, "lat": 32.7627602, "lon": 12.7184543}, {"type": "node", "id": 9172469855, "lat": 32.7629212, "lon": 12.7184618}, {"type": "node", "id": 9172469856, "lat": 32.7622215, "lon": 12.7185449}, {"type": "node", "id": 9172469857, "lat": 32.7620891, "lon": 12.7185567}, {"type": "node", "id": 9172469858, "lat": 32.7620913, "lon": 12.7186656}, {"type": "node", "id": 9172469859, "lat": 32.7622227, "lon": 12.7186704}, {"type": "node", "id": 9172469860, "lat": 32.7627696, "lon": 12.7197344}, {"type": "node", "id": 9172469861, "lat": 32.7626609, "lon": 12.7197422}, {"type": "node", "id": 9172469862, "lat": 32.7626687, "lon": 12.7198653}, {"type": "node", "id": 9172469863, "lat": 32.7627744, "lon": 12.7198552}, {"type": "node", "id": 9189351265, "lat": 32.7575781, "lon": 12.5763945}, {"type": "node", "id": 9189351266, "lat": 32.7575183, "lon": 12.5765453}, {"type": "node", "id": 9189351267, "lat": 32.7572907, "lon": 12.5764272}, {"type": "node", "id": 9189351268, "lat": 32.7575793, "lon": 12.5763685}, {"type": "node", "id": 9189351269, "lat": 32.7573656, "lon": 12.5762444}, {"type": "node", "id": 9653015790, "lat": 32.8257492, "lon": 13.0061914}, {"type": "node", "id": 9653015791, "lat": 32.8256117, "lon": 13.0062394}, {"type": "node", "id": 9653015792, "lat": 32.8255905, "lon": 13.0061532}, {"type": "node", "id": 9653015793, "lat": 32.825728, "lon": 13.0061053}, {"type": "node", "id": 10179091717, "lat": 32.8208428, "lon": 13.0099066, "tags": {"addr:housenumber": "0924061236", "addr:street": "\u0634\u0627\u0631\u0639 2000", "amenity": "cafe", "name": "\u0634\u064a\u0634\u0632\u0627", "opening_hours": "Mo-Su 12:00-12:00"}}, {"type": "node", "id": 10610841420, "lat": 32.7520549, "lon": 12.9955616, "tags": {"amenity": "cafe"}}, {"type": "node", "id": 11163350907, "lat": 32.8118509, "lon": 13.0003576, "tags": {"amenity": "restaurant", "name": "\u0627\u0644\u062a\u0634\u0645", "name:en": "Tcham"}}, {"type": "node", "id": 12901509597, "lat": 32.7611811, "lon": 12.7401923, "tags": {"addr:city": "\u0627\u0644\u0632\u0627\u0648\u064a\u0629", "addr:housenumber": "218", "addr:postcode": "4", "addr:street": "\u0634\u0627\u0631\u0639 \u062c\u0645\u0627\u0644 \u0639\u0628\u062f \u0627\u0644\u0646\u0627\u0635\u0631", "amenity": "cafe", "branch": "\u0627\u0644\u0648\u0633\u0637\u064a\u0629", "cuisine": "dessert", "internet_access": "no", "name": "the middle coffee", "opening_hours": "24/7", "outdoor_seating": "yes", "phone": "00218925462972", "website": "https://zu.edu.ly/faculties/medicine"}}, {"type": "way", "id": 683527607, "nodes": [6402243253, 6402243254, 6402243255, 6402243256, 6402243253], "tags": {"amenity": "cafe", "building": "yes"}}, {"type": "way", "id": 881411093, "nodes": [8197379586, 8197379587, 8197379588, 8197379589, 8197379590, 8197379591, 8197379592, 8197379593, 8197379594, 8197379595, 8197379586], "tags": {"amenity": "restaurant", "building": "yes"}}, {"type": "way", "id": 980663562, "nodes": [9071327746, 9071327743, 9189351266, 9189351267, 9189351269, 9189351268, 9189351265, 9071327746], "tags": {"addr:city": "surman", "addr:street": "\u0627\u0644\u0637\u0631\u064a\u0642 \u0627\u0644\u0633\u0627\u062d\u0644\u064a", "amenity": "restaurant", "building": "yes", "building:levels": "1", "name": "\u0645\u0637\u0639\u0645 \u0648\u0645\u0642\u0647\u0649 \u0628\u0627\u0628\u0644", "name:ar": "\u0645\u0637\u0639\u0645 \u0648\u0645\u0642\u0647\u0649 \u0628\u0627\u0628\u0644", "name:en": "Babel Restaurant & caf\u00e9"}}, {"type": "way", "id": 987044217, "nodes": [9123502015, 9123502016, 9123502017, 9123502018, 9123502015], "tags": {"amenity": "cafe", "building": "commercial", "cuisine": "coffee_shop", "name": "\u0645\u0642\u0647\u0649 \u0627\u0644\u0628\u0631\u062c", "name:ar": "\u0645\u0642\u0647\u0649 \u0627\u0644\u0628\u0631\u062c", "name:en": "Al Borg Caf\u00e9"}}, {"type": "way", "id": 987245778, "nodes": [9125354389, 9125354390, 9125354391, 9125354392, 9125354393, 9125354394, 9125354395, 9125354396, 9125354389], "tags": {"amenity": "restaurant", "building": "yes"}}, {"type": "way", "id": 987245779, "nodes": [9125354397, 9125354398, 9125354399, 9125354400, 9125354397], "tags": {"amenity": "restaurant", "building": "yes"}}, {"type": "way", "id": 992795671, "nodes": [9172469852, 9172469853, 9172469854, 9172469855, 9172469852], "tags": {"amenity": "cafe", "building": "yes", "name": "\u0645\u062e\u0628\u0632 \u0639\u0627\u0626\u0644\u0629 \u062f\u0631\u0627", "opening_hours": "05:00-01:00"}}, {"type": "way", "id": 992795672, "nodes": [9172469856, 9172469857, 9172469858, 9172469859, 9172469856], "tags": {"amenity": "restaurant", "building": "yes", "name": "\u0645\u0637\u0639\u0645 \u0639\u0645\u0631 \u0644\u0644\u0645\u0623\u0643\u0648\u0644\u0627\u062a"}}, {"type": "way", "id": 992795673, "nodes": [9172469860, 9172469861, 9172469862, 9172469863, 9172469860], "tags": {"amenity": "cafe", "building": "yes", "name": "\u0645\u062e\u0628\u0632 \u0627\u0644\u062b\u0642\u0629", "opening_hours": "06:00-14:00"}}, {"type": "way", "id": 1050431324, "nodes": [9653015793, 9653015790, 9653015791, 9653015792, 9653015793], "tags": {"addr:street": "\u0634\u0627\u0631\u0639 \u0633\u0644\u064a\u0645\u0627\u0646 \u062e\u0627\u0637\u0631", "amenity": "cafe", "building": "yes", "level": "1", "name": "\u0645\u0642\u0647\u0649 \u0627\u0644\u0643\u0648\u062e", "name:ar": "\u0645\u0642\u0647\u0649 \u0627\u0644\u0643\u0648\u062e", "name:en": "Cottage Cafe", "opening_hours": "Mo-Su 10:00-22:00"}}]}