{"version": 0.6, "generator": "Overpass API 0.7.62.7 375dc00a", "osm3s": {"timestamp_osm_base": "2025-06-14T13:22:01Z", "copyright": "The data included in this document is from www.openstreetmap.org. The data is made available under ODbL."}, "elements": [{"type": "node", "id": 139775646, "lat": 2.9660674, "lon": 9.9120035, "tags": {"amenity": "restaurant", "name": "\"Boucanier\" Bibiana", "tourism": "attraction"}}, {"type": "node", "id": 3461546652, "lat": 2.9379434, "lon": 9.9058718}, {"type": "node", "id": 3461546662, "lat": 2.9379572, "lon": 9.9058128}, {"type": "node", "id": 3461546669, "lat": 2.9379752, "lon": 9.9059234}, {"type": "node", "id": 3461546680, "lat": 2.9380087, "lon": 9.9057809}, {"type": "node", "id": 3461546682, "lat": 2.9380341, "lon": 9.9059373}, {"type": "node", "id": 3461546686, "lat": 2.9380676, "lon": 9.9057948}, {"type": "node", "id": 3461546687, "lat": 2.9380856, "lon": 9.9059054}, {"type": "node", "id": 3461546691, "lat": 2.9380995, "lon": 9.9058463}, {"type": "node", "id": 4347579473, "lat": 2.9057886, "lon": 9.9019238, "tags": {"amenity": "restaurant", "email": "info@hoteltaraplage.com", "name": "H\u00f4tel Tara Plage", "phone": "+237 696128148", "stars": "2", "tourism": "hotel", "website": "https://www.hoteltaraplage.com/"}}, {"type": "node", "id": 4347581274, "lat": 2.9055036, "lon": 9.9019892}, {"type": "node", "id": 4347581283, "lat": 2.9055807, "lon": 9.9018612}, {"type": "node", "id": 4347581291, "lat": 2.9055942, "lon": 9.9020438}, {"type": "node", "id": 4347581303, "lat": 2.9056712, "lon": 9.9019159}, {"type": "node", "id": 4368984393, "lat": 2.9228054, "lon": 9.9003258, "tags": {"amenity": "restaurant", "name": "Au Plaisir du Go\u00fbt", "website": "https://www.auplaisirdugout.com/"}}, {"type": "node", "id": 4382070195, "lat": 2.9691053, "lon": 9.9133073, "tags": {"amenity": "restaurant", "name": "\u00c9b\u00e8ne", "name:fr": "\u00c9b\u00e8ne"}}, {"type": "node", "id": 4384918789, "lat": 2.9443429, "lon": 9.9127757, "tags": {"amenity": "cafe", "name": "Salon de th\u00e9", "name:fr": "Salon de th\u00e9"}}, {"type": "node", "id": 4421994785, "lat": 2.944323, "lon": 9.9169279}, {"type": "node", "id": 4421994786, "lat": 2.9443588, "lon": 9.9169778}, {"type": "node", "id": 4421994787, "lat": 2.944307, "lon": 9.9170151}, {"type": "node", "id": 4421994788, "lat": 2.9442712, "lon": 9.9169652}, {"type": "node", "id": 4527784194, "lat": 3.0151916, "lon": 9.9543504}, {"type": "node", "id": 4527784195, "lat": 3.0151317, "lon": 9.9544959}, {"type": "node", "id": 4527784196, "lat": 3.0151863, "lon": 9.9545185}, {"type": "node", "id": 4527784197, "lat": 3.0152463, "lon": 9.9543729}, {"type": "node", "id": 4579451189, "lat": 3.0241717, "lon": 9.9574052, "tags": {"amenity": "restaurant", "name": "Costa blanca", "name:fr": "Costa blanca", "opening_hours": "Mo-Su 08:00-00:00"}}, {"type": "node", "id": 4960202476, "lat": 2.9793156, "lon": 9.9187781}, {"type": "node", "id": 4960202477, "lat": 2.979199, "lon": 9.9187794}, {"type": "node", "id": 4960202478, "lat": 2.9792017, "lon": 9.9187358}, {"type": "node", "id": 4960202479, "lat": 2.9791307, "lon": 9.9187332}, {"type": "node", "id": 4960202480, "lat": 2.9791321, "lon": 9.9186708}, {"type": "node", "id": 4960202481, "lat": 2.9792528, "lon": 9.9185849}, {"type": "node", "id": 4960202482, "lat": 2.9792858, "lon": 9.9185908}, {"type": "node", "id": 4960202483, "lat": 2.9793141, "lon": 9.9186089}, {"type": "node", "id": 4960202484, "lat": 2.9793333, "lon": 9.9186365}, {"type": "node", "id": 4960202485, "lat": 2.9793346, "lon": 9.9187024}, {"type": "node", "id": 4960202486, "lat": 2.9793165, "lon": 9.9187307}, {"type": "node", "id": 4960202487, "lat": 2.9791744, "lon": 9.9186396}, {"type": "node", "id": 4960202488, "lat": 2.9791925, "lon": 9.9186113}, {"type": "node", "id": 4960202489, "lat": 2.97922, "lon": 9.9185921}, {"type": "node", "id": 4960202490, "lat": 2.9793405, "lon": 9.9186693}, {"type": "node", "id": 4960202491, "lat": 2.9791685, "lon": 9.9186727}, {"type": "node", "id": 4960203879, "lat": 2.9793216, "lon": 9.9177017}, {"type": "node", "id": 4960203880, "lat": 2.9792772, "lon": 9.9178743}, {"type": "node", "id": 4960203881, "lat": 2.9794547, "lon": 9.91792}, {"type": "node", "id": 4960203882, "lat": 2.9794863, "lon": 9.9177967}, {"type": "node", "id": 4960203883, "lat": 2.9793868, "lon": 9.9177185}, {"type": "node", "id": 4960203884, "lat": 2.9794095, "lon": 9.9177192}, {"type": "node", "id": 4960203885, "lat": 2.9794294, "lon": 9.9177297}, {"type": "node", "id": 4960203886, "lat": 2.9794486, "lon": 9.9177675}, {"type": "node", "id": 4960203887, "lat": 2.9794462, "lon": 9.9177864}, {"type": "node", "id": 4960203888, "lat": 2.9794433, "lon": 9.9177474}, {"type": "node", "id": 5342827444, "lat": 2.9348158, "lon": 9.904023}, {"type": "node", "id": 5342827445, "lat": 2.9348708, "lon": 9.9041517}, {"type": "node", "id": 5342827446, "lat": 2.934729, "lon": 9.9042124}, {"type": "node", "id": 5342827447, "lat": 2.9346741, "lon": 9.9040836}, {"type": "node", "id": 5588595397, "lat": 2.9030286, "lon": 9.9013872, "tags": {"amenity": "restaurant", "capacity:tents": "5", "name": "Miami Plage", "phone": "+237696942468", "tourism": "camp_site"}}, {"type": "node", "id": 5596686295, "lat": 2.93754, "lon": 9.9063151, "tags": {"amenity": "restaurant", "name": "Restaurants de Poisson"}}, {"type": "node", "id": 6262080685, "lat": 2.7100164, "lon": 10.0554554, "tags": {"amenity": "restaurant", "cuisine": "african;sandwich;breakfast;international;grill;friture;coffee_shop", "internet_access": "wlan", "name": "Club le tali", "opening_hours": "Mo-Su 08:00-21:30"}}, {"type": "node", "id": 8047446761, "lat": 2.9760738, "lon": 9.9155912, "tags": {"amenity": "restaurant"}}, {"type": "node", "id": 8047446767, "lat": 2.9490554, "lon": 9.9174005, "tags": {"amenity": "restaurant"}}, {"type": "node", "id": 8047446776, "lat": 2.9377768, "lon": 9.9054085, "tags": {"amenity": "restaurant", "name": "Marina de Kribi"}}, {"type": "node", "id": 8047446782, "lat": 2.9493619, "lon": 9.912937, "tags": {"amenity": "restaurant"}}, {"type": "node", "id": 8047455488, "lat": 2.9440266, "lon": 9.911321, "tags": {"amenity": "restaurant", "name": "Le Soleil"}}, {"type": "node", "id": 8047455501, "lat": 2.9456593, "lon": 9.9200701, "tags": {"amenity": "restaurant", "name": "Restaurant le soleil"}}, {"type": "node", "id": 8047455504, "lat": 2.9328207, "lon": 9.9100187, "tags": {"amenity": "restaurant"}}, {"type": "node", "id": 8047455508, "lat": 2.9496355, "lon": 9.9175835, "tags": {"amenity": "restaurant", "name": "Restaurant vip"}}, {"type": "node", "id": 8047455519, "lat": 2.962454, "lon": 9.9157351, "tags": {"amenity": "restaurant"}}, {"type": "node", "id": 8047455523, "lat": 2.9545267, "lon": 9.9117502, "tags": {"amenity": "restaurant", "name": "Ebene plus"}}, {"type": "node", "id": 8047455545, "lat": 2.9394606, "lon": 9.9115046, "tags": {"amenity": "restaurant", "name": "Le bigsoukala"}}, {"type": "node", "id": 8047455546, "lat": 2.9479997, "lon": 9.9166831, "tags": {"amenity": "restaurant", "name": "Cafe hamadou"}}, {"type": "node", "id": 8047455558, "lat": 2.9487905, "lon": 9.9243036, "tags": {"amenity": "restaurant", "name": "La table des gourmets"}}, {"type": "node", "id": 8047455565, "lat": 2.9533203, "lon": 9.9252732, "tags": {"amenity": "restaurant", "name": "Le capitole"}}, {"type": "node", "id": 8047455570, "lat": 2.9427069, "lon": 9.9170058, "tags": {"amenity": "restaurant", "name": "Le tetraodon"}}, {"type": "node", "id": 8047455588, "lat": 2.9624874, "lon": 9.9151064, "tags": {"amenity": "restaurant", "name": "RESTAURANT OBAMA FASHION"}}, {"type": "node", "id": 8047455599, "lat": 2.9690568, "lon": 9.9131509, "tags": {"amenity": "restaurant", "name": "RESTAURANT LE MARSEILLAIS"}}, {"type": "node", "id": 8047455601, "lat": 2.9458456, "lon": 9.9180047, "tags": {"amenity": "restaurant", "name": "Chez Fadil"}}, {"type": "node", "id": 8047455625, "lat": 2.9436409, "lon": 9.9124829, "tags": {"amenity": "restaurant"}}, {"type": "node", "id": 8047455626, "lat": 2.9437171, "lon": 9.9121086, "tags": {"amenity": "restaurant", "name": "Le Touristique"}}, {"type": "node", "id": 8047455643, "lat": 2.933454, "lon": 9.9094071, "tags": {"amenity": "restaurant", "name": "Bienvenue chez Christine"}}, {"type": "node", "id": 8047455654, "lat": 2.952647, "lon": 9.9124315, "tags": {"amenity": "restaurant", "name": "Holiday"}}, {"type": "node", "id": 8047455662, "lat": 2.9590996, "lon": 9.9110217, "tags": {"amenity": "restaurant"}}, {"type": "node", "id": 8047455670, "lat": 2.9502445, "lon": 9.9145238, "tags": {"amenity": "restaurant", "name": "Boucherie la"}}, {"type": "node", "id": 8047455686, "lat": 2.9624369, "lon": 9.9160836, "tags": {"amenity": "restaurant", "name": "RESTAURANT LE SYLVANO"}}, {"type": "node", "id": 8047455687, "lat": 2.9491391, "lon": 9.9175577, "tags": {"amenity": "restaurant", "name": "Grandes realisations"}}, {"type": "node", "id": 8047455688, "lat": 2.9468855, "lon": 9.9170259, "tags": {"amenity": "restaurant", "name": "Kitchen House"}}, {"type": "node", "id": 8047455708, "lat": 2.9525117, "lon": 9.9247395, "tags": {"amenity": "restaurant", "name": "Les mets africains"}}, {"type": "node", "id": 8047455711, "lat": 2.8845094, "lon": 9.8982786, "tags": {"amenity": "restaurant", "name": "Restaurant de la crevette"}}, {"type": "node", "id": 8047455714, "lat": 2.9356969, "lon": 9.905778, "tags": {"amenity": "restaurant", "name": "Starmania"}}, {"type": "node", "id": 8047455725, "lat": 2.9746509, "lon": 9.9166919, "tags": {"amenity": "restaurant", "name": "ALPHA-BAR-GRILL-RESTO. \" LE BRASIER\""}}, {"type": "node", "id": 8047455726, "lat": 2.9475079, "lon": 9.9171193, "tags": {"amenity": "restaurant", "name": "Cafe restau dg"}}, {"type": "node", "id": 8047455739, "lat": 2.9162996, "lon": 9.8995775, "tags": {"amenity": "restaurant", "name": "La braise chez angels"}}, {"type": "node", "id": 8047455745, "lat": 2.9463546, "lon": 9.9163592, "tags": {"amenity": "restaurant", "name": "Le Mixgrill"}}, {"type": "node", "id": 8047455751, "lat": 2.9300295, "lon": 9.9113893, "tags": {"amenity": "restaurant"}}, {"type": "node", "id": 8047455753, "lat": 2.9501772, "lon": 9.91738, "tags": {"amenity": "restaurant", "name": "Danay VIP"}}, {"type": "node", "id": 8047455760, "lat": 2.9552394, "lon": 9.9166945, "tags": {"amenity": "restaurant", "name": "Cafe restaurant kribi"}}, {"type": "node", "id": 8047455763, "lat": 2.934455, "lon": 9.9055978, "tags": {"amenity": "restaurant"}}, {"type": "node", "id": 8047455777, "lat": 2.9466477, "lon": 9.9170949, "tags": {"amenity": "restaurant", "name": "Chez Rawal"}}, {"type": "node", "id": 8047455784, "lat": 2.9488677, "lon": 9.9196062, "tags": {"amenity": "restaurant"}}, {"type": "node", "id": 8047455791, "lat": 2.9359014, "lon": 9.9044445, "tags": {"amenity": "restaurant", "name": "Coco Beach le mill\u00e9sim", "not:brand:wikidata": "Q65084369"}}, {"type": "node", "id": 8047455796, "lat": 2.9463906, "lon": 9.9164456, "tags": {"amenity": "restaurant", "name": "Chez LA Maman"}}, {"type": "node", "id": 8047455807, "lat": 2.9536523, "lon": 9.9173211, "tags": {"amenity": "restaurant", "name": "Amour ocean bar"}}, {"type": "node", "id": 8047455813, "lat": 2.9439541, "lon": 9.9127124, "tags": {"amenity": "restaurant", "name": "La Sir\u00e8ne Grillade"}}, {"type": "node", "id": 8047455816, "lat": 2.9455349, "lon": 9.9205572, "tags": {"amenity": "restaurant", "name": "Jardin d'olives"}}, {"type": "node", "id": 8047455828, "lat": 2.9554282, "lon": 9.9274173, "tags": {"amenity": "restaurant", "name": "Restaurant africain"}}, {"type": "node", "id": 8047455839, "lat": 2.9379784, "lon": 9.9083275, "tags": {"amenity": "restaurant", "name": "Ini Baya"}}, {"type": "node", "id": 8047455848, "lat": 2.9489754, "lon": 9.9173096, "tags": {"amenity": "restaurant"}}, {"type": "node", "id": 8047455874, "lat": 2.9334486, "lon": 9.9051971, "tags": {"amenity": "restaurant", "name": "Cafe restau"}}, {"type": "node", "id": 8047455883, "lat": 2.9543735, "lon": 9.9181757, "tags": {"amenity": "restaurant"}}, {"type": "node", "id": 8047455896, "lat": 2.9351894, "lon": 9.9054233, "tags": {"amenity": "restaurant"}}, {"type": "node", "id": 8047455912, "lat": 2.9461369, "lon": 9.9180396, "tags": {"amenity": "restaurant", "name": "Le saoudien"}}, {"type": "node", "id": 8047455930, "lat": 2.9466339, "lon": 9.9167372, "tags": {"amenity": "restaurant", "name": "Le Buffet Bio"}}, {"type": "node", "id": 8047455937, "lat": 2.94898, "lon": 9.9160178, "tags": {"amenity": "restaurant", "name": "Cafe kader"}}, {"type": "node", "id": 8047455950, "lat": 2.9432409, "lon": 9.9178284, "tags": {"amenity": "restaurant", "name": "La fourchette"}}, {"type": "node", "id": 8047455951, "lat": 2.9542083, "lon": 9.9182287, "tags": {"amenity": "restaurant"}}, {"type": "node", "id": 8047455956, "lat": 2.9838774, "lon": 9.9244075, "tags": {"amenity": "restaurant"}}, {"type": "node", "id": 8047455957, "lat": 2.9496176, "lon": 9.9206082, "tags": {"amenity": "restaurant", "name": "Les saveurs de blandine"}}, {"type": "node", "id": 8047455970, "lat": 2.9332083, "lon": 9.9092389, "tags": {"amenity": "restaurant"}}, {"type": "node", "id": 8047455972, "lat": 2.9589682, "lon": 9.9111187, "tags": {"amenity": "restaurant", "name": "Youpi"}}, {"type": "node", "id": 8047455989, "lat": 2.9601491, "lon": 9.9221747, "tags": {"amenity": "restaurant", "check_date": "2024-03-13"}}, {"type": "node", "id": 8047456007, "lat": 2.9475987, "lon": 9.9166743, "tags": {"amenity": "restaurant", "name": "It Is Well Africain Dish"}}, {"type": "node", "id": 8047456032, "lat": 2.9744358, "lon": 9.9165473, "tags": {"amenity": "restaurant", "name": "CHICKEN HOUSE"}}, {"type": "node", "id": 8047456034, "lat": 2.9342306, "lon": 9.9055742, "tags": {"amenity": "restaurant", "name": "El Castellano"}}, {"type": "node", "id": 8047456036, "lat": 2.9624666, "lon": 9.9118028, "tags": {"amenity": "restaurant"}}, {"type": "node", "id": 8047456045, "lat": 2.9538429, "lon": 9.917165, "tags": {"amenity": "restaurant"}}, {"type": "node", "id": 8047456084, "lat": 2.9543899, "lon": 9.9186414, "tags": {"amenity": "restaurant", "name": "Le septentrion"}}, {"type": "node", "id": 8047456109, "lat": 2.9413698, "lon": 9.9100087, "tags": {"amenity": "restaurant", "name": "Give A Chance Restaurant"}}, {"type": "node", "id": 8047456122, "lat": 2.9455801, "lon": 9.9206504, "tags": {"amenity": "restaurant", "name": "Calypso Kribi"}}, {"type": "node", "id": 8047456123, "lat": 2.9540519, "lon": 9.9179365, "tags": {"amenity": "restaurant", "name": "La detente"}}, {"type": "node", "id": 8047456127, "lat": 2.9794315, "lon": 9.9178183, "tags": {"amenity": "restaurant", "name": "RESTAURANT BEACH"}}, {"type": "node", "id": 8047456131, "lat": 2.9528984, "lon": 9.9129863, "tags": {"amenity": "restaurant", "name": "Bar resto"}}, {"type": "node", "id": 9334154817, "lat": 2.723385, "lon": 10.066958, "tags": {"addr:housenumber": "694023125", "addr:street": "V1-2", "amenity": "restaurant", "cuisine": "african", "name": "Merveilles", "opening_hours": "Mo-Su 07:00-21:00"}}, {"type": "node", "id": 9591616417, "lat": 2.7235459, "lon": 10.0664617, "tags": {"amenity": "restaurant", "name": "Chez Mme mberso"}}, {"type": "node", "id": 11792925666, "lat": 2.9406068, "lon": 9.9129476, "tags": {"addr:city": "Kribi", "air_conditioning": "yes", "amenity": "restaurant", "delivery": "yes", "highchair": "no", "name": "Pizza Dor\u00e9e"}}, {"type": "way", "id": 338971746, "nodes": [3461546680, 3461546686, 3461546691, 3461546687, 3461546682, 3461546669, 3461546652, 3461546662, 3461546680], "tags": {"amenity": "restaurant", "building": "yes", "name": "Marina"}}, {"type": "way", "id": 436905333, "nodes": [4347581283, 4347581274, 4347581291, 4347581303, 4347581283], "tags": {"amenity": "restaurant", "building": "yes"}}, {"type": "way", "id": 444740249, "nodes": [4421994785, 4421994786, 4421994787, 4421994788, 4421994785], "tags": {"amenity": "restaurant", "building": "yes", "description": "Ebandja", "name": "Chez Mama Amour (Ebandja)"}}, {"type": "way", "id": 456527365, "nodes": [4527784197, 4527784196, 4527784195, 4527784194, 4527784197], "tags": {"amenity": "restaurant", "building": "hotel", "building:levels": "2", "name": "San Marco"}}, {"type": "way", "id": 506256396, "nodes": [4960202486, 4960202485, 4960202490, 4960202484, 4960202483, 4960202482, 4960202481, 4960202489, 4960202488, 4960202487, 4960202491, 4960202480, 4960202479, 4960202478, 4960202477, 4960202476, 4960202486], "tags": {"amenity": "restaurant", "building": "yes"}}, {"type": "way", "id": 506256422, "nodes": [4960203883, 4960203879, 4960203880, 4960203881, 4960203882, 4960203887, 4960203886, 4960203888, 4960203885, 4960203884, 4960203883], "tags": {"amenity": "restaurant", "building": "yes"}}, {"type": "way", "id": 553518417, "nodes": [5342827447, 5342827444, 5342827445, 5342827446, 5342827447], "tags": {"amenity": "restaurant", "building": "yes", "cuisine": "crepe", "name": "Cr\u00eaperie Pieds dans l'eau", "opening_hours": "Tu-Su 08:00-21:00"}}]}