{"version": 0.6, "generator": "Overpass API 0.7.62.7 375dc00a", "osm3s": {"timestamp_osm_base": "2025-06-14T15:19:03Z", "copyright": "The data included in this document is from www.openstreetmap.org. The data is made available under ODbL."}, "elements": [{"type": "node", "id": 366503373, "lat": 33.237847, "lon": 35.7660677, "tags": {"amenity": "restaurant", "name": "\u0628\u062d\u064a\u0631\u0629 \u0645\u0633\u0639\u062f\u0629", "name:ar": "\u0628\u062d\u064a\u0631\u0629 \u0645\u0633\u0639\u062f\u0629", "name:en": "Birkat Ram"}}, {"type": "node", "id": 366503481, "lat": 33.1286322, "lon": 35.7854278}, {"type": "node", "id": 729769955, "lat": 33.2309308, "lon": 35.7557787, "tags": {"amenity": "restaurant", "name": "Nidal's", "name:en": "Nidal's"}}, {"type": "node", "id": 913284612, "lat": 32.9937907, "lon": 35.7108009, "tags": {"amenity": "restaurant", "contact:facebook": "https://www.facebook.com/www.meatshos.co.il/", "contact:instagram": "https://www.instagram.com/meatshos/", "cuisine": "burger", "name": "\u05de\u05d9\u05d8\u05e9\u05d5\u05e1", "name:en": "MeatShos", "name:he": "\u05de\u05d9\u05d8\u05e9\u05d5\u05e1", "opening_hours": "Mo-Th 12:00-18:00; Fr 13:00-22:00; Sa 12:00-19:00", "phone": "+972 4 696 3334", "website": "https://www.meatshos.co.il/"}}, {"type": "node", "id": 1098960707, "lat": 33.3079274, "lon": 35.7726544, "tags": {"amenity": "restaurant"}}, {"type": "node", "id": 1127140309, "lat": 33.0139892, "lon": 36.1826886, "tags": {"amenity": "restaurant"}}, {"type": "node", "id": 1141445190, "lat": 33.0208782, "lon": 36.123373, "tags": {"amenity": "cafe"}}, {"type": "node", "id": 1141446517, "lat": 33.0226953, "lon": 36.1311305, "tags": {"amenity": "restaurant"}}, {"type": "node", "id": 1517965168, "lat": 33.3061917, "lon": 35.7842574, "tags": {"amenity": "cafe"}}, {"type": "node", "id": 1524725000, "lat": 33.1376238, "lon": 35.7313472, "tags": {"amenity": "cafe"}}, {"type": "node", "id": 1760624090, "lat": 33.2316197, "lon": 35.7555087, "tags": {"addr:city": "\u0645\u0633\u0639\u062f\u0629", "amenity": "restaurant"}}, {"type": "node", "id": 2270508847, "lat": 33.130746, "lon": 35.7795032, "tags": {"amenity": "restaurant"}}, {"type": "node", "id": 3012792878, "lat": 32.9905668, "lon": 36.0583839, "tags": {"amenity": "restaurant", "cuisine": "burger", "name": "basil", "smoking": "no"}}, {"type": "node", "id": 4269551449, "lat": 33.2238996, "lon": 35.7584658, "tags": {"amenity": "restaurant", "cuisine": "burger", "name": "\u05d4\u05d0\u05dc\u05d5\u05df", "name:en": "Oak steak house", "name:he": "\u05d4\u05d0\u05dc\u05d5\u05df"}}, {"type": "node", "id": 5390526252, "lat": 33.2277185, "lon": 35.7567577, "tags": {"amenity": "restaurant", "name": "\u05de\u05e1\u05e2\u05d3\u05ea \u05d0\u05dc-\u05e1\u05d5\u05dc\u05d8\u05d0\u05df", "name:ar": "\u0645\u0637\u0639\u0645 \u0627\u0644\u0633\u0644\u0637\u0627\u0646", "name:en": "Al-Sultan", "name:he": "\u05de\u05e1\u05e2\u05d3\u05ea \u05d0\u05dc-\u05e1\u05d5\u05dc\u05d8\u05d0\u05df", "phone": "+972 4 644 4292"}}, {"type": "node", "id": 5390532136, "lat": 33.2283048, "lon": 35.756571, "tags": {"amenity": "restaurant", "name": "\u05d1\u05d9\u05ea \u05d4\u05e1\u05de\u05d1\u05d5\u05e1\u05e7", "name:he": "\u05d1\u05d9\u05ea \u05d4\u05e1\u05de\u05d1\u05d5\u05e1\u05e7"}}, {"type": "node", "id": 5390533751, "lat": 33.2298761, "lon": 35.7560609, "tags": {"amenity": "restaurant", "contact:facebook": "https://www.facebook.com/isteakwood/", "internet_access": "wlan", "name": "Steakwood", "name:en": "Steakwood", "name:he": "\u05e1\u05d8\u05d9\u05d9\u05e7 \u05d5\u05d5\u05d3", "opening_hours": "Mo-Su 09:00-22:00", "outdoor_seating": "yes", "phone": "+972 77 230 7619"}}, {"type": "node", "id": 5711480683, "lat": 33.2651122, "lon": 35.7625475, "tags": {"addr:city": "\u0645\u062c\u062f\u0644 \u0634\u0645\u0633", "amenity": "restaurant", "contact:facebook": "https://www.facebook.com/pg/xorestaurantcafe/", "cuisine": "steak_house;middle_eastern", "diet:kosher": "no", "name": "\u0625\u0643\u0633 \u0623\u0648", "name:ar": "\u0625\u0643\u0633 \u0623\u0648", "name:en": "XO", "name:he": "\u05de\u05e1\u05e2\u05d3\u05ea XO", "opening_hours": "Su-Sa 10:00-23:00", "outdoor_seating": "yes", "phone": "+972 52 366 2093", "website": "https://xo.rest.co.il/", "wheelchair": "yes", "wikidata": "Q66827962"}}, {"type": "node", "id": 5853772826, "lat": 33.2673782, "lon": 35.769286, "tags": {"addr:city": "\u0645\u062c\u062f\u0644 \u0634\u0645\u0633", "amenity": "restaurant", "cuisine": "burger", "diet:kosher": "no", "name": "The Burger Place", "name:en": "The Burger Place", "outdoor_seating": "no", "payment:cash": "yes", "payment:coins": "yes", "payment:notes": "yes", "takeaway": "yes", "toilets": "no"}}, {"type": "node", "id": 5853780045, "lat": 33.2656851, "lon": 35.7683429, "tags": {"amenity": "cafe", "cuisine": "coffee_shop", "name": "Dam", "name:en": "Dam"}}, {"type": "node", "id": 5942251337, "lat": 33.2663885, "lon": 35.7632952, "tags": {"addr:city": "\u0645\u062c\u062f\u0644 \u0634\u0645\u0633", "alt_name:en": "Nissan Restaurant", "amenity": "restaurant", "diet:kosher": "no", "fax": "+972 4 687 0831", "internet_access": "no", "name": "\u05de\u05e1\u05e2\u05d3\u05ea \u05e0\u05d9\u05e1\u05df", "name:en": "Nisan Restaurant", "name:he": "\u05de\u05e1\u05e2\u05d3\u05ea \u05e0\u05d9\u05e1\u05df", "opening_hours": "Mo-Su 12:00-22:00", "outdoor_seating": "no", "phone": "+972 53 941 4951;+972 4 698 4796", "takeaway": "yes", "website": "https://nisan.rest.co.il", "wheelchair": "yes"}}, {"type": "node", "id": 6411467845, "lat": 33.1283638, "lon": 35.7854037}, {"type": "node", "id": 6411467846, "lat": 33.1283615, "lon": 35.7855137}, {"type": "node", "id": 6411467847, "lat": 33.1284076, "lon": 35.7855619}, {"type": "node", "id": 6411467848, "lat": 33.1286266, "lon": 35.7855794}, {"type": "node", "id": 6567593714, "lat": 33.3078396, "lon": 35.7727817, "tags": {"amenity": "cafe", "name": "\u05d0\u05d9\u05e9 \u05d4\u05e9\u05dc\u05d2", "name:he": "\u05d0\u05d9\u05e9 \u05d4\u05e9\u05dc\u05d2"}}, {"type": "node", "id": 7086463292, "lat": 32.9586739, "lon": 35.741793, "tags": {"amenity": "cafe", "name": "Kafe Galeria", "name:en": "Kafe Galeria"}}, {"type": "node", "id": 7086467055, "lat": 32.9583341, "lon": 35.7414785, "tags": {"amenity": "cafe", "name": "Yaeli", "name:en": "Yaeli"}}, {"type": "node", "id": 7652381686, "lat": 33.2361768, "lon": 35.7628936, "tags": {"addr:street": "\u05e9\u05d1\u05d9\u05dc \u05d4\u05d2\u05d5\u05dc\u05df", "amenity": "restaurant", "cuisine": "local;mediterranean;seafood", "name:en": "T-Bone", "opening_hours": "Mo-Su 11:00-00:00", "phone": "0542283383"}}, {"type": "node", "id": 7655989189, "lat": 33.2612336, "lon": 35.7402114, "tags": {"addr:city": "\u05e0\u05d5\u05d5\u05d4 \u05d0\u05d8\u05d9\u05d1", "amenity": "restaurant", "name": "\u05e4\u05e4\u05e8\u05d9\u05e7\u05d4", "name:he": "\u05e4\u05e4\u05e8\u05d9\u05e7\u05d4"}}, {"type": "node", "id": 8413379418, "lat": 33.181114, "lon": 35.8956274, "tags": {"amenity": "restaurant", "name": "\u0645\u0637\u0639\u0645 \u0627\u0644\u0633\u0644\u0637\u0627\u0646", "name:en": "Alsultan Restaurant"}}, {"type": "node", "id": 8566744953, "lat": 33.2361735, "lon": 35.7571743, "tags": {"amenity": "restaurant", "name": "Huny Huny"}}, {"type": "node", "id": 8566745765, "lat": 33.2361018, "lon": 35.7571333, "tags": {"amenity": "cafe", "name": "\u05e4\u05d9\u05e8\u05d5\u05d6\u05d9\u05d0\u05ea", "name:he": "\u05e4\u05d9\u05e8\u05d5\u05d6\u05d9\u05d0\u05ea"}}, {"type": "node", "id": 9364972827, "lat": 33.2693289, "lon": 35.770962, "tags": {"amenity": "restaurant", "cuisine": "local", "internet_access": "wlan", "name": "\u05d0\u05dc\u05d9\u05d0\u05e1\u05de\u05d9\u05df", "name:en": "Al Yasmeen", "name:he": "\u05d0\u05dc\u05d9\u05d0\u05e1\u05de\u05d9\u05df"}}, {"type": "node", "id": 9459956680, "lat": 33.1998731, "lon": 35.7771165, "tags": {"amenity": "cafe", "cuisine": "cake;cafe;french", "name": "tutti frutti"}}, {"type": "node", "id": 9462683323, "lat": 33.206504, "lon": 35.7716713, "tags": {"amenity": "cafe", "cuisine": "chocolate", "name": "dip and dip", "website": "https://gplatform.online/store/dipanddip/"}}, {"type": "node", "id": 9487569558, "lat": 33.1980286, "lon": 35.7756354, "tags": {"amenity": "cafe", "name": "\u05de\u05de\u05ea\u05e7\u05d9\u05dd \u05d0\u05d1\u05d5 \u05e9\u05d0\u05d3\u05d9", "name:he": "\u05de\u05de\u05ea\u05e7\u05d9\u05dd \u05d0\u05d1\u05d5 \u05e9\u05d0\u05d3\u05d9"}}, {"type": "node", "id": 9500938990, "lat": 33.2054205, "lon": 35.7720035, "tags": {"amenity": "restaurant", "name": "pizza slice of heaven", "phone": "+972 50-343-3447", "website": "https://golanplatform.com/store/pizza-slice-of-heaven"}}, {"type": "node", "id": 11016242850, "lat": 33.1996259, "lon": 35.7781316, "tags": {"amenity": "restaurant", "cuisine": "italian", "name": "My Pizza", "phone": "0502906021"}}, {"type": "node", "id": 11032162405, "lat": 32.9869358, "lon": 35.7076582, "tags": {"amenity": "restaurant", "name:en": "Golan Brewery"}}, {"type": "node", "id": 12871715601, "lat": 33.0975694, "lon": 35.7982424, "tags": {"amenity": "cafe", "image": "https://upload.wikimedia.org/wikipedia/commons/d/df/IHM_\u05d0\u05dc\u05e7\u05e2_\u05d1\u05e8_-_\u05e7\u05e4\u05d4.jpeg", "name": "\u05d0\u05dc\u05e7\u05e2 \u05d1\u05e8 - \u05e7\u05e4\u05d4", "name:he": "\u05d0\u05dc\u05e7\u05e2 \u05d1\u05e8 - \u05e7\u05e4\u05d4", "opening_hours": "Fr-Sa 09:00-16:00"}}, {"type": "way", "id": 684350916, "nodes": [366503481, 6411467845, 6411467846, 6411467847, 6411467848, 366503481], "tags": {"amenity": "cafe", "building": "yes", "cuisine": "coffee_shop", "name": "\u05e7\u05e4\u05d4 \u05e2\u05e0\u05df", "name:en": "Coffee Annan", "name:en1": "Coffee Anan", "name:he": "\u05e7\u05e4\u05d4 \u05e2\u05e0\u05df", "outdoor_seating": "yes", "toilets": "yes"}}]}