{"version": 0.6, "generator": "Overpass API 0.7.62.7 375dc00a", "osm3s": {"timestamp_osm_base": "2025-06-14T15:26:15Z", "copyright": "The data included in this document is from www.openstreetmap.org. The data is made available under ODbL."}, "elements": [{"type": "node", "id": 2334369693, "lat": 37.5792306, "lon": 38.9470544, "tags": {"amenity": "restaurant", "name": "Demir Tesisleri"}}, {"type": "node", "id": 5003735232, "lat": 37.7412333, "lon": 39.3057942, "tags": {"addr:city": "\u015eanl\u0131urfa", "addr:district": "Siverek", "amenity": "restaurant", "name": "Emmo\u015f Bucak Restaurant"}}, {"type": "node", "id": 5582148821, "lat": 37.7130755, "lon": 39.280246, "tags": {"amenity": "restaurant", "name": "G\u00fcl-Pet Dinlenme Tesisleri"}}, {"type": "node", "id": 5586161926, "lat": 37.3871152, "lon": 38.8581644, "tags": {"amenity": "restaurant", "name": "Ye\u015fil Gap Dinlenme Tesisleri"}}, {"type": "node", "id": 12368183944, "lat": 37.616679, "lon": 39.1557701, "tags": {"amenity": "restaurant", "name": "Et Lokantasi"}}]}