{"version": 0.6, "generator": "Overpass API 0.7.62.7 375dc00a", "osm3s": {"timestamp_osm_base": "2025-06-14T14:58:44Z", "copyright": "The data included in this document is from www.openstreetmap.org. The data is made available under ODbL."}, "elements": [{"type": "node", "id": 4698771443, "lat": 39.5430403, "lon": 29.4876909, "tags": {"amenity": "cafe", "name": "Mola cafe"}}, {"type": "node", "id": 6816098686, "lat": 39.6313196, "lon": 29.3979273, "tags": {"amenity": "cafe", "name": "Aziz K\u0131raatevi"}}, {"type": "node", "id": 12236430701, "lat": 39.5417136, "lon": 29.4885702, "tags": {"amenity": "cafe", "name": "Rakun Lounge"}}, {"type": "node", "id": 12236454701, "lat": 39.568395, "lon": 29.4574929, "tags": {"amenity": "cafe", "name": "Kantin"}}, {"type": "node", "id": 12384780401, "lat": 39.5412326, "lon": 29.4893534, "tags": {"amenity": "cafe", "name": "Harika Cafe"}}]}