{"version": 0.6, "generator": "Overpass API 0.7.62.7 375dc00a", "osm3s": {"timestamp_osm_base": "2025-06-14T14:46:28Z", "copyright": "The data included in this document is from www.openstreetmap.org. The data is made available under ODbL."}, "elements": [{"type": "node", "id": 632541792, "lat": 35.0979489, "lon": 24.6935283, "tags": {"amenity": "restaurant", "check_date:opening_hours": "2023-06-03", "cuisine": "regional", "indoor_seating": "yes", "int_name": "Kostas", "internet_access": "wlan", "internet_access:fee": "no", "name": "\u039a\u03bf\u03c3\u03c4\u03b1\u03c2", "opening_hours": "Mo-Su 09:30-23:00", "outdoor_seating": "yes", "smoking": "yes", "wheelchair": "yes"}}, {"type": "node", "id": 632557769, "lat": 35.0981908, "lon": 24.6854831, "tags": {"amenity": "restaurant", "cuisine": "regional", "name": "Horiatis Taverne"}}, {"type": "node", "id": 963919520, "lat": 35.1056117, "lon": 24.5654165, "tags": {"amenity": "restaurant"}}, {"type": "node", "id": 1449050696, "lat": 35.096488, "lon": 24.6881125, "tags": {"amenity": "restaurant", "name": "Kosmas"}}, {"type": "node", "id": 1451108930, "lat": 35.0975349, "lon": 24.6865896, "tags": {"amenity": "cafe", "cuisine": "Patisserie", "name": "Chocorello", "operator": "Kosta Vlatakis", "shop": "bakery", "smoking": "yes"}}, {"type": "node", "id": 1864891441, "lat": 35.0961684, "lon": 24.6881898, "tags": {"amenity": "restaurant", "cuisine": "greek", "internet_access": "yes", "internet_access:fee": "no", "name": "Onar", "opening_hours": "Mo-Su,PH 12:00-24:00", "wheelchair": "no"}}, {"type": "node", "id": 1864891556, "lat": 35.0980119, "lon": 24.6932808, "tags": {"amenity": "restaurant", "cuisine": "greek", "internet_access": "wlan", "internet_access:fee": "no", "name": "Lava Restaurant"}}, {"type": "node", "id": 1864907629, "lat": 35.0982787, "lon": 24.6917787, "tags": {"amenity": "restaurant", "cuisine": "regional", "email": "info@stochos.gr", "fax": "+30 28320 91420", "int_name": "Stochos", "name": "\u03a3\u03c4\u03cc\u03c7\u03bf\u03c2", "name:de": "Stochos", "name:el": "\u03a3\u03c4\u03cc\u03c7\u03bf\u03c2", "outdoor_seating": "yes", "phone": "+30 28320 91167", "smoking": "yes", "tourism": "apartment", "website": "https://www.stochos.gr/"}}, {"type": "node", "id": 2016406744, "lat": 35.096291, "lon": 24.6886863, "tags": {"amenity": "cafe", "internet_access": "wlan", "internet_access:fee": "no", "internet_access:ssid": "CestLaVie", "name": "Karma", "outdoor_seating": "yes"}}, {"type": "node", "id": 2984723209, "lat": 35.0963328, "lon": 24.6885992, "tags": {"amenity": "restaurant", "int_name": "Madame Hortense", "name": "\u039c\u03b1\u03bd\u03c4\u03ac\u03bc \u039f\u03c1\u03c4\u03b1\u03bd\u03c2", "opening_hours": "12:00-15:00,18:00-00:00"}}, {"type": "node", "id": 2984723217, "lat": 35.0981881, "lon": 24.6929081, "tags": {"amenity": "restaurant", "internet_access": "wlan", "internet_access:fee": "no", "name": "Potamida"}}, {"type": "node", "id": 2984723227, "lat": 35.0977577, "lon": 24.6948583, "tags": {"amenity": "cafe", "name": "Tropica"}}, {"type": "node", "id": 2984723228, "lat": 35.0977241, "lon": 24.695001, "tags": {"amenity": "cafe", "name": "Yoga"}}, {"type": "node", "id": 2984723229, "lat": 35.0976822, "lon": 24.695214, "tags": {"addr:postcode": "74056", "amenity": "restaurant", "cuisine": "regional;pizza", "fax": "+30 28320 91388", "internet_access": "wlan", "internet_access:fee": "no", "name": "Romantika", "operator": "Heidi Petrakaki & sons", "phone": "+30 28320 91388", "tourism": "apartment", "website": "https://romantika-kreta.gr/"}}, {"type": "node", "id": 2984723647, "lat": 35.0967338, "lon": 24.6874933, "tags": {"amenity": "restaurant", "internet_access": "yes", "internet_access:fee": "no", "internet_access:type": "wifi", "name": "La Strada", "takeaway": "yes", "wheelchair": "yes"}}, {"type": "node", "id": 2984723652, "lat": 35.0966557, "lon": 24.6879747, "tags": {"amenity": "cafe", "int_name": "Cafe Ouzeri", "name": "\u039a\u03b1\u03c6\u03b5\u03bd\u03b5\u03af\u03bf \u039f\u03c5\u03b6\u03b5\u03c1\u03b9 \u0393\u03b9\u03bf\u03c1\u03c4\u03b1\u03bc\u03ae\u03b9\u03c2", "name:de": "Cafe Ouzeri Giortamis", "name:el": "\u039a\u03b1\u03c6\u03b5\u03bd\u03b5\u03af\u03bf \u039f\u03c5\u03b6\u03b5\u03c1\u03b9 \u0393\u03b9\u03bf\u03c1\u03c4\u03b1\u03bc\u03ae\u03b9\u03c2", "name:en": "Cafe Ouzeri Giortamis"}}, {"type": "node", "id": 2984723655, "lat": 35.0963393, "lon": 24.6874522, "tags": {"amenity": "cafe", "name": "Caf\u00e9 Platia"}}, {"type": "node", "id": 2984723659, "lat": 35.0960472, "lon": 24.6881092, "tags": {"amenity": "cafe", "internet_access": "wlan", "name": "Cove"}}, {"type": "node", "id": 2984723661, "lat": 35.0961949, "lon": 24.6884171, "tags": {"amenity": "cafe", "name": "Alibi"}}, {"type": "node", "id": 2984723662, "lat": 35.0962841, "lon": 24.6894346, "tags": {"amenity": "restaurant", "name": "\u0391\u03bb\u03c5\u03ba\u03b5\u03c2", "wheelchair": "no"}}, {"type": "node", "id": 2984965188, "lat": 35.0972435, "lon": 24.6865711, "tags": {"amenity": "cafe", "cuisine": "regional", "food": "yes", "internet_access": "no", "name": "To Pretino", "phone": "+30 28320 91504"}}, {"type": "node", "id": 3158681260, "lat": 35.0962407, "lon": 24.6882832, "tags": {"amenity": "restaurant", "cuisine": "greek", "name": "Pantheon"}}, {"type": "node", "id": 5106307040, "lat": 35.0959797, "lon": 24.6878406}, {"type": "node", "id": 5106307041, "lat": 35.0959933, "lon": 24.6880607}, {"type": "node", "id": 5106307043, "lat": 35.095908, "lon": 24.687916}, {"type": "node", "id": 5108378172, "lat": 35.0965622, "lon": 24.6880553, "tags": {"amenity": "restaurant", "cuisine": "regional", "name": "Ariston"}}, {"type": "node", "id": 5108380702, "lat": 35.0968295, "lon": 24.6875391, "tags": {"amenity": "restaurant", "internet_access": "yes", "internet_access:fee": "no", "internet_access:type": "wifi", "name": "Avil"}}, {"type": "node", "id": 5108380767, "lat": 35.0964888, "lon": 24.6877797, "tags": {"amenity": "cafe", "name": "Miros"}}, {"type": "node", "id": 5108380770, "lat": 35.096138, "lon": 24.6879242, "tags": {"amenity": "restaurant", "name": "Faros"}}, {"type": "node", "id": 5108381524, "lat": 35.0964163, "lon": 24.6881598, "tags": {"amenity": "cafe", "name": "Miro"}}, {"type": "node", "id": 5108381527, "lat": 35.0964361, "lon": 24.6876697, "tags": {"addr:city": "\u0391\u03b3\u03af\u03b1 \u0393\u03b1\u03bb\u03ae\u03bd\u03b7", "amenity": "restaurant", "cuisine": "greek", "name": "The Corner", "opening_hours": "Mo-Su 12:00-22:00"}}, {"type": "node", "id": 5108381528, "lat": 35.0965707, "lon": 24.6877373, "tags": {"amenity": "cafe", "name": "New Alexander"}}, {"type": "node", "id": 5108381529, "lat": 35.096372, "lon": 24.6878464, "tags": {"amenity": "cafe", "internet_access": "wlan", "internet_access:fee": "no", "name": "To Vriskoumeno"}}, {"type": "node", "id": 5108381546, "lat": 35.0973981, "lon": 24.6862179, "tags": {"amenity": "cafe", "name": "To Petrino"}}, {"type": "node", "id": 5108381547, "lat": 35.0981206, "lon": 24.686172, "tags": {"amenity": "cafe", "name": "Coffee Point", "opening_hours": "PH,Mo-Su 07:00-17:00"}}, {"type": "node", "id": 5108381662, "lat": 35.0963605, "lon": 24.6877384, "tags": {"amenity": "restaurant", "name": "Medusa"}}, {"type": "node", "id": 5110578246, "lat": 35.0974626, "lon": 24.6866599, "tags": {"amenity": "restaurant", "cuisine": "regional", "diet:vegetarian": "yes", "name": "Ilios", "phone": "+30 6948927948", "website": "https://www.agia-galini.com/en/restaurants-bars/ilios-taverna"}}, {"type": "node", "id": 6388857554, "lat": 35.0973642, "lon": 24.6549301, "tags": {"amenity": "restaurant", "check_date:opening_hours": "2022-06-28", "description": "Traverna & Rooms", "name": "Nikos Place", "opening_hours:signed": "no", "phone": "+302832091001", "website": "https://www.aggeorgios.gr/"}}, {"type": "node", "id": 10846050905, "lat": 35.0998831, "lon": 24.6953679, "tags": {"amenity": "restaurant", "cuisine": "greek;international", "diet:vegan": "yes", "diet:vegetarian": "yes", "name": "Kipos", "name:el": "Kipos At Camping"}}, {"type": "node", "id": 11395848428, "lat": 35.0967136, "lon": 24.6867996, "tags": {"amenity": "cafe", "name": "Cafe Bogazi"}}, {"type": "node", "id": 11969157764, "lat": 35.104168, "lon": 24.5613565}, {"type": "node", "id": 11969157765, "lat": 35.1041267, "lon": 24.5613231}, {"type": "node", "id": 11969157766, "lat": 35.1041639, "lon": 24.5614116}, {"type": "node", "id": 11969157767, "lat": 35.104072, "lon": 24.5614014}, {"type": "node", "id": 11969157768, "lat": 35.1041245, "lon": 24.5613517}, {"type": "node", "id": 11969208969, "lat": 35.1040782, "lon": 24.5613178}, {"type": "node", "id": 12001027573, "lat": 35.0960685, "lon": 24.6880087}, {"type": "way", "id": 524775532, "nodes": [5106307040, 5106307043, 5106307041, 12001027573, 5106307040], "tags": {"amenity": "restaurant", "building": "yes", "name": "Tatso Mondo"}}, {"type": "way", "id": 1290962204, "nodes": [11969157766, 11969157764, 11969157768, 11969157765, 11969208969, 11969157767, 11969157766], "tags": {"air_conditioning": "no", "amenity": "restaurant", "building": "yes", "building:levels": "1", "building:material": "wood", "building:use": "foodservice", "internet_access": "no", "name": "Pateros", "opening_hours": "Mo-Su 09:00-21:00", "outdoor_seating": "yes", "roof:material": "metal", "roof:shape": "flat", "takeaway": "yes", "wheelchair": "no"}}]}