{"version": 0.6, "generator": "Overpass API 0.7.62.7 375dc00a", "osm3s": {"timestamp_osm_base": "2025-06-14T15:27:15Z", "copyright": "The data included in this document is from www.openstreetmap.org. The data is made available under ODbL."}, "elements": [{"type": "node", "id": 5060300907, "lat": 41.1668101, "lon": 40.8218287, "tags": {"addr:city": "Rize", "addr:district": "Hisarl\u0131 K\u00f6y\u00fc", "addr:postcode": "53330", "amenity": "restaurant", "cuisine": "seafood", "name": "Kvacoli Bal\u0131k Lokantas\u0131", "outdoor_seating": "yes", "phone": "+90 464 6257182", "website": "www.kvacoli.com"}}, {"type": "node", "id": 5773732329, "lat": 41.0877357, "lon": 40.7245575, "tags": {"addr:city": "\u00c7ayeli", "addr:district": "Rize", "addr:housenumber": "93", "addr:postcode": "53200", "addr:street": "Hopa Caddesi", "amenity": "restaurant", "check_date": "2023-04-21", "cuisine": "regional", "name": "Lale Lokantasi", "phone": "+90 464 532718", "website": "https://www.lalelokantasi.com/"}}, {"type": "node", "id": 5792758914, "lat": 41.0995033, "lon": 40.7359219, "tags": {"addr:city": "\u00c7ayeli", "addr:district": "Rize", "addr:postcode": "53200", "addr:street": "9 Mart Caddesi", "amenity": "restaurant", "name": "H\u00fcsrev Lokantari", "phone": "+90 464 532 81 88", "website": "http://www.husrev.com.tr/"}}, {"type": "node", "id": 7128562508, "lat": 41.1763306, "lon": 40.9148055, "tags": {"amenity": "cafe", "name": "Jinn"}}, {"type": "node", "id": 8957254446, "lat": 41.180549, "lon": 40.8875915}, {"type": "node", "id": 8957254447, "lat": 41.1804401, "lon": 40.8875945}, {"type": "node", "id": 8957254448, "lat": 41.1804415, "lon": 40.8876835}, {"type": "node", "id": 8957254449, "lat": 41.1805692, "lon": 40.88768}, {"type": "way", "id": 968182174, "nodes": [8957254446, 8957254447, 8957254448, 8957254449, 8957254446], "tags": {"amenity": "cafe", "building": "yes", "cuisine": "burger", "name": "Katik Doner"}}]}