{"version": 0.6, "generator": "Overpass API 0.7.62.7 375dc00a", "osm3s": {"timestamp_osm_base": "2025-06-14T13:51:30Z", "copyright": "The data included in this document is from www.openstreetmap.org. The data is made available under ODbL."}, "elements": [{"type": "node", "id": 5032663839, "lat": 38.71137, "lon": 13.1915131, "tags": {"amenity": "restaurant", "name": "Carruba"}}, {"type": "node", "id": 5032916126, "lat": 38.6951513, "lon": 13.1557575, "tags": {"amenity": "restaurant", "name": "La Rosa dei Venti Ristorante Lounge Bar"}}, {"type": "node", "id": 5033110398, "lat": 38.7099734, "lon": 13.1903024, "tags": {"amenity": "restaurant", "name": "Schiticchio"}}, {"type": "node", "id": 5033110399, "lat": 38.7103229, "lon": 13.1913753, "tags": {"amenity": "restaurant", "name": "L'isolotto"}}, {"type": "node", "id": 5033132322, "lat": 38.7092617, "lon": 13.193631, "tags": {"amenity": "restaurant", "name": "Da Umberto"}}, {"type": "node", "id": 5034506354, "lat": 38.7082178, "lon": 13.1944933, "tags": {"amenity": "restaurant", "name": "Il Faraglione"}}, {"type": "node", "id": 5034506375, "lat": 38.7086594, "lon": 13.1932943, "tags": {"amenity": "restaurant", "name": "Pizza La Piazza"}}, {"type": "node", "id": 6646078295, "lat": 38.7088531, "lon": 13.1944158, "tags": {"amenity": "cafe", "name": "Kiki's"}}, {"type": "node", "id": 6779070386, "lat": 38.7089679, "lon": 13.193571, "tags": {"addr:street": "Via vittorio emanuele III", "amenity": "restaurant", "name": "Ristorante Sabrina", "website": "https://www.tripadvisor.fr/Restaurant_Review-g608928-d4610686-Reviews-Ristorante_Sabrina-Ustica_Islands_of_Sicily_Sicily.html"}}, {"type": "node", "id": 12906333142, "lat": 38.7093963, "lon": 13.1927258, "tags": {"amenity": "restaurant", "cuisine": "italian", "name": "Carruba in una Scatola", "opening_hours": "Mo-Su 08:00-16:00"}}]}