{"version": 0.6, "generator": "Overpass API 0.7.62.7 375dc00a", "osm3s": {"timestamp_osm_base": "2025-06-14T15:19:03Z", "copyright": "The data included in this document is from www.openstreetmap.org. The data is made available under ODbL."}, "elements": [{"type": "node", "id": 1306201243, "lat": 34.3831635, "lon": 36.0283327, "tags": {"amenity": "restaurant", "cuisine": "regional"}}, {"type": "node", "id": 1359825364, "lat": 34.4394928, "lon": 36.0216661, "tags": {"alt_name": "\u0639\u064a\u0648\u0646 \u0627\u0644\u0633\u0645\u0643", "amenity": "restaurant", "cuisine": "regional", "internet_access": "no", "name": "\u0639\u064a\u0648\u0646 \u0627\u0644\u0633\u0645\u0643", "name:ar": "\u0639\u064a\u0648\u0646 \u0627\u0644\u0633\u0645\u0643", "name:en": "Oyoun al Samak", "smoking": "yes", "wheelchair": "no"}}, {"type": "node", "id": 2654291407, "lat": 34.5670841, "lon": 36.281827, "tags": {"addr:city": "\u0627\u0644\u0642\u0628\u064a\u0627\u062a", "addr:street": "\u0637\u0631\u064a\u0642 \u0643\u0641\u0631\u0646\u0648\u0646 \u0627\u0644\u0642\u0637\u0644\u0628\u0629", "amenity": "restaurant", "cuisine": "regional", "name": "\u0631\u062f\u0646\u064a\u0632", "name:ar": "\u0631\u062f\u0646\u064a\u0632", "name:en": "Rodny's"}}, {"type": "node", "id": 3066455299, "lat": 34.5666927, "lon": 36.2816475}, {"type": "node", "id": 3066455300, "lat": 34.5665803, "lon": 36.2815903}, {"type": "node", "id": 3066455301, "lat": 34.5665438, "lon": 36.2816958}, {"type": "node", "id": 3066455302, "lat": 34.566559, "lon": 36.2817204}, {"type": "node", "id": 3066455303, "lat": 34.5665413, "lon": 36.2818082}, {"type": "node", "id": 3066455304, "lat": 34.5666111, "lon": 36.2818098}, {"type": "node", "id": 3066455305, "lat": 34.5666275, "lon": 36.281782}, {"type": "node", "id": 3066455306, "lat": 34.5666478, "lon": 36.2817774}, {"type": "node", "id": 3066534246, "lat": 34.5662836, "lon": 36.2820914}, {"type": "node", "id": 3066534247, "lat": 34.5662512, "lon": 36.2820242}, {"type": "node", "id": 3066534248, "lat": 34.5662015, "lon": 36.2820597}, {"type": "node", "id": 3066534249, "lat": 34.566197, "lon": 36.2820315}, {"type": "node", "id": 3066534250, "lat": 34.5660999, "lon": 36.2820865}, {"type": "node", "id": 3066534251, "lat": 34.5660613, "lon": 36.282084}, {"type": "node", "id": 3066534252, "lat": 34.5660582, "lon": 36.2821566}, {"type": "node", "id": 3066534253, "lat": 34.5661164, "lon": 36.2821388}, {"type": "node", "id": 3066534254, "lat": 34.5661422, "lon": 36.2821921}, {"type": "node", "id": 3066580035, "lat": 34.5708346, "lon": 36.2807558}, {"type": "node", "id": 3066580036, "lat": 34.5707915, "lon": 36.2810578}, {"type": "node", "id": 3066580037, "lat": 34.5706595, "lon": 36.2810485}, {"type": "node", "id": 3066580038, "lat": 34.5706164, "lon": 36.2807836}, {"type": "node", "id": 3942038250, "lat": 34.5196707, "lon": 36.1807372, "tags": {"amenity": "cafe", "cuisine": "ice_cream", "internet_access": "no", "name": "Faraj cafe", "name:en": "Faraj cafe"}}, {"type": "node", "id": 4053444459, "lat": 34.5352434, "lon": 36.0545758, "tags": {"amenity": "cafe", "name": "\u0645\u0642\u0647\u0649 \u0628\u064a\u062a\u0631", "name:ar": "\u0645\u0642\u0647\u0649 \u0628\u064a\u062a\u0631", "name:en": "Peter Cafe"}}, {"type": "node", "id": 4338020900, "lat": 34.5804469, "lon": 36.2666655, "tags": {"amenity": "restaurant", "name": "\u062d\u0637\u0628\u0629 \u0648\u0646\u0627\u0631", "name:ar": "\u062d\u0637\u0628\u0629 \u0648\u0646\u0627\u0631"}}, {"type": "node", "id": 4341447454, "lat": 34.548432, "lon": 36.2686956, "tags": {"amenity": "restaurant"}}, {"type": "node", "id": 4427507992, "lat": 34.2547515, "lon": 35.9554702, "tags": {"amenity": "restaurant", "name": "\u0645\u0637\u0639\u0645 \u0627\u0628\u0648 \u062c\u0648\u0632\u0641"}}, {"type": "node", "id": 4427656294, "lat": 34.2474025, "lon": 35.9884797, "tags": {"amenity": "restaurant", "name": "\u0645\u0637\u0639\u0645 \u063a\u0631\u064a\u0646 \u0644\u0627\u0646\u062f"}}, {"type": "node", "id": 4507790603, "lat": 34.4897015, "lon": 35.958976, "tags": {"amenity": "restaurant", "name": "\u0628\u064a\u062a", "name:ar": "\u0628\u064a\u062a"}}, {"type": "node", "id": 4537509090, "lat": 34.5676287, "lon": 36.2809484, "tags": {"addr:city": "\u0627\u0644\u0642\u0628\u064a\u0627\u062a", "addr:street": "\u0637\u0631\u064a\u0642 \u0643\u0641\u0631\u0646\u0648\u0646 \u0627\u0644\u0642\u0637\u0644\u0628\u0629", "amenity": "restaurant", "contact:phone": "+9616350227", "cuisine": "international", "email": "info@karams.org", "internet_access": "wlan", "name": "\u0645\u0637\u0639\u0645 \u0643\u0631\u0645", "name:ar": "\u0645\u0637\u0639\u0645 \u0643\u0631\u0645", "name:en": "KARAM'S grand restaurant", "opening_hours": "Tu-Su 10:00-01:00", "operator": "Habib karam", "website": "http://www.karams.org"}}, {"type": "node", "id": 4935027821, "lat": 34.2496611, "lon": 35.928857, "tags": {"addr:city": "Hadath El Jebbeh", "amenity": "cafe", "cuisine": "lebanese", "name": "Ward Caf\u00e9 Trottoir", "name:en": "Caf\u00e9 Trottoir", "outdoor_seating": "yes"}}, {"type": "node", "id": 5109648523, "lat": 34.243909, "lon": 36.0412396, "tags": {"amenity": "restaurant", "name": "Le Pichet", "name:fr": "Le Pichet"}}, {"type": "node", "id": 5149654624, "lat": 34.2877724, "lon": 35.9566009, "tags": {"amenity": "restaurant", "name": "Parc Sama Ehden", "name:en": "Sama Ehden Park", "name:fr": "Parc Sama Ehden"}}, {"type": "node", "id": 5149658321, "lat": 34.2837297, "lon": 35.9452425, "tags": {"amenity": "restaurant", "name": "Qozhaya Cafeteria", "name:en": "Qozhaya Cafeteria"}}, {"type": "node", "id": 5255378146, "lat": 34.2493972, "lon": 36.0675017}, {"type": "node", "id": 5255378147, "lat": 34.2491577, "lon": 36.0676484}, {"type": "node", "id": 5255378148, "lat": 34.249092, "lon": 36.0674913}, {"type": "node", "id": 5255378149, "lat": 34.2493315, "lon": 36.0673446}, {"type": "node", "id": 5553889421, "lat": 34.5625953, "lon": 36.0831014, "tags": {"amenity": "cafe", "name": "MEETING POINT"}}, {"type": "node", "id": 5850107276, "lat": 34.5702855, "lon": 36.3594226, "tags": {"amenity": "restaurant", "name": "\u0645\u0637\u0639\u0645 \u0643\u0627\u0646 \u0632\u0645\u0627\u0646", "name:ar": "\u0645\u0637\u0639\u0645 \u0643\u0627\u0646 \u0632\u0645\u0627\u0646", "name:fr": "Restaurant Kan Zamaan", "opening_hours": "Mo-Su 08:00-02:00"}}, {"type": "node", "id": 6270304047, "lat": 34.6178842, "lon": 36.15538, "tags": {"addr:city": "\u0642\u0634\u0644\u0642", "amenity": "cafe", "name": "\u0645\u0642\u0647\u0649 \u0623\u0628\u0648 \u0639\u0628\u062f\u0647", "name:ar": "\u0645\u0642\u0647\u0649 \u0623\u0628\u0648 \u0639\u0628\u062f\u0647"}}, {"type": "node", "id": 6340174629, "lat": 34.2625918, "lon": 36.4082974, "tags": {"addr:city": "Ras Baalbeck", "amenity": "restaurant", "cuisine": "lebanese", "name": "Restaurant Al Qasr", "name:en": "Restaurant Al Qasr", "opening_hours": "Mo-Su 12:00-23:00", "outdoor_seating": "yes"}}, {"type": "node", "id": 6434277187, "lat": 34.5114884, "lon": 35.970681, "tags": {"addr:street": "\u0637\u0631\u064a\u0642 \u062d\u0644\u0628\u0627", "amenity": "cafe", "name": "\u0645\u062d\u0627\u0645\u0635 \u0627\u0644\u0627\u0645\u064a\u0646", "name:en": "Alamine Roasteries"}}, {"type": "node", "id": 6466351902, "lat": 34.249225, "lon": 36.0100191, "tags": {"amenity": "restaurant", "name": "Falafel bar"}}, {"type": "node", "id": 6466495505, "lat": 34.2953449, "lon": 35.9640368, "tags": {"amenity": "restaurant", "name": "Bab El Hawa", "name:en": "Bab El Hawa"}}, {"type": "node", "id": 6531897886, "lat": 34.2498505, "lon": 36.0298144, "tags": {"amenity": "restaurant", "name": "Cedars Paradise", "name:en": "Cedars Paradise"}}, {"type": "node", "id": 6806085988, "lat": 34.2693199, "lon": 35.9457475, "tags": {"amenity": "restaurant"}}, {"type": "node", "id": 6885182185, "lat": 34.2493095, "lon": 36.0092928, "tags": {"addr:street": "\u0637\u0631\u064a\u0642 \u0628\u0642\u0627\u0639 \u0643\u0641\u0631\u0627", "amenity": "cafe", "cuisine": "tea;regional;lebanese;american;bagel;coffee_shop", "internet_access": "wlan", "name": "Cafe Trattoir", "operator": "Tony"}}, {"type": "node", "id": 7216541986, "lat": 34.2513913, "lon": 36.0078408, "tags": {"amenity": "restaurant", "name": "Masa", "name:en": "Masa"}}, {"type": "node", "id": 7853416385, "lat": 34.2408694, "lon": 35.9419222, "tags": {"amenity": "restaurant", "name": "Snack Al-Antr", "name:en": "Snack Al-Antr"}}, {"type": "node", "id": 7856735886, "lat": 34.2417926, "lon": 35.9435381, "tags": {"addr:street": "Old Souk Hasroun", "amenity": "restaurant", "name": "Georges Restaurant", "name:en": "Georges Restaurant"}}, {"type": "node", "id": 7954596676, "lat": 34.5813869, "lon": 36.2647258}, {"type": "node", "id": 7954596677, "lat": 34.5815606, "lon": 36.2655442}, {"type": "node", "id": 7954596678, "lat": 34.5813661, "lon": 36.2656285}, {"type": "node", "id": 7954596679, "lat": 34.5811507, "lon": 36.2647933}, {"type": "node", "id": 8122130093, "lat": 34.2638989, "lon": 36.3981815, "tags": {"amenity": "restaurant"}}, {"type": "node", "id": 8653072972, "lat": 34.5708138, "lon": 36.2809015}, {"type": "node", "id": 10253774747, "lat": 34.3942166, "lon": 36.3842056, "tags": {"amenity": "restaurant", "name": "Studio 57", "name:fr": "Studio 57"}}, {"type": "node", "id": 10253774767, "lat": 34.3963392, "lon": 36.384711, "tags": {"amenity": "cafe", "name": "Caf\u00e9 Passion", "name:fr": "Caf\u00e9 Passion"}}, {"type": "way", "id": 302387906, "nodes": [3066455299, 3066455300, 3066455301, 3066455302, 3066455303, 3066455304, 3066455305, 3066455306, 3066455299], "tags": {"amenity": "restaurant", "building": "apartments"}}, {"type": "way", "id": 302395363, "nodes": [3066534246, 3066534247, 3066534248, 3066534249, 3066534250, 3066534251, 3066534252, 3066534253, 3066534254, 3066534246], "tags": {"addr:city": "\u0627\u0644\u0642\u0628\u064a\u0627\u062a", "addr:street": "\u0637\u0631\u064a\u0642 \u0643\u0641\u0631\u0646\u0648\u0646 \u0627\u0644\u0642\u0637\u0644\u0628\u0629", "amenity": "restaurant", "building": "yes", "cuisine": "regional", "name": "\u062f\u0627\u062f\u064a\u0632", "name:ar": "\u062f\u0627\u062f\u064a\u0632", "name:en": "Daddy's"}}, {"type": "way", "id": 302400543, "nodes": [3066580035, 8653072972, 3066580036, 3066580037, 3066580038, 3066580035], "tags": {"amenity": "cafe", "building": "yes", "name": "Cuppa", "name:en": "Cuppa"}}, {"type": "way", "id": 543645991, "nodes": [5255378146, 5255378147, 5255378148, 5255378149, 5255378146], "tags": {"amenity": "restaurant", "building": "yes", "name": "Tyrol"}}, {"type": "way", "id": 852723060, "nodes": [7954596676, 7954596677, 7954596678, 7954596679, 7954596676], "tags": {"amenity": "restaurant"}}]}