{"version": 0.6, "generator": "Overpass API 0.7.62.7 375dc00a", "osm3s": {"timestamp_osm_base": "2025-06-14T13:59:38Z", "copyright": "The data included in this document is from www.openstreetmap.org. The data is made available under ODbL."}, "elements": [{"type": "node", "id": 649193811, "lat": 42.9604279, "lon": 16.7167436, "tags": {"addr:city": "Vela Luka", "addr:housenumber": "4", "addr:postcode": "20270", "addr:street": "Ulica 51", "amenity": "restaurant", "cuisine": "regional", "name": "Konoba Lu\u010dica", "phone": "+385 20 813 673", "phone_1": "+385 95 904 1982"}}, {"type": "node", "id": 666066865, "lat": 42.9613658, "lon": 16.7174151, "tags": {"amenity": "restaurant", "name": "Casablanca"}}, {"type": "node", "id": 666066866, "lat": 42.9616367, "lon": 16.7174124, "tags": {"amenity": "restaurant", "name": "Nautica"}}, {"type": "node", "id": 666066867, "lat": 42.9617706, "lon": 16.7174351, "tags": {"amenity": "cafe", "name": "Slasti\u010darna Diana"}}, {"type": "node", "id": 687077379, "lat": 42.9378245, "lon": 16.7924641, "tags": {"amenity": "restaurant", "name": "Zlinje"}}, {"type": "node", "id": 702318241, "lat": 42.9049654, "lon": 16.7804163, "tags": {"alt_name": "Restaurant Prizba", "amenity": "restaurant", "name": "Pri\u017eba"}}, {"type": "node", "id": 842432889, "lat": 42.923864, "lon": 17.1764629, "tags": {"amenity": "restaurant", "name": "Pizzeria Torkul", "opening_hours": "Mo-Su 16:00-23:00"}}, {"type": "node", "id": 893394579, "lat": 42.7670989, "lon": 16.8964237, "tags": {"amenity": "restaurant", "cuisine": "regional", "name": "Ba\u010dvara", "opening_hours": "Mo-Su 17:00-24:00", "outdoor_seating": "yes"}}, {"type": "node", "id": 893403357, "lat": 42.7688768, "lon": 16.8962975, "tags": {"amenity": "restaurant", "name": "Konoba & Pizzeria - Amfora", "opening_hours": "Mo-Su 12:30-23:00"}}, {"type": "node", "id": 893403370, "lat": 42.7687315, "lon": 16.8958223, "tags": {"amenity": "cafe", "name": "Mamilo"}}, {"type": "node", "id": 893403372, "lat": 42.768617, "lon": 16.8963279, "tags": {"amenity": "cafe", "name": "Feral"}}, {"type": "node", "id": 893429859, "lat": 42.7331371, "lon": 16.8922458, "tags": {"addr:housenumber": "94", "addr:postcode": "20290", "addr:street": "Portorus", "amenity": "restaurant", "contact:email": "anthony.drazinic@gmail.com", "cuisine": "barbecue;croatian;fish;fish_and_chips;grill;mediterranean;pasta", "email": "anthony.drazinic@gmail.com", "internet_access": "wlan", "name": "Konoba Nautica", "name:en": "Nautica Tavern", "name:pl": "Restauracja Nautica", "opening_hours": "Mo-Su 14:00-24:00", "phone": "+38520801260", "website": "https://www.apartmani-anthony.com/"}}, {"type": "node", "id": 918229789, "lat": 42.924564, "lon": 17.1734085, "tags": {"amenity": "restaurant"}}, {"type": "node", "id": 1246271247, "lat": 42.9455657, "lon": 16.874105, "tags": {"amenity": "restaurant"}}, {"type": "node", "id": 1326402262, "lat": 42.7688408, "lon": 16.8964591, "tags": {"amenity": "cafe", "name": "Magic"}}, {"type": "node", "id": 1326420338, "lat": 42.7652956, "lon": 16.8192874, "tags": {"amenity": "cafe", "name": "Kokolo", "outdoor_seating": "yes", "wheelchair": "limited"}}, {"type": "node", "id": 1339681894, "lat": 42.9254835, "lon": 17.1676354, "tags": {"amenity": "restaurant", "name": "Tavern Du\u0161ica"}}, {"type": "node", "id": 1339681898, "lat": 42.926004, "lon": 17.1676381, "tags": {"amenity": "restaurant", "name": "Agroturizam Lovri\u0107"}}, {"type": "node", "id": 1339692449, "lat": 42.9228812, "lon": 17.1664149, "tags": {"amenity": "restaurant", "name": "Agroturizam Zure"}}, {"type": "node", "id": 1342308321, "lat": 42.9241282, "lon": 17.1775874, "tags": {"amenity": "restaurant", "cuisine": "regional", "name": "Family Restaurant - Konoba FERAL", "wheelchair": "no"}}, {"type": "node", "id": 1430347053, "lat": 42.9502793, "lon": 17.1661965, "tags": {"amenity": "restaurant"}}, {"type": "node", "id": 1599403231, "lat": 42.9609476, "lon": 16.7144844, "tags": {"amenity": "restaurant", "name": "Konoba Ribar"}}, {"type": "node", "id": 1602216181, "lat": 42.9612048, "lon": 17.1368118, "tags": {"amenity": "restaurant", "name": "Gajeta"}}, {"type": "node", "id": 1602216226, "lat": 42.9616608, "lon": 17.1369605, "tags": {"amenity": "cafe", "name": "Filippi"}}, {"type": "node", "id": 1602216314, "lat": 42.9624636, "lon": 17.1357986, "tags": {"amenity": "restaurant", "name": "Kanaveli\u0107"}}, {"type": "node", "id": 1602216460, "lat": 42.9740271, "lon": 17.1767274, "tags": {"amenity": "restaurant"}}, {"type": "node", "id": 1602216829, "lat": 42.9752701, "lon": 17.1775563, "tags": {"amenity": "restaurant", "name": "Babilon"}}, {"type": "node", "id": 1646743245, "lat": 42.9739616, "lon": 17.1766494, "tags": {"amenity": "cafe", "name": "jadran"}}, {"type": "node", "id": 1720785624, "lat": 42.9051792, "lon": 16.8568159, "tags": {"amenity": "restaurant", "cuisine": "regional", "name": "\"Galeb\""}}, {"type": "node", "id": 1720785670, "lat": 42.9055993, "lon": 16.8577924, "tags": {"amenity": "cafe", "name": "\"Riva\""}}, {"type": "node", "id": 1720785721, "lat": 42.9065027, "lon": 16.8615777, "tags": {"amenity": "restaurant", "cuisine": "pizza", "name": "Pizzeria \"\u017dal\""}}, {"type": "node", "id": 1720825225, "lat": 42.9291766, "lon": 16.8925012, "tags": {"amenity": "cafe", "name": "Caffe bar \"Centar\""}}, {"type": "node", "id": 1780222317, "lat": 42.7731262, "lon": 16.8778509, "tags": {"addr:city": "Zaklopatica", "addr:housenumber": "11", "addr:postcode": "20290", "addr:street": "Zaklopatica", "amenity": "restaurant", "cuisine": "fish", "email": "antekarlovic@yahoo.com", "name": "Konoba Aragosta", "opening_hours": "Mo-Su 09:00-24:00", "phone": "+385 91 531 10 74", "restaurant": "yes", "website": "http://www.zaklopatica.com/de.html"}}, {"type": "node", "id": 1790636805, "lat": 42.9625923, "lon": 17.1361171, "tags": {"amenity": "restaurant", "name": "Konoba Komin"}}, {"type": "node", "id": 1790639454, "lat": 42.9620167, "lon": 17.1362327, "tags": {"addr:housenumber": "2", "addr:postcode": "20260", "addr:street": "Marka Pola", "amenity": "restaurant", "cuisine": "croatian", "email": "info@konobaadiomare.hr", "name": "Adio Mare", "phone": "+38520711253", "website": "https://www.konobaadiomare.hr/"}}, {"type": "node", "id": 1831531768, "lat": 42.9628604, "lon": 16.7173296, "tags": {"amenity": "restaurant", "name": "Pod Bore"}}, {"type": "node", "id": 1874112168, "lat": 42.959217, "lon": 17.1096056, "tags": {"amenity": "restaurant", "name": "Baric", "toilets:wheelchair": "no", "wheelchair": "no"}}, {"type": "node", "id": 1874112191, "lat": 42.9609298, "lon": 17.106498, "tags": {"amenity": "restaurant"}}, {"type": "node", "id": 1883073055, "lat": 42.959736, "lon": 17.1352654, "tags": {"amenity": "restaurant", "name": "Pizzeria Doris"}}, {"type": "node", "id": 1905318722, "lat": 42.9671294, "lon": 16.7130107, "tags": {"addr:city": "Vela Luka", "addr:street": "Obala 1", "amenity": "restaurant", "cuisine": "regional;mexican", "name": "Bistro Beppo", "opening_hours": "Jun-Sep: Mo-Su,PH 08:00-12:00; Oct-May: Mo-Su,PH 00:00-12:00"}}, {"type": "node", "id": 1905318723, "lat": 42.9668201, "lon": 16.7124796, "tags": {"amenity": "restaurant", "name": "Konoba Davorin"}}, {"type": "node", "id": 2050610977, "lat": 42.9610636, "lon": 17.136751, "tags": {"amenity": "restaurant", "name": "Pizzeria Tedeschi"}}, {"type": "node", "id": 2050619016, "lat": 42.9611553, "lon": 17.135966, "tags": {"amenity": "restaurant", "name": "Marko Polo", "name:etymology:wikidata": "Q6101"}}, {"type": "node", "id": 2051115585, "lat": 42.9618606, "lon": 17.1360315, "tags": {"amenity": "restaurant", "cuisine": "italian", "name": "Caenazzo"}}, {"type": "node", "id": 2051115586, "lat": 42.9620643, "lon": 17.1361703, "tags": {"amenity": "restaurant", "name": "Konoba Mareta"}}, {"type": "node", "id": 2059858985, "lat": 42.9562625, "lon": 17.1375515}, {"type": "node", "id": 2059858988, "lat": 42.9562934, "lon": 17.1374347}, {"type": "node", "id": 2059858997, "lat": 42.9563188, "lon": 17.1375793}, {"type": "node", "id": 2059859000, "lat": 42.9563497, "lon": 17.1374625}, {"type": "node", "id": 2065204361, "lat": 42.9499466, "lon": 17.1116807}, {"type": "node", "id": 2065204373, "lat": 42.9499668, "lon": 17.1116061}, {"type": "node", "id": 2065204385, "lat": 42.9499772, "lon": 17.1116962}, {"type": "node", "id": 2065204388, "lat": 42.9499975, "lon": 17.1116217}, {"type": "node", "id": 2065212868, "lat": 42.9491221, "lon": 17.111903}, {"type": "node", "id": 2065212874, "lat": 42.9491657, "lon": 17.1117813}, {"type": "node", "id": 2065212878, "lat": 42.949198, "lon": 17.1119534}, {"type": "node", "id": 2065212885, "lat": 42.9492387, "lon": 17.1118324}, {"type": "node", "id": 2066048752, "lat": 42.9574323, "lon": 17.1222121, "tags": {"amenity": "restaurant"}}, {"type": "node", "id": 2083404490, "lat": 42.9731466, "lon": 17.0218711}, {"type": "node", "id": 2083404493, "lat": 42.9731519, "lon": 17.0220274}, {"type": "node", "id": 2083404507, "lat": 42.9732111, "lon": 17.021867}, {"type": "node", "id": 2083404511, "lat": 42.9732164, "lon": 17.0220233}, {"type": "node", "id": 2083474103, "lat": 42.9734207, "lon": 17.0188031}, {"type": "node", "id": 2083474105, "lat": 42.9734278, "lon": 17.0186883}, {"type": "node", "id": 2083474111, "lat": 42.973701, "lon": 17.0188353}, {"type": "node", "id": 2083474113, "lat": 42.973708, "lon": 17.0187205}, {"type": "node", "id": 2099661767, "lat": 42.9511575, "lon": 17.1428554}, {"type": "node", "id": 2099661769, "lat": 42.9511912, "lon": 17.1427551}, {"type": "node", "id": 2099661770, "lat": 42.9512364, "lon": 17.1429049}, {"type": "node", "id": 2099661771, "lat": 42.9512701, "lon": 17.1428047}, {"type": "node", "id": 2099771845, "lat": 42.9532181, "lon": 17.1493389}, {"type": "node", "id": 2099771846, "lat": 42.9532232, "lon": 17.1493014}, {"type": "node", "id": 2099771847, "lat": 42.9532592, "lon": 17.1493522}, {"type": "node", "id": 2099771849, "lat": 42.9532651, "lon": 17.1493136}, {"type": "node", "id": 2099813308, "lat": 42.9619825, "lon": 17.1369638, "tags": {"amenity": "restaurant", "name": "Ra\u010di\u0161ka", "operator": "Dalmatian delicacies"}}, {"type": "node", "id": 2099820881, "lat": 42.958732, "lon": 17.1354938, "tags": {"amenity": "restaurant", "name": "Adriatic", "operator": "Dalmatian delicacies", "website": "https://abordayachting.hr/restaurant/"}}, {"type": "node", "id": 2099820882, "lat": 42.9613204, "lon": 17.1350765, "tags": {"amenity": "restaurant", "name": "U Maje i Tonke", "operator": "Dalmatian delicacies", "phone": "+385(0)99 232 7890", "website": "www.facebook.com/UMajeiTonke"}}, {"type": "node", "id": 2099824676, "lat": 42.9617688, "lon": 17.1352311, "tags": {"amenity": "restaurant", "cuisine": "pizza", "name": "Pizzeria Marinna"}}, {"type": "node", "id": 2100198436, "lat": 42.9513828, "lon": 17.162068, "tags": {"amenity": "restaurant", "name": "Badija", "operator": "Dalmatian delicacies", "website": "https://abordayachting.hr/restaurant/"}}, {"type": "node", "id": 2100212323, "lat": 42.9616898, "lon": 17.1351906, "tags": {"amenity": "restaurant", "name": "Pizzeria Tramonto", "operator": "Dalmatian delicacies"}}, {"type": "node", "id": 2101297934, "lat": 42.9605695, "lon": 17.1342342}, {"type": "node", "id": 2101297938, "lat": 42.9605843, "lon": 17.1342609}, {"type": "node", "id": 2101297940, "lat": 42.9606507, "lon": 17.1341501}, {"type": "node", "id": 2101297942, "lat": 42.9606655, "lon": 17.1341768}, {"type": "node", "id": 2101390477, "lat": 42.9506307, "lon": 17.1409884, "tags": {"addr:city": "Kor\u010dula", "addr:housenumber": "1", "addr:postcode": "20260", "addr:street": "\u0160etali\u0161te hrvatskih mornara", "amenity": "restaurant", "cuisine": "regional;fish;bar_and_grill;croatian", "diet:local": "yes", "diet:meat": "yes", "diet:mediterranean": "yes", "diet:seafood": "yes", "name": "Konoba Lanterna", "operator": "HTP Kor\u010dula dd", "website": "https://www.tripadvisor.com/Restaurant_Review-g303810-d8560479-Reviews-Konoba_Lanterna-Korcula_Island_Dubrovnik_Neretva_County_Dalmatia.html"}}, {"type": "node", "id": 2130423507, "lat": 42.9616729, "lon": 17.1352641, "tags": {"addr:city": "Kor\u010dula", "addr:housenumber": "12", "addr:postcode": "20260", "addr:street": "Ulica Ismaelis", "amenity": "restaurant", "email": "shije78@gmail.com", "name": "Buffet Tramonto", "operator": "Dalmatian delicacies", "phone": "+385(0)98 192104"}}, {"type": "node", "id": 2130426165, "lat": 42.9607909, "lon": 17.1359122, "tags": {"amenity": "restaurant", "name": "Bistro Arsenal", "operator": "Dalmatian delicacies"}}, {"type": "node", "id": 2130426755, "lat": 42.9602076, "lon": 17.1356492, "tags": {"amenity": "restaurant", "email": "marketing@htp-korcula.hr", "fax": "+385(0)20 711202", "name": "Planjak", "operator": "dalmatian", "phone": "+385(0)20 711015", "website": "http://www.korculahotels.com/en/hotels/apartmani-bon-repos.php"}}, {"type": "node", "id": 2130429479, "lat": 42.9618741, "lon": 17.1369928, "tags": {"amenity": "restaurant", "name": "Cupido", "operator": "Dalmatian delicacies"}}, {"type": "node", "id": 2130429480, "lat": 42.9621753, "lon": 17.1368525, "tags": {"amenity": "restaurant", "name": "Pizzeria PaPe", "opening_hours": "Mo-Su 08:00-01:00", "operator": "pizzeria"}}, {"type": "node", "id": 2148743682, "lat": 42.9614633, "lon": 17.1368973, "tags": {"amenity": "restaurant", "name": "Morski konjic", "operator": "Dalmatian delicacies"}}, {"type": "node", "id": 2179521823, "lat": 42.9605209, "lon": 17.1364826, "tags": {"amenity": "cafe", "name": "Marco Polo Mistique", "name:etymology:wikidata": "Q6101"}}, {"type": "node", "id": 2179537538, "lat": 42.9603655, "lon": 17.1354281, "tags": {"amenity": "cafe", "name": "STEP"}}, {"type": "node", "id": 2179538330, "lat": 42.9605339, "lon": 17.1348856, "tags": {"amenity": "cafe", "name": "Arula", "opening_hours": "Mo-Su 07:00-14:00,17:00-23:00"}}, {"type": "node", "id": 2179538332, "lat": 42.9605685, "lon": 17.1353062, "tags": {"amenity": "cafe", "name": "\u017dAK"}}, {"type": "node", "id": 2179545350, "lat": 42.9612887, "lon": 17.1368646, "tags": {"amenity": "restaurant", "cuisine": "asian", "name": "Silk"}}, {"type": "node", "id": 2185492191, "lat": 42.9613895, "lon": 17.1365251, "tags": {"amenity": "restaurant", "name": "Marinero", "operator": "Dalmatian delicacies"}}, {"type": "node", "id": 2185508216, "lat": 42.9610543, "lon": 17.1358142, "tags": {"amenity": "restaurant", "name": "Marco's"}}, {"type": "node", "id": 2185544713, "lat": 42.9603534, "lon": 17.1348958, "tags": {"amenity": "cafe", "name": "\"Bistro\""}}, {"type": "node", "id": 2185569595, "lat": 42.9598123, "lon": 17.1348526, "tags": {"amenity": "cafe", "name": "Galerija"}}, {"type": "node", "id": 2267544856, "lat": 42.9617281, "lon": 17.1369466, "tags": {"addr:city": "Kor\u010dula", "addr:housenumber": "1-6", "addr:postcode": "20260", "addr:street": "Don Pavla Pose", "amenity": "restaurant", "capacity": "36", "cuisine": "regional", "delivery": "yes", "name": "Le\u0161i\u0107 Dimitri", "smoking": "outside", "stars": "1", "takeaway": "no", "wikidata": "Q88300873"}}, {"type": "node", "id": 2320635209, "lat": 42.9243836, "lon": 17.1732353, "tags": {"amenity": "cafe", "cuisine": "ice_cream", "name": "Monika"}}, {"type": "node", "id": 2320647187, "lat": 42.922589, "lon": 17.1714832, "tags": {"amenity": "cafe", "name": "Mot", "source": "survey"}}, {"type": "node", "id": 2320647188, "lat": 42.9225398, "lon": 17.1717607, "tags": {"amenity": "cafe", "name": "Kocka", "source": "survey"}}, {"type": "node", "id": 2327523233, "lat": 42.9284001, "lon": 17.0025017, "tags": {"amenity": "restaurant", "name": "Konoba Mijo"}}, {"type": "node", "id": 2330621055, "lat": 42.9612992, "lon": 16.7174373, "tags": {"amenity": "cafe", "name": "Roxy"}}, {"type": "node", "id": 2462039738, "lat": 42.9752469, "lon": 17.0425898}, {"type": "node", "id": 2462039739, "lat": 42.9752849, "lon": 17.0426292}, {"type": "node", "id": 2462039740, "lat": 42.9753179, "lon": 17.0424618}, {"type": "node", "id": 2462039741, "lat": 42.9753559, "lon": 17.0425011}, {"type": "node", "id": 2468765520, "lat": 42.9745109, "lon": 17.1849828}, {"type": "node", "id": 2468765523, "lat": 42.9744683, "lon": 17.1850086}, {"type": "node", "id": 2468765525, "lat": 42.9745023, "lon": 17.1851136}, {"type": "node", "id": 2468765526, "lat": 42.9745449, "lon": 17.1850878}, {"type": "node", "id": 2468765528, "lat": 42.9745832, "lon": 17.1852894}, {"type": "node", "id": 2468765530, "lat": 42.9745445, "lon": 17.1853105}, {"type": "node", "id": 2468765532, "lat": 42.9745847, "lon": 17.1854489}, {"type": "node", "id": 2468765534, "lat": 42.9746235, "lon": 17.1854278}, {"type": "node", "id": 2488594272, "lat": 42.9039517, "lon": 16.8607797, "tags": {"amenity": "restaurant", "name": "\"Zaratak\""}}, {"type": "node", "id": 2540042219, "lat": 42.7716561, "lon": 16.8958719}, {"type": "node", "id": 2540042220, "lat": 42.7716561, "lon": 16.8960456}, {"type": "node", "id": 2540042223, "lat": 42.7717362, "lon": 16.8958719}, {"type": "node", "id": 2540042224, "lat": 42.7717362, "lon": 16.8960456}, {"type": "node", "id": 2625332852, "lat": 42.9258451, "lon": 17.1685693}, {"type": "node", "id": 2625332853, "lat": 42.9258666, "lon": 17.1687002}, {"type": "node", "id": 2625332858, "lat": 42.9259479, "lon": 17.1685378}, {"type": "node", "id": 2625332860, "lat": 42.9259695, "lon": 17.1686687}, {"type": "node", "id": 2655909363, "lat": 42.9394883, "lon": 16.787639}, {"type": "node", "id": 2655909369, "lat": 42.9394968, "lon": 16.7876948}, {"type": "node", "id": 2655909382, "lat": 42.9395305, "lon": 16.7876678}, {"type": "node", "id": 2655909384, "lat": 42.9395331, "lon": 16.7876845}, {"type": "node", "id": 2655909387, "lat": 42.9395446, "lon": 16.787623}, {"type": "node", "id": 2655909391, "lat": 42.9395505, "lon": 16.7876621}, {"type": "node", "id": 2656672637, "lat": 42.9740871, "lon": 17.1795832, "tags": {"amenity": "restaurant", "name": "Jadran"}}, {"type": "node", "id": 2657248266, "lat": 42.9634104, "lon": 16.7169386}, {"type": "node", "id": 2657248268, "lat": 42.9634479, "lon": 16.7170461}, {"type": "node", "id": 2657248273, "lat": 42.9635264, "lon": 16.7169942}, {"type": "node", "id": 2657248275, "lat": 42.9635733, "lon": 16.7168324}, {"type": "node", "id": 2657248276, "lat": 42.9636112, "lon": 16.7169403}, {"type": "node", "id": 2658519352, "lat": 42.906221, "lon": 16.7937129}, {"type": "node", "id": 2658519353, "lat": 42.9062234, "lon": 16.7936603}, {"type": "node", "id": 2658519354, "lat": 42.9062241, "lon": 16.7936339}, {"type": "node", "id": 2658519355, "lat": 42.9062262, "lon": 16.7935871}, {"type": "node", "id": 2658519356, "lat": 42.9062302, "lon": 16.7935601}, {"type": "node", "id": 2658519357, "lat": 42.9062324, "lon": 16.7935132}, {"type": "node", "id": 2658519358, "lat": 42.9062411, "lon": 16.7935883}, {"type": "node", "id": 2658519359, "lat": 42.9062415, "lon": 16.7936619}, {"type": "node", "id": 2658519360, "lat": 42.9062424, "lon": 16.7935612}, {"type": "node", "id": 2658519361, "lat": 42.9062427, "lon": 16.7936355}, {"type": "node", "id": 2658519373, "lat": 42.906319, "lon": 16.7936402}, {"type": "node", "id": 2658519374, "lat": 42.906321, "lon": 16.7935981}, {"type": "node", "id": 2658519377, "lat": 42.906339, "lon": 16.7937231}, {"type": "node", "id": 2658519378, "lat": 42.9063428, "lon": 16.7936423}, {"type": "node", "id": 2658519379, "lat": 42.9063475, "lon": 16.7936003}, {"type": "node", "id": 2658519380, "lat": 42.9063511, "lon": 16.7935234}, {"type": "node", "id": 2684170816, "lat": 42.9313194, "lon": 17.0787168}, {"type": "node", "id": 2684170820, "lat": 42.931367, "lon": 17.0787655}, {"type": "node", "id": 2684170821, "lat": 42.9313912, "lon": 17.0787214}, {"type": "node", "id": 2693065647, "lat": 42.9172481, "lon": 17.090048, "tags": {"amenity": "restaurant", "capacity": "20", "cuisine": "regional", "name": "\u0160imunovo", "opening_hours": "Mo-Su 20:00-24:00; Sep-Jun off"}}, {"type": "node", "id": 2766319666, "lat": 42.9240465, "lon": 17.0465485}, {"type": "node", "id": 2766319671, "lat": 42.9240687, "lon": 17.0464848}, {"type": "node", "id": 2766319673, "lat": 42.9241046, "lon": 17.0465862}, {"type": "node", "id": 2766319675, "lat": 42.9241267, "lon": 17.0465225}, {"type": "node", "id": 2864755636, "lat": 42.9392041, "lon": 16.7894232, "tags": {"amenity": "cafe"}}, {"type": "node", "id": 2869838424, "lat": 42.9390342, "lon": 16.7897958, "tags": {"amenity": "cafe"}}, {"type": "node", "id": 2869838431, "lat": 42.9389288, "lon": 16.7889668, "tags": {"amenity": "cafe"}}, {"type": "node", "id": 2870452610, "lat": 42.9085202, "lon": 16.7761955, "tags": {"amenity": "restaurant", "cuisine": "regional", "name": "Gr\u0161\u010dica"}}, {"type": "node", "id": 2870477396, "lat": 42.9070393, "lon": 16.7979456, "tags": {"amenity": "restaurant", "cuisine": "regional", "name": "Paradiso grill"}}, {"type": "node", "id": 2870479940, "lat": 42.9068494, "lon": 16.7917465, "tags": {"amenity": "restaurant", "cuisine": "regional", "name": "\u010cerin"}}, {"type": "node", "id": 2870499612, "lat": 42.9037431, "lon": 16.8228866, "tags": {"amenity": "restaurant", "cuisine": "regional", "name": "Kroula"}}, {"type": "node", "id": 2870513207, "lat": 42.9655087, "lon": 16.8080135, "tags": {"amenity": "restaurant", "cuisine": "regional", "name": "Prigradica"}}, {"type": "node", "id": 2870513208, "lat": 42.9662856, "lon": 16.8115876, "tags": {"amenity": "restaurant", "name": "Bistro Prigradica"}}, {"type": "node", "id": 2870513210, "lat": 42.9662284, "lon": 16.8125928, "tags": {"amenity": "restaurant", "name": "Konoba Kraljevi\u0107", "phone": "+4920 841 196"}}, {"type": "node", "id": 3034680626, "lat": 43.0088308, "lon": 17.2695541, "tags": {"amenity": "restaurant", "cuisine": "regional", "internet_access": "no", "name": "Konoba \u0160kojera"}}, {"type": "node", "id": 3034680627, "lat": 43.0091262, "lon": 17.2689382, "tags": {"amenity": "restaurant", "cuisine": "regional", "internet_access": "no", "name": "Konoba Trpani"}}, {"type": "node", "id": 3034825541, "lat": 42.9499897, "lon": 17.1115759, "tags": {"amenity": "restaurant", "cuisine": "regional", "internet_access": "no", "name": "Belin"}}, {"type": "node", "id": 3034847531, "lat": 42.9409116, "lon": 17.1429611, "tags": {"amenity": "restaurant", "cuisine": "regional", "internet_access": "no", "name": "Konoba Maslina"}}, {"type": "node", "id": 3036425661, "lat": 43.0094873, "lon": 17.2682443, "tags": {"amenity": "cafe", "name": "Veslo"}}, {"type": "node", "id": 3036425665, "lat": 43.0090774, "lon": 17.2683054, "tags": {"amenity": "cafe"}}, {"type": "node", "id": 3036425667, "lat": 43.0090284, "lon": 17.2694771, "tags": {"amenity": "restaurant"}}, {"type": "node", "id": 3036425678, "lat": 43.009196, "lon": 17.2673038, "tags": {"amenity": "restaurant", "cuisine": "pizza", "name": "Dundo"}}, {"type": "node", "id": 3036425680, "lat": 43.0093398, "lon": 17.2678833, "tags": {"amenity": "cafe", "name": "Trenta"}}, {"type": "node", "id": 3036425685, "lat": 43.0081342, "lon": 17.2667121, "tags": {"amenity": "restaurant", "cuisine": "mediterranean", "name": "Ribar"}}, {"type": "node", "id": 3036425690, "lat": 43.0089896, "lon": 17.2666997, "tags": {"amenity": "restaurant", "cuisine": "mediterranean", "name": "Aurora"}}, {"type": "node", "id": 3068009024, "lat": 42.9378054, "lon": 16.7932154, "tags": {"amenity": "cafe"}}, {"type": "node", "id": 3110951142, "lat": 42.978882, "lon": 17.1413528, "tags": {"amenity": "restaurant", "cuisine": "barbecue", "name": "Panorama", "name:en": "Panorama", "name:hr": "Panorama"}}, {"type": "node", "id": 3304263926, "lat": 42.9285998, "lon": 16.8918732, "tags": {"amenity": "restaurant", "cuisine": "pizza", "name": "Asinus"}}, {"type": "node", "id": 3653439158, "lat": 42.7339626, "lon": 16.8852479, "tags": {"amenity": "restaurant", "email": "info@portorus.com", "name": "Porto Rosso", "phone": "+38520801261", "website": "https://portorus.com/"}}, {"type": "node", "id": 3689398448, "lat": 42.9740058, "lon": 17.1769996, "tags": {"addr:city": "Orebi\u0107", "addr:housenumber": "30", "addr:postcode": "20250", "addr:street": "Pomoraca", "amenity": "cafe", "contact:facebook": "CroccantinoCRO", "cuisine": "ice_cream;cake;bakery", "internet_access": "yes", "name": "Croccantino", "outdoor_seating": "yes", "phone": "+385 98 165 0777", "smoking": "outside", "wheelchair": "yes"}}, {"type": "node", "id": 3762396177, "lat": 42.9508553, "lon": 17.0370747, "tags": {"amenity": "restaurant", "cuisine": "regional", "name": "Konoba Mate"}}, {"type": "node", "id": 3876912387, "lat": 42.9769121, "lon": 17.18662, "tags": {"amenity": "cafe", "name": "Zona"}}, {"type": "node", "id": 4014707685, "lat": 42.9591944, "lon": 16.7126559, "tags": {"amenity": "restaurant", "name": "Dalamacija"}}, {"type": "node", "id": 4019929830, "lat": 42.9613502, "lon": 16.7161123, "tags": {"amenity": "cafe", "cuisine": "ice_cream", "name": "Baltoni"}}, {"type": "node", "id": 4019929831, "lat": 42.9606824, "lon": 16.716758, "tags": {"amenity": "restaurant", "name": "Konoba Bata"}}, {"type": "node", "id": 4019929832, "lat": 42.9599843, "lon": 16.7134934, "tags": {"amenity": "restaurant", "name": "Mirakul"}}, {"type": "node", "id": 4019937162, "lat": 42.961142, "lon": 16.7174644, "tags": {"amenity": "cafe", "name": "Cesarica"}}, {"type": "node", "id": 4019965902, "lat": 42.9614666, "lon": 16.7174264, "tags": {"amenity": "restaurant", "cuisine": "regional", "name": "Casablanca"}}, {"type": "node", "id": 4019965905, "lat": 42.9633146, "lon": 16.717007, "tags": {"amenity": "restaurant", "cuisine": "italian", "name": "Pizzeria Alfa"}}, {"type": "node", "id": 4019965906, "lat": 42.9625346, "lon": 16.7177494, "tags": {"amenity": "restaurant", "cuisine": "italian", "name": "Pizzeria Da Vinci"}}, {"type": "node", "id": 4019965907, "lat": 42.9624331, "lon": 16.7178455, "tags": {"amenity": "cafe", "name": "Plaf"}}, {"type": "node", "id": 4019965908, "lat": 42.9632439, "lon": 16.7170696, "tags": {"amenity": "cafe", "name": "Tropicana"}}, {"type": "node", "id": 4059373544, "lat": 42.9607879, "lon": 16.7144225, "tags": {"amenity": "cafe", "internet_access": "yes", "name": "Ingleso"}}, {"type": "node", "id": 4335709513, "lat": 42.7728706, "lon": 16.8767388, "tags": {"amenity": "restaurant", "cuisine": "fish", "internet_access": "wlan", "name": "Triton restaurant", "phone": "+385 20 801 161", "phone_1": "+385 91 7313 122"}}, {"type": "node", "id": 4344981590, "lat": 42.7661665, "lon": 16.8986561, "tags": {"amenity": "restaurant", "name": "Fumari"}}, {"type": "node", "id": 4360250492, "lat": 42.9588052, "lon": 16.711545, "tags": {"amenity": "cafe", "name": "Caffe Karaka"}}, {"type": "node", "id": 4443963689, "lat": 42.9442606, "lon": 17.109229, "tags": {"amenity": "restaurant", "cuisine": "croatian;steak_house;local;pizza", "name": "Atrij \u017drnovo"}}, {"type": "node", "id": 4790313352, "lat": 42.9624006, "lon": 16.7106355, "tags": {"amenity": "cafe", "name": "Azzurro"}}, {"type": "node", "id": 4996253422, "lat": 42.9362603, "lon": 16.9699843, "tags": {"amenity": "restaurant", "cuisine": "croatian;pasta", "name": "Tomi\u0107 Konobica", "name:af": "Tomi\u0107 Konobica", "name:am": "Tomi\u0107 Konobica", "name:ar": "Tomi\u0107 Konobica", "name:de": "Tomi\u0107 Konobica", "opening_hours": "Mo-Su 17:00-00:00", "phone": "+38520834095"}}, {"type": "node", "id": 5009528040, "lat": 42.9599602, "lon": 17.1354082, "tags": {"addr:housenumber": "16", "addr:street": "Biline", "amenity": "cafe", "cuisine": "ice_cream;cake;smoothie", "name": "\"Kiwi\" Caffe Bar Slasti\u010darna", "opening_hours": "Mo-Su 08:00-00:00", "payment:cash": "only", "phone": "+385 99 801 5100", "website": "https://slasticarna-kiwi.business.site"}}, {"type": "node", "id": 5029971721, "lat": 42.911883, "lon": 16.9365774, "tags": {"addr:city": "\u010cara", "addr:housenumber": "560", "addr:postcode": "20273", "addr:street": "Zavalatica", "amenity": "restaurant", "cuisine": "fish", "email": "albert.marelic@du.t-com.hr", "internet_access": "wlan", "name": "Konoba Albert", "phone": "+38520834068"}}, {"type": "node", "id": 5035365321, "lat": 42.9778112, "lon": 17.1449947, "tags": {"amenity": "restaurant", "name": "Ponar", "operational_status": "closed"}}, {"type": "node", "id": 5048577721, "lat": 42.9599693, "lon": 17.1354125, "tags": {"amenity": "cafe", "internet_access": "wlan", "name": "KIWI", "name:pl": "KIWI", "opening_hours": "Mo-Fr 08:00-00:00; Sa-Su 09:00-00:00"}}, {"type": "node", "id": 5081032001, "lat": 42.7718486, "lon": 16.875523, "tags": {"amenity": "restaurant", "cuisine": "regional;seafood", "email": "info@augustainsula.com", "name": "Augusta Insula", "outdoor_seating": "yes", "phone": "+385 20 801 167", "website": "https://www.augustainsula.com/"}}, {"type": "node", "id": 5084369716, "lat": 42.7713729, "lon": 16.7929632, "tags": {"amenity": "restaurant", "name": "Fishmarket", "outdoor_seating": "yes", "phone": "+385 98 328 238"}}, {"type": "node", "id": 5121503723, "lat": 42.9749054, "lon": 17.174651, "tags": {"amenity": "cafe", "name:en": "Palomino"}}, {"type": "node", "id": 5121749321, "lat": 42.959744, "lon": 17.1346851, "tags": {"amenity": "cafe", "cuisine": "breakfast;croatian;pizza;pasta;sandwich", "name": "Kolenda"}}, {"type": "node", "id": 5121878221, "lat": 42.9601717, "lon": 17.1345248, "tags": {"amenity": "restaurant", "cuisine": "pizza", "name:en": "Pizzeria Leut"}}, {"type": "node", "id": 5122398622, "lat": 42.961249, "lon": 17.136276, "tags": {"amenity": "restaurant", "cuisine": "balkan;croatian;fish;grill;pasta;regional;seafood", "name": "Konoba Marco Polo", "name:en": "Marco Polo", "name:etymology:wikidata": "Q6101"}}, {"type": "node", "id": 5123760421, "lat": 42.958788, "lon": 17.1345192, "tags": {"amenity": "cafe", "cuisine": "coffee_shop;cake;sandwich", "internet_access": "wlan", "name": "Servantes"}}, {"type": "node", "id": 5124867221, "lat": 42.9597387, "lon": 17.1351025, "tags": {"amenity": "restaurant", "cuisine": "croatian", "name": "Bistro Gu\u0161t"}}, {"type": "node", "id": 5126078721, "lat": 42.960641, "lon": 17.1365168, "tags": {"amenity": "cafe", "cuisine": "coffee_shop", "name": "Cini Coljac"}}, {"type": "node", "id": 5892762288, "lat": 43.0083292, "lon": 17.2719995, "tags": {"amenity": "cafe", "name": "Coffe Arts"}}, {"type": "node", "id": 5960821522, "lat": 42.7660248, "lon": 16.8226502}, {"type": "node", "id": 5960821523, "lat": 42.7659342, "lon": 16.8225268}, {"type": "node", "id": 5960821524, "lat": 42.7658574, "lon": 16.8226502}, {"type": "node", "id": 5960821525, "lat": 42.765948, "lon": 16.8227655}, {"type": "node", "id": 6409020972, "lat": 42.7730894, "lon": 16.8774113}, {"type": "node", "id": 6409020973, "lat": 42.7731519, "lon": 16.877661}, {"type": "node", "id": 6409020974, "lat": 42.7730071, "lon": 16.8777144}, {"type": "node", "id": 6409020975, "lat": 42.7729194, "lon": 16.8777483}, {"type": "node", "id": 6409020976, "lat": 42.7728858, "lon": 16.8775358}, {"type": "node", "id": 6536979985, "lat": 42.9281272, "lon": 16.6869144, "tags": {"amenity": "restaurant", "cuisine": "croatian", "name": "Bajko", "name:en": "Konoba Bajko", "name:hr": "Konoba Bajko", "opening_hours": "Mo-Su 18:00-00:00"}}, {"type": "node", "id": 6567820786, "lat": 42.9297778, "lon": 17.1633592, "tags": {"addr:street": "Lumbarajska", "amenity": "restaurant", "name": "Gavuni"}}, {"type": "node", "id": 6568414886, "lat": 42.961266, "lon": 17.135118, "tags": {"addr:housenumber": "2", "addr:street": "Trg kor\u010dulanskih klesara i kipara", "amenity": "restaurant", "name": "Aterina"}}, {"type": "node", "id": 6609254885, "lat": 42.7688927, "lon": 16.8965707, "tags": {"amenity": "cafe", "cuisine": "coffee_shop;tea", "internet_access": "wlan", "name": "Indigo", "opening_hours": "Mo-Su 07:00-02:00"}}, {"type": "node", "id": 6616758886, "lat": 42.7731299, "lon": 16.8736637, "tags": {"addr:housenumber": "42", "addr:street": "Zaklopatica", "amenity": "restaurant", "cuisine": "regional", "name": "The Brain", "outdoor_seating": "yes", "phone": "+3891 919 5980", "website": "https://konoba-brian.business.site"}}, {"type": "node", "id": 6624676465, "lat": 42.7483403, "lon": 16.8262898, "tags": {"amenity": "restaurant", "cuisine": "regional", "name": "Konoba Pece"}}, {"type": "node", "id": 6685421958, "lat": 42.9225637, "lon": 17.1711797, "tags": {"amenity": "restaurant", "name": "Salsa Bar & Grill"}}, {"type": "node", "id": 6685424747, "lat": 42.9228237, "lon": 17.1833927, "tags": {"amenity": "restaurant", "name": "Konoba Luka"}}, {"type": "node", "id": 6685432797, "lat": 42.9225165, "lon": 17.1708841, "tags": {"amenity": "restaurant", "name": "Fjaka"}}, {"type": "node", "id": 6685438083, "lat": 42.9237849, "lon": 17.1689622, "tags": {"amenity": "restaurant", "name": "Konoba MORE"}}, {"type": "node", "id": 6806058286, "lat": 42.9811479, "lon": 17.198444, "tags": {"amenity": "restaurant", "name": "Nevio"}}, {"type": "node", "id": 6860525206, "lat": 42.9841422, "lon": 17.1970488, "tags": {"amenity": "restaurant", "name": "Olive Garden"}}, {"type": "node", "id": 6868149282, "lat": 42.9759623, "lon": 17.1820168, "tags": {"amenity": "restaurant", "capacity": "30", "cuisine": "regional", "name": "Meteor"}}, {"type": "node", "id": 6877866715, "lat": 42.974103, "lon": 17.181154, "tags": {"amenity": "restaurant", "cuisine": "regional", "name": "Amfora"}}, {"type": "node", "id": 6879549933, "lat": 42.9745343, "lon": 17.1618646}, {"type": "node", "id": 6879549934, "lat": 42.9745198, "lon": 17.1619603}, {"type": "node", "id": 6879549935, "lat": 42.9745779, "lon": 17.1619767}, {"type": "node", "id": 6879549937, "lat": 42.9745923, "lon": 17.1618809}, {"type": "node", "id": 6879549938, "lat": 42.9745475, "lon": 17.1618667}, {"type": "node", "id": 6883194671, "lat": 42.9756445, "lon": 17.1319596, "tags": {"amenity": "cafe", "name": "Palma", "opening_hours": "09:00-24:00", "outdoor_seating": "yes", "toilets": "yes"}}, {"type": "node", "id": 6900465631, "lat": 42.9808436, "lon": 17.1144654, "tags": {"amenity": "restaurant", "cuisine": "regional", "internet_access": "wlan", "internet_access:fee": "no", "name": "Bota", "smoking": "yes", "wheelchair": "yes"}}, {"type": "node", "id": 7861128885, "lat": 42.9619243, "lon": 17.1369614, "tags": {"addr:housenumber": "6", "addr:postcode": "20260", "addr:street": "\u0160etaliste Petra Kanaveli\u0107a", "amenity": "cafe", "cuisine": "cake;coffee_shop;tea", "name": "Aurora", "name:en": "Aurora Sweets", "opening_hours": "Mo-Su 08:00-00:00", "phone": "+385 92 314 6278"}}, {"type": "node", "id": 8959507518, "lat": 42.9616526, "lon": 17.1243759, "tags": {"amenity": "restaurant", "name": "Konoba Caparin"}}, {"type": "node", "id": 8959515126, "lat": 42.9448668, "lon": 17.1455605, "tags": {"amenity": "restaurant", "name": "Restoran Malta"}}, {"type": "node", "id": 9026203117, "lat": 42.974326, "lon": 17.1764091, "tags": {"amenity": "restaurant", "name": "La Casa"}}, {"type": "node", "id": 9029643600, "lat": 42.9342513, "lon": 17.1070387, "tags": {"amenity": "restaurant", "contact:facebook": "https://m.facebook.com/pages/category/Pub/Pinjac-Pub-444136482768479/", "cuisine": "grill", "name": "Pinjac", "opening_hours": "Mo-Su 18:00-00:00", "outdoor_seating": "yes", "phone": "+385 91 450 1073"}}, {"type": "node", "id": 9031866117, "lat": 42.9199077, "lon": 17.1773494, "tags": {"amenity": "restaurant", "name": "Vitis"}}, {"type": "node", "id": 9033088488, "lat": 42.9125059, "lon": 17.1025326, "tags": {"amenity": "restaurant", "capacity": "16", "cuisine": "regional", "description": "A small, lovely & solitary Konoba (family business) with charcoal barbecue. \nDrinks: beer, wine, mineralwater & homemade lemonade, coffee & tea - that's all. \nMeals: Dalmatian starters, pasta, fresh seafood, fish, lamb & pork", "email": "pavjaluka@gmail.com", "mobile": "+385 95 730 0091", "name": "Konoba Pavja luka", "phone": "+385 91 477 0257", "website": "https://web.facebook.com/people/Konoba-Pavja-Luka/100036783532864/?_rdc=1&_rdr"}}, {"type": "node", "id": 9063471415, "lat": 42.9257578, "lon": 17.168761, "tags": {"amenity": "restaurant", "name": "Tavern Diva Faustina"}}, {"type": "node", "id": 9063472104, "lat": 42.9273089, "lon": 17.1627966, "tags": {"amenity": "restaurant", "name": "Skafetin"}}, {"type": "node", "id": 9063501315, "lat": 42.9180324, "lon": 17.1844935, "tags": {"amenity": "restaurant", "fixme": "position/still there?", "name": "Nonno"}}, {"type": "node", "id": 9064401063, "lat": 42.9822931, "lon": 17.1013415, "tags": {"amenity": "restaurant", "name": "Konoba Karmela Viganj"}}, {"type": "node", "id": 9179843226, "lat": 42.9846563, "lon": 17.0919033, "tags": {"addr:city": "Ku\u0107i\u0161te", "addr:housenumber": "81", "addr:postcode": "20267", "addr:street": "Viganj", "amenity": "restaurant", "cuisine": "regional", "name": "Bistro Montun", "phone": "+38598725841", "website": "http://nakovana.com"}}, {"type": "node", "id": 9199440950, "lat": 42.9608231, "lon": 16.7137536, "tags": {"amenity": "restaurant", "contact:facebook": "https://www.facebook.com/RESTAURANTLUKY/", "name": "Restoran Luky", "website": "https://www.marina-korkyra.com/page/luky-restaurant-bar"}}, {"type": "node", "id": 9959190717, "lat": 42.9743233, "lon": 17.1786254, "tags": {"addr:housenumber": "4", "addr:street": "Obala pomoraca", "amenity": "restaurant", "name": "Piazetta", "opening_hours": "Mo-Sa 10:00-21:00"}}, {"type": "node", "id": 9959282150, "lat": 42.9625343, "lon": 17.1364817, "tags": {"amenity": "restaurant", "name": "Popina", "outdoor_seating": "yes"}}, {"type": "node", "id": 10018737318, "lat": 42.9499312, "lon": 17.1097277, "tags": {"addr:housenumber": "2", "addr:postcode": "20275", "addr:street": "\u017drnovo", "amenity": "restaurant", "cuisine": "croatian", "name": "BEVANDA Agroturizam", "opening_hours": "Mo-Sa 20:00-12:00", "phone": "+385 91 477 0236"}}, {"type": "node", "id": 10040360562, "lat": 42.9143547, "lon": 16.9373573, "tags": {"addr:street": "\u010cara", "amenity": "restaurant", "description": "Home made cooking (best to pre-order)", "name": "\u017ditna Mareli\u0107", "phone": "+385919273774"}}, {"type": "node", "id": 10042290891, "lat": 42.9747062, "lon": 17.1399603, "tags": {"amenity": "restaurant", "name": "Restoran Vrgorac"}}, {"type": "node", "id": 10045925236, "lat": 42.9746844, "lon": 17.1400641, "tags": {"amenity": "restaurant", "name": "Piccolo"}}, {"type": "node", "id": 10045931830, "lat": 42.9750567, "lon": 17.1454067, "tags": {"amenity": "restaurant", "name": "Nautilus Restoran"}}, {"type": "node", "id": 10051973548, "lat": 42.9827544, "lon": 17.103995, "tags": {"amenity": "restaurant", "name": "Restaurant Kod Ivana"}}, {"type": "node", "id": 10051973556, "lat": 42.9792566, "lon": 17.1036457, "tags": {"amenity": "restaurant", "name": "Ponta pizza bar & grill"}}, {"type": "node", "id": 10051973572, "lat": 42.9792798, "lon": 17.1041823, "tags": {"amenity": "restaurant", "name": "Croccantino"}}, {"type": "node", "id": 10051973573, "lat": 42.9791358, "lon": 17.1062608, "tags": {"amenity": "restaurant", "name": "\u010ciringito bar"}}, {"type": "node", "id": 10052380085, "lat": 42.9768855, "lon": 17.186239, "tags": {"amenity": "restaurant", "name": "Restaurant Posejdon"}}, {"type": "node", "id": 10717958320, "lat": 42.9313436, "lon": 17.0786727}, {"type": "node", "id": 11177181215, "lat": 42.9612078, "lon": 17.1357623, "tags": {"amenity": "restaurant", "cuisine": "italian", "name": "Amfora"}}, {"type": "node", "id": 11299515963, "lat": 42.9856382, "lon": 17.0838385, "tags": {"amenity": "restaurant", "contact:facebook": "https://www.facebook.com/masklin.peljesac", "contact:phone": "+385 98 344 547", "name": "Konoba Ma\u0161klin Pelje\u0161ac"}}, {"type": "node", "id": 11993496869, "lat": 42.9125384, "lon": 16.739844, "tags": {"addr:postcode": "20271", "amenity": "restaurant", "name": "Konoba Zvirinovik", "phone": "+385 91 151 1127"}}, {"type": "node", "id": 12171602699, "lat": 42.9522523, "lon": 17.1430776}, {"type": "node", "id": 12171602700, "lat": 42.9522601, "lon": 17.143178}, {"type": "node", "id": 12171619601, "lat": 42.9522153, "lon": 17.1431887}, {"type": "node", "id": 12171619602, "lat": 42.9522248, "lon": 17.1430738}, {"type": "node", "id": 12238965086, "lat": 42.9623731, "lon": 17.136394, "tags": {"addr:city": "Kor\u010dula", "addr:housenumber": "16", "addr:postcode": "20260", "addr:street": "Ulica svetog Roka", "amenity": "restaurant", "name": "Dritta Strada", "opening_hours": "Mo-Su 16:00-24:00", "phone": "+385981654992", "website": "https://drittastrada.com/"}}, {"type": "node", "id": 12819102216, "lat": 42.9621109, "lon": 17.1353231, "tags": {"addr:city": "Kor\u010dula", "addr:housenumber": "5", "addr:postcode": "20260", "addr:street": "Obala dr. Franje Tu\u0111mana", "amenity": "restaurant", "contact:facebook": "https://www.facebook.com/profile.php/?id=100093072866104", "cuisine": "mediterranean;fine_dining;european;regional;breakfast;pastry", "name": "7 Seas Restaurant & Bar", "phone": "+385 52 858 600", "website": "https://www.aminess.com/en/accommodation/hotels-and-resorts/korcula/aminess-korcula-heritage-hotel/"}}, {"type": "way", "id": 195565619, "nodes": [2059859000, 2059858988, 2059858985, 2059858997, 2059859000], "tags": {"amenity": "restaurant", "building": "house", "cuisine": "international", "name": "Konoba Adriana - Punto Mare"}}, {"type": "way", "id": 196165398, "nodes": [2065204388, 2065204373, 2065204361, 2065204385, 2065204388], "tags": {"amenity": "restaurant", "building": "house", "cuisine": "regional", "email": "marin.radovanovic@du.t-com.hr", "name": "Konoba Belin", "phone": "+385 91 5039258", "website": "https://www.facebook.com/RestoranBelin"}}, {"type": "way", "id": 196167545, "nodes": [2065212885, 2065212874, 2065212868, 2065212878, 2065212885], "tags": {"amenity": "cafe", "building": "house"}}, {"type": "way", "id": 198169497, "nodes": [2083404507, 2083404490, 2083404493, 2083404511, 2083404507], "tags": {"amenity": "restaurant", "building": "yes", "name": "restaurant Vala", "takeaway": "yes"}}, {"type": "way", "id": 198179166, "nodes": [2083474113, 2083474105, 2083474103, 2083474111, 2083474113], "tags": {"amenity": "restaurant", "building": "yes", "name": "Hotel Restaurant Mediteran"}}, {"type": "way", "id": 199986013, "nodes": [2099661771, 2099661770, 2099661767, 2099661769, 2099661771], "tags": {"amenity": "restaurant", "building": "yes", "cuisine": "italian", "name": "Il Cantuccio"}}, {"type": "way", "id": 199994673, "nodes": [2099771849, 2099771847, 2099771845, 2099771846, 2099771849], "tags": {"amenity": "cafe", "building": "yes"}}, {"type": "way", "id": 200143423, "nodes": [2101297940, 2101297934, 2101297938, 2101297942, 2101297940], "tags": {"amenity": "cafe", "name": "Academia"}}, {"type": "way", "id": 238362419, "nodes": [2462039740, 2462039738, 2462039739, 2462039741, 2462039740], "tags": {"amenity": "restaurant", "building": "yes", "cuisine": "regional", "name": "Bistro Dalmatino"}}, {"type": "way", "id": 239061810, "nodes": [2468765520, 2468765523, 2468765525, 2468765526, 2468765520], "tags": {"addr:city": "Orebi\u0107", "addr:postcode": "20250", "addr:street": "\u0160etali\u0161te kneza Domagoja", "amenity": "restaurant", "building": "yes", "cuisine": "regional", "name": "Konoba Marinero", "note": "Domestic Dalmatian Cuisine"}}, {"type": "way", "id": 239061811, "nodes": [2468765528, 2468765530, 2468765532, 2468765534, 2468765528], "tags": {"addr:city": "Orebi\u0107", "addr:housenumber": "32", "addr:postcode": "20250", "addr:street": "\u0160etali\u0161te kneza Domagoja", "amenity": "restaurant", "building": "yes", "cuisine": "regional", "name": "Konoba Karako", "note": "Domestic Dalmatian Cuisine", "phone": "+385 20 713 116"}}, {"type": "way", "id": 247064760, "nodes": [2540042223, 2540042224, 2540042220, 2540042219, 2540042223], "tags": {"amenity": "cafe", "building": "yes", "name": "Mihajla", "roof:material": "roof_tiles", "roof:shape": "gabled"}}, {"type": "way", "id": 256914402, "nodes": [2625332858, 2625332860, 2625332853, 2625332852, 2625332858], "tags": {"amenity": "restaurant", "building": "yes", "cuisine": "regional", "name": "Diva Faustina"}}, {"type": "way", "id": 260103805, "nodes": [2655909391, 2655909382, 2655909384, 2655909369, 2655909363, 2655909387, 2655909391], "tags": {"addr:city": "Blato", "addr:housenumber": "5", "addr:postcode": "20271", "addr:street": "11. ulica", "amenity": "restaurant", "building": "yes", "capacity": "100", "cuisine": "regional;pizza;spaghetti", "name": "Pizzeria Tinel", "note": "Few minutes walking from the center of Blato, in the house old over 150 years, are widely open doors for all visitors who want good pizza and rest of specialty made in old original stove with wood.", "opening_hours": "18:00-24:00", "smoking": "outside", "source": "www.tinel.hr", "website": "www.tinel.hr"}}, {"type": "way", "id": 260244771, "nodes": [2657248275, 2657248266, 2657248268, 2657248273, 2657248276, 2657248275], "tags": {"addr:city": "Vela Luka", "addr:country": "HR", "addr:housenumber": "11", "addr:postcode": "20270", "addr:street": "Obala 2", "amenity": "restaurant", "building": "yes", "cuisine": "mediterranean", "internet_access": "wlan", "name": "Konoba Skalinada"}}, {"type": "way", "id": 260380908, "nodes": [2658519377, 2658519352, 2658519353, 2658519359, 2658519361, 2658519354, 2658519355, 2658519358, 2658519360, 2658519356, 2658519357, 2658519380, 2658519379, 2658519374, 2658519373, 2658519378, 2658519377], "tags": {"amenity": "restaurant", "building": "house", "name": "Riva No 1"}}, {"type": "way", "id": 262762912, "nodes": [10717958320, 2684170821, 2684170820, 2684170816, 10717958320], "tags": {"addr:city": "\u017drnovo", "addr:postcode": "20275", "addr:street": "Vrsi", "amenity": "restaurant", "building": "house", "contact:facebook": "konobamaha", "contact:instagram": "konobamaha", "cuisine": "mediterranean", "email": "konobamaha@gmail.com", "mobile": "+385 91 605 1207", "name": "konoba maha", "nohousenumber": "yes", "website": "https://konobamaha.com"}}, {"type": "way", "id": 271681602, "nodes": [2766319675, 2766319671, 2766319666, 2766319673, 2766319675], "tags": {"amenity": "restaurant", "building": "yes", "cuisine": "regional", "name": "Konoba Ba\u010dva"}}, {"type": "way", "id": 631215202, "nodes": [5960821522, 5960821523, 5960821524, 5960821525, 5960821522], "tags": {"addr:city": "Pasadur", "addr:postcode": "20289", "addr:street": "Pasadur", "amenity": "restaurant", "building": "yes"}}, {"type": "way", "id": 684134217, "nodes": [6409020972, 6409020973, 6409020974, 6409020975, 6409020976, 6409020972], "tags": {"addr:city": "Lastovo", "addr:housenumber": "13a", "addr:postcode": "20290", "addr:street": "Zaklopatica", "amenity": "restaurant", "building": "yes", "building:levels": "2", "cuisine": "regional;fish_and_chips", "name": "Konoba Santor", "opening_hours": "24/7", "phone": "+385 953803363", "website": "https://tavernsantor.com/"}}, {"type": "way", "id": 734583877, "nodes": [6879549937, 6879549935, 6879549934, 6879549933, 6879549938, 6879549937], "tags": {"amenity": "restaurant", "building": "yes", "cuisine": "international", "name": "Punto Mare", "operator": "Aminess Grand Azur"}}, {"type": "way", "id": 1315030931, "nodes": [12171602699, 12171602700, 12171619601, 12171619602, 12171602699], "tags": {"amenity": "restaurant", "building": "yes", "cuisine": "international", "name": "Punto Mare"}}]}