{"version": 0.6, "generator": "Overpass API 0.7.62.7 375dc00a", "osm3s": {"timestamp_osm_base": "2025-06-14T15:06:54Z", "copyright": "The data included in this document is from www.openstreetmap.org. The data is made available under ODbL."}, "elements": [{"type": "node", "id": 309903617, "lat": 39.5733218, "lon": 32.1220609, "tags": {"amenity": "restaurant", "name": "Y\u0131lmaz Konya Tand\u0131r"}}, {"type": "node", "id": 309903618, "lat": 39.5738129, "lon": 32.1227829, "tags": {"amenity": "restaurant", "cuisine": "turkish", "name": "Sofram Anteplim"}}, {"type": "node", "id": 1864487065, "lat": 39.5840509, "lon": 32.1406054, "tags": {"amenity": "cafe", "name": "\u0130kbal's Kafe"}}, {"type": "node", "id": 1864500083, "lat": 39.5739329, "lon": 32.1231014, "tags": {"amenity": "restaurant", "name": "\u00c7ig B\u00f6rek & Manti Evi"}}, {"type": "node", "id": 1864884015, "lat": 39.5842985, "lon": 32.1420828, "tags": {"amenity": "cafe", "name": "Midas Kafe"}}, {"type": "node", "id": 1864889476, "lat": 39.5803482, "lon": 32.1426702, "tags": {"amenity": "cafe", "name": "Sakarya Cafe"}}, {"type": "node", "id": 1864891266, "lat": 39.5848938, "lon": 32.1412084, "tags": {"amenity": "cafe", "name": "\u0130stasyon Cafe"}}, {"type": "node", "id": 1864895878, "lat": 39.5845217, "lon": 32.1428043, "tags": {"amenity": "cafe", "name": "Cesa Cigkofte"}}, {"type": "node", "id": 3061493626, "lat": 39.5880199, "lon": 32.1269839, "tags": {"amenity": "cafe", "cuisine": "pizza;burger", "internet_access": "yes", "name": "Ebrar Kafe", "smoking": "outside"}}, {"type": "node", "id": 6343749647, "lat": 39.7079016, "lon": 32.2812555}, {"type": "node", "id": 6343749648, "lat": 39.707819, "lon": 32.2812367}, {"type": "node", "id": 6343749649, "lat": 39.7077922, "lon": 32.2811723}, {"type": "node", "id": 6343749650, "lat": 39.7076065, "lon": 32.2813199}, {"type": "node", "id": 6343749651, "lat": 39.7075709, "lon": 32.2815522}, {"type": "node", "id": 6343749652, "lat": 39.7077509, "lon": 32.2815975}, {"type": "node", "id": 6343749653, "lat": 39.7079088, "lon": 32.2814419}, {"type": "node", "id": 6343749654, "lat": 39.707883, "lon": 32.281399}, {"type": "node", "id": 8870979017, "lat": 39.7872852, "lon": 32.3913984, "tags": {"amenity": "restaurant"}}, {"type": "node", "id": 11455256272, "lat": 39.5867463, "lon": 32.1439811, "tags": {"addr:housenumber": "2", "addr:street": "Cumhuriyet Mah. Ataturk Cad Necip Faz\u0131l Park\u0131 2, Etap, 06900 Polatl\u0131/Ankara", "amenity": "cafe", "branch": "Polatl\u0131", "brand": "Coffee Lab", "brand:wikidata": "Q109568497", "cuisine": "coffee_shop", "name": "Coffee Lab", "opening_hours": "Mo-Su 07:00-00:00", "phone": "(0312) 623 66 23", "shop": "coffee", "takeaway": "yes", "website": "https://www.coffeelab.com.tr/"}}, {"type": "node", "id": 12430453133, "lat": 39.5768352, "lon": 32.1453031}, {"type": "node", "id": 12430453134, "lat": 39.5768222, "lon": 32.1451217}, {"type": "node", "id": 12430453135, "lat": 39.5770364, "lon": 32.1450965}, {"type": "node", "id": 12430453136, "lat": 39.5769621, "lon": 32.1452108}, {"type": "node", "id": 12430453137, "lat": 39.5769354, "lon": 32.1452454}, {"type": "node", "id": 12430453138, "lat": 39.5768901, "lon": 32.1452801}, {"type": "node", "id": 12886158401, "lat": 39.5738255, "lon": 32.1287311, "tags": {"addr:street": "Nasreddin Hoca Bulvar\u0131", "amenity": "restaurant", "internet_access": "wlan", "name": "Me\u015fhur Polatl\u0131 \u00c7orba ve Sakatat", "name:en": "Famous Polatl\u0131 Soup", "self_service": "yes"}}, {"type": "way", "id": 677509857, "nodes": [6343749647, 6343749648, 6343749649, 6343749650, 6343749651, 6343749652, 6343749653, 6343749654, 6343749647], "tags": {"amenity": "restaurant", "building": "yes"}}, {"type": "way", "id": 1343440395, "nodes": [12430453133, 12430453134, 12430453135, 12430453136, 12430453137, 12430453138, 12430453133], "tags": {"amenity": "restaurant", "building": "yes"}}]}