{"version": 0.6, "generator": "Overpass API 0.7.62.7 375dc00a", "osm3s": {"timestamp_osm_base": "2025-06-14T13:26:15Z", "copyright": "The data included in this document is from www.openstreetmap.org. The data is made available under ODbL."}, "elements": [{"type": "node", "id": 1272100812, "lat": 33.8742421, "lon": 10.9563773, "tags": {"amenity": "restaurant", "name": "La Rose Snack Bar"}}, {"type": "node", "id": 1856296214, "lat": 33.875705, "lon": 10.8889567, "tags": {"amenity": "cafe", "name": "\u0627\u0644\u0641\u0644\u0648\u0643\u0629", "name:ar": "\u0627\u0644\u0641\u0644\u0648\u0643\u0629", "name:fr": "El Flouka", "smoking": "yes", "wheelchair": "no"}}, {"type": "node", "id": 2773226299, "lat": 33.8860451, "lon": 10.8564391, "tags": {"amenity": "restaurant"}}, {"type": "node", "id": 2773226302, "lat": 33.8860432, "lon": 10.8570211, "tags": {"amenity": "cafe"}}, {"type": "node", "id": 2773226339, "lat": 33.8861164, "lon": 10.8564941, "tags": {"amenity": "cafe"}}, {"type": "node", "id": 2773226364, "lat": 33.8861887, "lon": 10.8562607, "tags": {"amenity": "cafe"}}, {"type": "node", "id": 2773226468, "lat": 33.886417, "lon": 10.8561454, "tags": {"addr:city": "\u062d\u0648\u0645\u0629 \u0627\u0644\u0633\u0648\u0642", "amenity": "cafe", "name": "\u0647\u0627\u0641\u0627\u0646\u0627", "name:ar": "\u0647\u0627\u0641\u0627\u0646\u0627", "name:en": "Havana", "name:fr": "Havana"}}, {"type": "node", "id": 3147216429, "lat": 33.8774256, "lon": 10.8742634, "tags": {"addr:city": "\u062d\u0648\u0645\u0629 \u0627\u0644\u0633\u0648\u0642", "amenity": "cafe", "name": "\u062a\u064a\u062c \u0627\u0644\u0633\u0644\u0637\u0627\u0646", "name:ar": "\u062a\u064a\u062c \u0627\u0644\u0633\u0644\u0637\u0627\u0646", "name:en": "Taj Sultan"}}, {"type": "node", "id": 3416046649, "lat": 33.879901, "lon": 10.8571568, "tags": {"amenity": "cafe"}}, {"type": "node", "id": 3431293379, "lat": 33.8775481, "lon": 10.8587826, "tags": {"amenity": "restaurant", "name": "Les Palmiers"}}, {"type": "node", "id": 3431363141, "lat": 33.875489, "lon": 10.858098, "tags": {"amenity": "cafe"}}, {"type": "node", "id": 3654320530, "lat": 33.8780869, "lon": 10.859724, "tags": {"amenity": "restaurant"}}, {"type": "node", "id": 3654350681, "lat": 33.8775686, "lon": 10.8591967, "tags": {"addr:city": "Houmt Souk", "amenity": "restaurant", "cuisine": "regional;burger;dessert;juice;french;coffee_shop;breakfast;mediterranean", "diet:gluten_free": "yes", "diet:vegetarian": "yes", "internet_access": "yes", "internet_access:fee": "customers", "name": "El Fondouk", "outdoor_seating": "no", "phone": "+216 28 988 276", "website": "https://www.facebook.com/elfondoukdjerba"}}, {"type": "node", "id": 3818682547, "lat": 33.87418, "lon": 10.9564194}, {"type": "node", "id": 3818682548, "lat": 33.8742104, "lon": 10.9562803}, {"type": "node", "id": 3818682549, "lat": 33.8742656, "lon": 10.9564201}, {"type": "node", "id": 3818682550, "lat": 33.8742823, "lon": 10.9564234}, {"type": "node", "id": 3818682553, "lat": 33.874304, "lon": 10.9563261}, {"type": "node", "id": 3847140995, "lat": 33.8595334, "lon": 10.9721548, "tags": {"amenity": "restaurant"}}, {"type": "node", "id": 4776553915, "lat": 33.8514017, "lon": 10.9533474, "tags": {"amenity": "cafe", "name": "Caf\u00e9 Mezraya"}}, {"type": "node", "id": 4781983521, "lat": 33.8789855, "lon": 10.8593339, "tags": {"addr:street": "\u0634\u0627\u0631\u0639 \u0627\u0644\u0637\u064a\u0628 \u0627\u0644\u0645\u0647\u064a\u0631\u064a", "addr:street:ar": "\u0634\u0627\u0631\u0639 \u0627\u0644\u0637\u064a\u0628 \u0627\u0644\u0645\u0647\u064a\u0631\u064a", "addr:street:fr": "Avenue Ta\u00efeb Mhiri", "amenity": "restaurant", "cuisine": "mediterranean", "name": "\u0645\u0637\u0639\u0645 \u0627\u0644\u0633\u0641\u0631\u0629", "name:ar": "\u0645\u0637\u0639\u0645 \u0627\u0644\u0633\u0641\u0631\u0629", "name:en": "Restaurant Essofra", "name:fr": "Restaurant Essofra", "opening_hours": "Tu-Su 00:00-04:00, 19:00-22:00", "phone": "+216 98 281 049", "smoking": "isolated"}}, {"type": "node", "id": 5121878421, "lat": 33.8513452, "lon": 10.9862483, "tags": {"amenity": "cafe", "name:en": "Bella Napoli"}}, {"type": "node", "id": 5352160921, "lat": 33.8855914, "lon": 10.854848, "tags": {"addr:city": "\u062d\u0648\u0645\u0629 \u0627\u0644\u0633\u0648\u0642", "addr:street": "\u0634\u0627\u0631\u0639 \u0627\u0644\u0628\u064a\u0626\u0629", "amenity": "restaurant", "cuisine": "fish;seafood", "name": "\u0645\u0637\u0639\u0645 \u0647\u0627\u0631\u0648\u0646", "name:ar": "\u0645\u0637\u0639\u0645 \u0647\u0627\u0631\u0648\u0646", "name:en": "Restaurant Haroun", "name:fr": "Restaurant Haroun", "opening_hours": "Mo-Su 08:00-00:00", "phone": "+216 75 650 488"}}, {"type": "node", "id": 5443210722, "lat": 33.875808, "lon": 10.8585756, "tags": {"addr:city": "\u062d\u0648\u0645\u0629 \u0627\u0644\u0633\u0648\u0642", "amenity": "cafe"}}, {"type": "node", "id": 5513959265, "lat": 33.868342, "lon": 10.9614848, "tags": {"amenity": "restaurant", "cuisine": "international;tapas", "name": "Ze Mess"}}, {"type": "node", "id": 5515307521, "lat": 33.8778519, "lon": 10.8733615, "tags": {"addr:city": "\u062d\u0648\u0645\u0629 \u0627\u0644\u0633\u0648\u0642", "addr:street": "\u0634\u0627\u0631\u0639 \u0627\u0644\u0628\u064a\u0626\u0629", "amenity": "restaurant", "cuisine": "french", "name": "\u0628\u0627\u0628\u0627 \u0633\u0644\u064a\u0645", "name:ar": "\u0628\u0627\u0628\u0627 \u0633\u0644\u064a\u0645", "name:en": "BABA SLIM", "opening_hours": "Mo-Su 11:00-22:00"}}, {"type": "node", "id": 5534027356, "lat": 33.8754027, "lon": 10.8591804, "tags": {"amenity": "restaurant", "name": "Ezzedine"}}, {"type": "node", "id": 5534032253, "lat": 33.8752271, "lon": 10.858562, "tags": {"amenity": "restaurant"}}, {"type": "node", "id": 5534032254, "lat": 33.875231, "lon": 10.8587167, "tags": {"amenity": "restaurant"}}, {"type": "node", "id": 5534032255, "lat": 33.8752381, "lon": 10.8584262, "tags": {"amenity": "restaurant"}}, {"type": "node", "id": 5534032257, "lat": 33.8759988, "lon": 10.8582886, "tags": {"amenity": "cafe", "name": "Ben Yedder"}}, {"type": "node", "id": 5809514953, "lat": 33.8729099, "lon": 10.8582689, "tags": {"amenity": "cafe", "name": "\u0645\u0642\u0647\u0649 \u0627\u0644\u0645\u062d\u0637\u0629", "name:ar": "\u0645\u0642\u0647\u0649 \u0627\u0644\u0645\u062d\u0637\u0629", "name:fr": "caf\u00e9 station"}}, {"type": "node", "id": 6102745285, "lat": 33.873925, "lon": 10.8592537, "tags": {"addr:city": "\u062d\u0648\u0645\u0629 \u0627\u0644\u0633\u0648\u0642", "addr:city:ar": "\u062d\u0648\u0645\u0629 \u0627\u0644\u0633\u0648\u0642", "amenity": "restaurant", "name": "2 \u062f\u064a\u0646\u0627\u0631 \u062f\u0634", "name:ar": "2 \u062f\u064a\u0646\u0627\u0631 \u062f\u0634", "name:en": "2 dinar dish", "name:fr": "2 dinar dish"}}, {"type": "node", "id": 6167916085, "lat": 33.8730775, "lon": 10.8595843, "tags": {"amenity": "cafe", "internet_access": "wlan", "name": "\u0642\u0627\u0639\u0629 \u0634\u0627\u064a", "name:ar": "\u0642\u0627\u0639\u0629 \u0634\u0627\u064a"}}, {"type": "node", "id": 6465329588, "lat": 33.8634594, "lon": 10.9750095, "tags": {"amenity": "restaurant", "cuisine": "african", "internet_access": "wlan", "name": "Emifris"}}, {"type": "node", "id": 7271608187, "lat": 33.8708708, "lon": 10.8716686, "tags": {"addr:street": "\u0634\u0627\u0631\u0639 14 \u0643\u0627\u0646\u0648\u0646 \u0627\u0644\u062b\u0627\u0646\u064a", "amenity": "restaurant", "name": "\u0628\u0627\u0628\u0627 \u0633\u0644\u064a\u0645 \u0628\u0631\u062c\u0631", "name:ar": "\u0628\u0627\u0628\u0627 \u0633\u0644\u064a\u0645 \u0628\u0631\u062c\u0631", "name:fr": "BABA SLIM BURGER", "operator": "BST"}}, {"type": "node", "id": 7490106721, "lat": 33.8660426, "lon": 10.8653095, "tags": {"amenity": "restaurant", "name": "Brik Ishak"}}, {"type": "node", "id": 7573264685, "lat": 33.8759571, "lon": 10.8550394, "tags": {"amenity": "cafe", "name:fr": "Caf\u00e9 tamtam"}}, {"type": "node", "id": 7656186296, "lat": 33.8797078, "lon": 10.8548878, "tags": {"addr:city": "\u062d\u0648\u0645\u0629 \u0627\u0644\u0633\u0648\u0642", "addr:city:ar": "\u062d\u0648\u0645\u0629 \u0627\u0644\u0633\u0648\u0642", "addr:postcode": "4116", "amenity": "restaurant", "name": "\u0634\u0648\u0627\u064a\u0629 \u0627\u0644\u0632\u0645\u0648\u0631\u064a", "name:ar": "\u0634\u0648\u0627\u064a\u0629 \u0627\u0644\u0632\u0645\u0648\u0631\u064a"}}, {"type": "node", "id": 7656186297, "lat": 33.8795085, "lon": 10.8548623, "tags": {"addr:city": "\u062d\u0648\u0645\u0629 \u0627\u0644\u0633\u0648\u0642", "addr:city:ar": "\u062d\u0648\u0645\u0629 \u0627\u0644\u0633\u0648\u0642", "addr:housenumber": "18", "addr:street": "\u0646\u0647\u062c \u0627\u0628\u0646 \u062e\u0644\u062f\u0648\u0646", "addr:street:ar": "\u0646\u0647\u062c \u0627\u0628\u0646 \u062e\u0644\u062f\u0648\u0646", "alt_name": "\u0628\u064a\u0639 \u0627\u0644\u062f\u0648\u0627\u062c\u0646 \u0648 \u0645\u0634\u062a\u0642\u0627\u062a\u0647", "alt_name:ar": "\u0628\u064a\u0639 \u0627\u0644\u062f\u0648\u0627\u062c\u0646 \u0648 \u0645\u0634\u062a\u0642\u0627\u062a\u0647", "amenity": "restaurant", "name": "\u0628\u064a\u0639 \u0627\u0644\u062f\u0648\u0627\u062c\u0646 \u0648\u0645\u0634\u062a\u0642\u0627\u062a\u0647", "name:ar": "\u0628\u064a\u0639 \u0627\u0644\u062f\u0648\u0627\u062c\u0646 \u0648\u0645\u0634\u062a\u0642\u0627\u062a\u0647", "operator": "\u0636\u064a\u0639\u0629 \u0631\u064a\u0627\u0646", "operator:ar": "\u0636\u064a\u0639\u0629 \u0631\u064a\u0627\u0646"}}, {"type": "node", "id": 9568531625, "lat": 33.8867748, "lon": 10.8531817}, {"type": "node", "id": 9568531626, "lat": 33.8867669, "lon": 10.8531717}, {"type": "node", "id": 9568531627, "lat": 33.8867499, "lon": 10.8531911}, {"type": "node", "id": 9568531628, "lat": 33.8866467, "lon": 10.8530605}, {"type": "node", "id": 9568531629, "lat": 33.8866256, "lon": 10.8530847}, {"type": "node", "id": 9568531630, "lat": 33.8865455, "lon": 10.8531765}, {"type": "node", "id": 9568531631, "lat": 33.8865238, "lon": 10.853149}, {"type": "node", "id": 9568531632, "lat": 33.8864841, "lon": 10.8531944}, {"type": "node", "id": 9568531633, "lat": 33.8864369, "lon": 10.8531346}, {"type": "node", "id": 9568531634, "lat": 33.8865432, "lon": 10.8530128}, {"type": "node", "id": 9568531635, "lat": 33.8866681, "lon": 10.8528696}, {"type": "node", "id": 9568531636, "lat": 33.8868364, "lon": 10.8530828}, {"type": "node", "id": 9568531637, "lat": 33.886812, "lon": 10.8531108}, {"type": "node", "id": 9568531638, "lat": 33.8868237, "lon": 10.8531256}, {"type": "node", "id": 10059930730, "lat": 33.8742591, "lon": 10.9564431}, {"type": "node", "id": 10059930731, "lat": 33.8742877, "lon": 10.9563042}, {"type": "node", "id": 10059930732, "lat": 33.8742843, "lon": 10.95632}, {"type": "node", "id": 10059930733, "lat": 33.8741533, "lon": 10.9561675}, {"type": "node", "id": 10059930734, "lat": 33.8741072, "lon": 10.9563654}, {"type": "node", "id": 10059930735, "lat": 33.8741226, "lon": 10.9563722}, {"type": "node", "id": 10059930736, "lat": 33.8741072, "lon": 10.9564463}, {"type": "node", "id": 10059930737, "lat": 33.8742958, "lon": 10.9565039}, {"type": "node", "id": 10059930738, "lat": 33.8743476, "lon": 10.9565078}, {"type": "node", "id": 10059930739, "lat": 33.8744399, "lon": 10.9565399}, {"type": "node", "id": 10059930740, "lat": 33.874512, "lon": 10.9565487}, {"type": "node", "id": 10059930741, "lat": 33.8745492, "lon": 10.9565136}, {"type": "node", "id": 10059930742, "lat": 33.8745597, "lon": 10.9564824}, {"type": "node", "id": 10059930743, "lat": 33.8745605, "lon": 10.9564239}, {"type": "node", "id": 10059930744, "lat": 33.8745395, "lon": 10.9563713}, {"type": "node", "id": 10059930745, "lat": 33.8745233, "lon": 10.9562981}, {"type": "node", "id": 10059930746, "lat": 33.8745055, "lon": 10.9562825}, {"type": "node", "id": 10059930747, "lat": 33.8744577, "lon": 10.9562689}, {"type": "node", "id": 10059930748, "lat": 33.8743751, "lon": 10.9562416}, {"type": "node", "id": 10059930749, "lat": 33.8742885, "lon": 10.9562104}, {"type": "node", "id": 10059930750, "lat": 33.8742027, "lon": 10.956185}, {"type": "node", "id": 10815470107, "lat": 33.8780847, "lon": 10.8844849, "tags": {"addr:city": "Houmt Souk", "addr:street": "Sidi Zayed", "amenity": "cafe", "name": "Yacht Club Djerba", "phone": "+216 98 254 249", "website": "https://www.facebook.com/YachtClubDjerba/"}}, {"type": "node", "id": 10828310597, "lat": 33.8767482, "lon": 10.8590738, "tags": {"amenity": "cafe", "name": "Zaraa Cafe"}}, {"type": "node", "id": 10828641306, "lat": 33.8767117, "lon": 10.8592341, "tags": {"addr:city": "Houmt Souk", "addr:street": "Place Hedi Cheker", "amenity": "restaurant", "cuisine": "regional;mediterranean;seafood;ryby", "name": "Restaurant De L'\u00eele", "phone": "+216 75 650 651", "website": "http://restaurant-de-lile.com"}}, {"type": "node", "id": 11919963470, "lat": 33.8776491, "lon": 10.8586145, "tags": {"amenity": "restaurant", "name:en": "Chez Smayer", "name:fr": "Chez State"}}, {"type": "node", "id": 11920525169, "lat": 33.8792237, "lon": 10.8604206, "tags": {"amenity": "restaurant", "cuisine": "fish;italian", "name": "Restaurant Scilla"}}, {"type": "way", "id": 378458373, "nodes": [3818682553, 10059930732, 10059930731, 3818682548, 3818682547, 10059930730, 3818682549, 3818682550, 3818682553], "tags": {"amenity": "restaurant", "building": "yes", "cuisine": "coffee_shop;regional;fish", "name": "La Rose"}}, {"type": "way", "id": 1039043745, "nodes": [9568531638, 9568531637, 9568531636, 9568531635, 9568531634, 9568531633, 9568531632, 9568531631, 9568531630, 9568531629, 9568531628, 9568531627, 9568531626, 9568531625, 9568531638], "tags": {"addr:city": "\u062d\u0648\u0645\u0629 \u0627\u0644\u0633\u0648\u0642", "amenity": "restaurant", "building": "yes", "cuisine": "regional", "name": "\u0627\u0644\u0633\u0642\u064a\u0641\u0629", "name:ar": "\u0627\u0644\u0633\u0642\u064a\u0641\u0629", "name:en": "Skifa"}}, {"type": "way", "id": 1098702389, "nodes": [10059930733, 10059930734, 10059930735, 10059930736, 10059930737, 10059930738, 10059930739, 10059930740, 10059930741, 10059930742, 10059930743, 10059930744, 10059930745, 10059930746, 10059930747, 10059930748, 10059930749, 10059930750, 10059930733], "tags": {"amenity": "cafe", "cuisine": "regional;coffee_shop;fish_and_chips", "internet_access": "no", "name": "La Rose", "outdoor_seating": "yes"}}]}