{"version": 0.6, "generator": "Overpass API 0.7.62.7 375dc00a", "osm3s": {"timestamp_osm_base": "2025-06-14T15:14:02Z", "copyright": "The data included in this document is from www.openstreetmap.org. The data is made available under ODbL."}, "elements": [{"type": "node", "id": 4460642795, "lat": 38.7834859, "lon": 35.6081287, "tags": {"amenity": "cafe", "cuisine": "burger;sandwich;regional;international;ice_cream;crepe;cake;coffee_shop;bagel;pancake;curry;turkish;hot_dog;breakfast;savory_pancakes;tea;sausage;local;friture;fine_dining", "internet_access": "wlan", "name": "Pars Pasta & Cafe", "name:tr": "Pars Pasta & Cafe"}}, {"type": "node", "id": 5779182453, "lat": 38.7571443, "lon": 35.4833674, "tags": {"amenity": "cafe", "name": "ANNAN\u0130N YER\u0130"}}, {"type": "node", "id": 6819749520, "lat": 38.7591413, "lon": 35.4818313, "tags": {"amenity": "cafe"}}, {"type": "node", "id": 7120162593, "lat": 38.743264, "lon": 35.5434123, "tags": {"amenity": "cafe"}}, {"type": "node", "id": 7120162603, "lat": 38.7390319, "lon": 35.5397379, "tags": {"addr:city": "Kayseri", "addr:housenumber": "228", "addr:street": "Sivas Cadessi", "amenity": "restaurant", "cuisine": "kebab;regional", "name": "Bolu Mangal", "phone": "+903523333933; +905380848606", "website": "www.kayseribolumangal.com"}}, {"type": "node", "id": 7865902785, "lat": 38.765336, "lon": 35.4817118, "tags": {"amenity": "cafe", "check_date": "2023-07-30", "internet_access": "wlan", "name": "Berkel"}}, {"type": "node", "id": 9083312114, "lat": 39.1129306, "lon": 35.7031105}, {"type": "node", "id": 9083312115, "lat": 39.1130222, "lon": 35.7032953}, {"type": "node", "id": 9083312116, "lat": 39.1129386, "lon": 35.7033642}, {"type": "node", "id": 9083327317, "lat": 39.1128469, "lon": 35.7031794}, {"type": "node", "id": 10121665762, "lat": 38.7570528, "lon": 35.3700563, "tags": {"amenity": "cafe", "name": "Tatl\u0131g\u00fcl Antep baklava & b\u00f6rek"}}, {"type": "node", "id": 10307196663, "lat": 38.7828016, "lon": 35.4550116, "tags": {"amenity": "restaurant", "cuisine": "turkish", "name": "Harun \u0130skender"}}, {"type": "way", "id": 982143908, "nodes": [9083312114, 9083312115, 9083312116, 9083327317, 9083312114], "tags": {"amenity": "restaurant", "building": "yes"}}]}