{"version": 0.6, "generator": "Overpass API 0.7.62.7 375dc00a", "osm3s": {"timestamp_osm_base": "2025-06-14T15:37:30Z", "copyright": "The data included in this document is from www.openstreetmap.org. The data is made available under ODbL."}, "elements": [{"type": "node", "id": 2714414827, "lat": 21.413825, "lon": 39.728343, "tags": {"amenity": "restaurant", "fixme": "dislocated", "name:en": "Asmak Dana"}}, {"type": "node", "id": 3514822798, "lat": 21.3991514, "lon": 39.4397202}, {"type": "node", "id": 3514822799, "lat": 21.3991664, "lon": 39.4393903}, {"type": "node", "id": 3514822800, "lat": 21.3989403, "lon": 39.4393715}, {"type": "node", "id": 3514822801, "lat": 21.3989216, "lon": 39.4397041}, {"type": "node", "id": 4170617174, "lat": 21.400981, "lon": 39.7072195}, {"type": "node", "id": 4170617175, "lat": 21.4008624, "lon": 39.707377}, {"type": "node", "id": 4170617176, "lat": 21.4012463, "lon": 39.7076637}, {"type": "node", "id": 4170617177, "lat": 21.4013468, "lon": 39.707515}, {"type": "node", "id": 5573419349, "lat": 21.3984709, "lon": 39.7735913}, {"type": "node", "id": 5573419350, "lat": 21.3979446, "lon": 39.7736217}, {"type": "node", "id": 5573419351, "lat": 21.3979588, "lon": 39.7738417}, {"type": "node", "id": 5573419352, "lat": 21.3984921, "lon": 39.7738113}, {"type": "node", "id": 5573419353, "lat": 21.3979623, "lon": 39.7740655}, {"type": "node", "id": 5573419354, "lat": 21.3985097, "lon": 39.7740199}, {"type": "node", "id": 9211714703, "lat": 21.4230983, "lon": 39.7714722, "tags": {"addr:city": "\u0627\u0644\u062d\u0645\u0631\u0627\u0621\u060c\u0645\u0643\u0629\u0627\u0644\u0645\u0643\u0631\u0645\u0629", "addr:housenumber": "24321", "addr:street": "\u0634\u0627\u0631\u0639 \u0622\u0645\u0646\u0629 \u0628\u0646\u062a \u0648\u0647\u0628", "amenity": "cafe", "cuisine": "coffee_shop", "internet_access": "wlan", "internet_access:fee": "customers", "internet_access:ssid": "Lastquarter", "name": "Last Quarter Cafe", "opening_hours": "Mo-Su 08:00-23:00", "outdoor_seating": "yes", "phone": "+966544520315", "website": "https://instagram.com/las_q21?utm_medium=copy_link"}}, {"type": "node", "id": 11207372977, "lat": 21.4782237, "lon": 39.3589079, "tags": {"addr:city": "\u062c\u062f\u0647", "addr:housenumber": "123", "addr:postcode": "11222", "addr:street": "\u0637\u0631\u064a\u0642 \u0627\u0644\u0645\u0644\u0643 \u0639\u0628\u062f\u0627\u0644\u0644\u0647 \u0628\u0646 \u0639\u0628\u062f\u0627\u0644\u0639\u0632\u064a\u0632", "amenity": "cafe", "cuisine": "chocolate;coffee_shop;juice;dessert", "internet_access": "no", "name": "\u0631\u064a\u0643\u0633\u0627 \u0643\u0627\u0641\u064a\u0647", "opening_hours": "24/7", "phone": "0126556555", "website": "https://rexsacafe.com/"}}, {"type": "way", "id": 344737616, "nodes": [3514822798, 3514822799, 3514822800, 3514822801, 3514822798], "tags": {"amenity": "restaurant", "building": "yes", "cuisine": "burger,Broast_,Sandwich", "delivery": "no", "name": "\u0628\u0631\u0648\u0633\u062a \u0627\u0644\u0641\u0631\u0648\u062c - Brost Alfarroj", "takeaway": "yes"}}, {"type": "way", "id": 416269027, "nodes": [4170617174, 4170617175, 4170617176, 4170617177, 4170617174], "tags": {"amenity": "cafe", "building": "yes", "name": "\u0627\u062d\u0644\u0649 \u0627\u0644\u0627\u0648\u0642\u0627\u062a", "name:ar": "\u0627\u062d\u0644\u0649 \u0627\u0644\u0627\u0648\u0642\u0627\u062a"}}, {"type": "way", "id": 582887242, "nodes": [5573419349, 5573419350, 5573419351, 5573419352, 5573419349], "tags": {"amenity": "restaurant", "brand": "Buffalo Wild Wings", "brand:wikidata": "Q509255", "brand:wikipedia": "en:Buffalo Wild Wings", "building": "yes", "cuisine": "wings", "name": "Buffalo Wild Wings"}}, {"type": "way", "id": 582887243, "nodes": [5573419352, 5573419351, 5573419353, 5573419354, 5573419352], "tags": {"amenity": "restaurant", "building": "yes", "name": "Texas chicken"}}]}