{"version": 0.6, "generator": "Overpass API 0.7.62.7 375dc00a", "osm3s": {"timestamp_osm_base": "2025-06-14T15:26:15Z", "copyright": "The data included in this document is from www.openstreetmap.org. The data is made available under ODbL."}, "elements": [{"type": "node", "id": 2293935919, "lat": 39.6316718, "lon": 39.5005846, "tags": {"amenity": "restaurant", "name": "Zirve'de"}}, {"type": "node", "id": 5109143921, "lat": 39.74672, "lon": 39.493177, "tags": {"amenity": "cafe", "name:en": "Cafetelli"}}, {"type": "node", "id": 6599172085, "lat": 39.5864648, "lon": 39.7310248, "tags": {"amenity": "restaurant", "name": "\u015eelale Aile Restoran"}}, {"type": "node", "id": 6599172086, "lat": 39.7487569, "lon": 39.4910448, "tags": {"amenity": "restaurant", "name": "Erzincan D\u00f6ner"}}, {"type": "node", "id": 6744208446, "lat": 39.7343697, "lon": 39.6159423, "tags": {"amenity": "restaurant"}}, {"type": "node", "id": 9423200539, "lat": 39.7733759, "lon": 39.4206066, "tags": {"amenity": "restaurant", "name": "Steak House"}}, {"type": "node", "id": 9719742918, "lat": 39.7351816, "lon": 39.6153748}, {"type": "node", "id": 9719742919, "lat": 39.7352509, "lon": 39.6152835}, {"type": "node", "id": 9719742920, "lat": 39.735444, "lon": 39.6155315}, {"type": "node", "id": 9719742921, "lat": 39.7353746, "lon": 39.6156228}, {"type": "node", "id": 9732774108, "lat": 39.7198593, "lon": 39.5675155}, {"type": "node", "id": 9732774109, "lat": 39.7198574, "lon": 39.5676429}, {"type": "node", "id": 9732774112, "lat": 39.7199162, "lon": 39.5676444}, {"type": "node", "id": 9732774113, "lat": 39.7199181, "lon": 39.5675171}, {"type": "node", "id": 9806198489, "lat": 39.5903222, "lon": 39.8722266, "tags": {"amenity": "cafe"}}, {"type": "node", "id": 9935845817, "lat": 39.5901801, "lon": 39.8723763, "tags": {"amenity": "cafe"}}, {"type": "node", "id": 12453370965, "lat": 39.7584921, "lon": 39.4995371, "tags": {"addr:city": "Erzincan", "addr:district": "Merkez", "addr:housenumber": "79B", "addr:neighbourhood": "Cumhuriyet Mah.", "addr:postcode": "24002", "addr:street": "K\u0131rklar Cad.", "amenity": "cafe", "name": "Baston Cafe Bay & Bayan Oyun Salonu", "phone": "05066871124", "website": "https://www.instagram.com/bastoncafe"}}, {"type": "way", "id": 1057800446, "nodes": [9719742919, 9719742918, 9719742921, 9719742920, 9719742919], "tags": {"air_conditioning": "yes", "amenity": "restaurant", "bar": "no", "brewery": "no", "building": "yes", "delivery": "no", "diet:gluten_free": "no", "diet:halal": "yes", "diet:lactose_free": "no", "microbrewery": "no", "name": "Sakl\u0131 Bah\u00e7e Restaurant", "outdoor_seating": "yes", "reservation": "recommended", "smoking": "outside", "wheelchair": "limited"}}, {"type": "way", "id": 1059299047, "nodes": [9732774113, 9732774108, 9732774109, 9732774112, 9732774113], "tags": {"amenity": "cafe", "building": "yes", "name": "Akyaz\u0131 Opet Cafe"}}]}