{"version": 0.6, "generator": "Overpass API 0.7.62.7 375dc00a", "osm3s": {"timestamp_osm_base": "2025-06-14T13:54:29Z", "copyright": "The data included in this document is from www.openstreetmap.org. The data is made available under ODbL."}, "elements": [{"type": "node", "id": 3665761304, "lat": 38.5611863, "lon": 14.5811505, "tags": {"amenity": "restaurant", "cuisine": "italian", "name": "Da Nino sul mare", "phone": "+39 090 9889984", "wheelchair": "yes"}}, {"type": "node", "id": 3665761305, "lat": 38.5604566, "lon": 14.582084, "tags": {"amenity": "restaurant", "cuisine": "italian", "name": "Hippocampus", "phone": "+39 090 9889088"}}, {"type": "node", "id": 3665863351, "lat": 38.5590562, "lon": 14.565038, "tags": {"amenity": "restaurant", "capacity": "50", "cuisine": "italian", "name": "La Sirena", "phone": "+39 090 9889997", "wheelchair": "no"}}, {"type": "node", "id": 3665863353, "lat": 38.5622557, "lon": 14.5775224, "tags": {"amenity": "restaurant", "cuisine": "italian", "name": "Villa La Rosa", "phone": "+39 090 9889965"}}, {"type": "node", "id": 4220361023, "lat": 38.5621985, "lon": 14.5780612, "tags": {"amenity": "restaurant", "cuisine": "italian", "name": "La Canna", "wheelchair": "no"}}, {"type": "node", "id": 5781898864, "lat": 38.5591829, "lon": 14.565481, "tags": {"addr:city": "Lipari", "addr:postcode": "98050", "amenity": "restaurant", "cuisine": "regional", "description": "E' un fast food di pesce . E' nella localit\u00e0   \nPecorini a Mare , nell'isola di Filicudi . ", "name": "La Scofgliera"}}, {"type": "node", "id": 12841683601, "lat": 38.5330635, "lon": 14.360139, "tags": {"addr:street": "Via Perciato", "amenity": "restaurant", "name": "L\u2019Airone"}}]}