{"version": 0.6, "generator": "Overpass API 0.7.62.7 375dc00a", "osm3s": {"timestamp_osm_base": "2025-06-14T14:33:06Z", "copyright": "The data included in this document is from www.openstreetmap.org. The data is made available under ODbL."}, "elements": [{"type": "node", "id": 493925448, "lat": 39.5866601, "lon": 19.9139534, "tags": {"amenity": "restaurant", "name": "Ninos Restaurant"}}, {"type": "node", "id": 493925449, "lat": 39.5822971, "lon": 19.9134538, "tags": {"amenity": "restaurant", "name": "Taverne Alkinos"}}, {"type": "node", "id": 534607973, "lat": 39.6251555, "lon": 19.9238208, "tags": {"amenity": "cafe", "name": "Cafe Bar 92"}}, {"type": "node", "id": 760506570, "lat": 39.5014676, "lon": 19.8529678, "tags": {"addr:city": "Corfu", "addr:postcode": "49084", "addr:street": "Paramonas Beach", "amenity": "restaurant", "capacity": "80", "cuisine": "greek", "name": "Sunset", "opening_hours": "11:00-23:00", "phone": "00302661075149", "smoking": "outside", "takeaway": "yes"}}, {"type": "node", "id": 761130024, "lat": 39.5455128, "lon": 19.8504497, "tags": {"amenity": "restaurant", "name": "Sabbia"}}, {"type": "node", "id": 761130030, "lat": 39.5463005, "lon": 19.8500343, "tags": {"amenity": "restaurant", "name": "Dandidis"}}, {"type": "node", "id": 761130031, "lat": 39.5469867, "lon": 19.852796, "tags": {"amenity": "restaurant", "name": "Alexis's Restaurant"}}, {"type": "node", "id": 761130035, "lat": 39.544542, "lon": 19.8506953, "tags": {"amenity": "restaurant", "cuisine": "greek", "name": "Elena's Taverna", "website": "https://elenasapartments.com/restaurant/"}}, {"type": "node", "id": 761130040, "lat": 39.5443857, "lon": 19.8506975, "tags": {"amenity": "restaurant", "cuisine": "greek", "name": "Tavernaki Green Stone", "website": "https://tavernaki-green-stone.business.site/"}}, {"type": "node", "id": 761130044, "lat": 39.5450115, "lon": 19.8506528, "tags": {"amenity": "restaurant", "cuisine": "italian;greek", "email": "info@seabreezecorfu.gr", "fax": "(+30) 26610 53744", "name": "See Breeze", "phone": "(+30) 26610 53214", "tourism": "hotel", "website": "https://www.seabreezecorfu.com/"}}, {"type": "node", "id": 761130046, "lat": 39.5468398, "lon": 19.8519244, "tags": {"amenity": "restaurant", "name": "Linda's Restaurant"}}, {"type": "node", "id": 761130050, "lat": 39.547212, "lon": 19.8496692, "tags": {"amenity": "restaurant", "name": "Skal"}}, {"type": "node", "id": 761130055, "lat": 39.5470348, "lon": 19.8516893, "tags": {"amenity": "restaurant", "name": "La Tabernita Mexicana", "opening_hours": "closed"}}, {"type": "node", "id": 761130061, "lat": 39.5464694, "lon": 19.8500291, "tags": {"amenity": "restaurant", "name": "Taverna Romantica"}}, {"type": "node", "id": 761130071, "lat": 39.5468359, "lon": 19.8513496, "tags": {"amenity": "cafe", "internet_access": "yes", "internet_access:fee": "no", "name": "Time Out", "note": "free internet access", "opening_hours": "closed"}}, {"type": "node", "id": 761130076, "lat": 39.5477955, "lon": 19.8492159, "tags": {"amenity": "restaurant", "name": "Alo Bar"}}, {"type": "node", "id": 761130077, "lat": 39.5470238, "lon": 19.8520157, "tags": {"amenity": "restaurant", "name": "Delphi"}}, {"type": "node", "id": 761130090, "lat": 39.5451709, "lon": 19.8506188, "tags": {"amenity": "restaurant", "name": "Thalassa"}}, {"type": "node", "id": 762520818, "lat": 39.5915116, "lon": 19.9175759, "tags": {"amenity": "cafe", "name": "Ma Cocotte"}}, {"type": "node", "id": 762536334, "lat": 39.6152844, "lon": 19.8428629, "tags": {"amenity": "cafe", "name": "Spider Cafe"}}, {"type": "node", "id": 763208311, "lat": 39.5436995, "lon": 19.8508365, "tags": {"amenity": "restaurant", "name": "Ortholiti", "opening_hours": "Mo-Su 09:00-00:00", "phone": "+30 2661 774770"}}, {"type": "node", "id": 764418560, "lat": 39.5924198, "lon": 19.8207919, "tags": {"amenity": "restaurant", "name": "Alexandros", "website": "https://www.alexandrospelekas.com"}}, {"type": "node", "id": 764418568, "lat": 39.591869, "lon": 19.8217353, "tags": {"amenity": "cafe", "name": "O Foros"}}, {"type": "node", "id": 764418570, "lat": 39.5914178, "lon": 19.8218416, "tags": {"amenity": "restaurant", "name": "Roula's Taverna"}}, {"type": "node", "id": 764418573, "lat": 39.5919459, "lon": 19.8220493, "tags": {"amenity": "cafe", "name": "Pelekas Cafe"}}, {"type": "node", "id": 764418574, "lat": 39.5917069, "lon": 19.8219275, "tags": {"air_conditioning": "no", "amenity": "restaurant", "name": "Agnes", "outdoor_seating": "yes", "wheelchair": "no"}}, {"type": "node", "id": 764418576, "lat": 39.5921907, "lon": 19.8210585, "tags": {"amenity": "restaurant", "name": "Jimmy's"}}, {"type": "node", "id": 764418577, "lat": 39.5918652, "lon": 19.8210025, "tags": {"amenity": "restaurant", "name": "Antonis"}}, {"type": "node", "id": 827255038, "lat": 39.4261024, "lon": 19.9447421, "tags": {"amenity": "restaurant", "name": "Panorama"}}, {"type": "node", "id": 827255041, "lat": 39.4270301, "lon": 19.9438746, "tags": {"amenity": "restaurant", "cuisine": "crepe", "name": "Cosy Finger Food Bar"}}, {"type": "node", "id": 827255045, "lat": 39.4256503, "lon": 19.9488607, "tags": {"amenity": "restaurant", "cuisine": "italian", "name": "Il Mare"}}, {"type": "node", "id": 827255047, "lat": 39.4257926, "lon": 19.9463361, "tags": {"amenity": "restaurant", "cuisine": "greek", "name": "Sea Gulls"}}, {"type": "node", "id": 828707176, "lat": 39.4274229, "lon": 19.9437372, "tags": {"amenity": "restaurant", "cuisine": "greek", "name": "Balcony"}}, {"type": "node", "id": 859337580, "lat": 39.4071113, "lon": 20.2405288, "tags": {"amenity": "restaurant", "cuisine": "greek", "name": "Mediterraneo"}}, {"type": "node", "id": 913247689, "lat": 39.4921158, "lon": 20.2641337, "tags": {"amenity": "cafe", "name": "Verde"}}, {"type": "node", "id": 929657285, "lat": 39.6216522, "lon": 19.9227405, "tags": {"amenity": "restaurant"}}, {"type": "node", "id": 929657290, "lat": 39.6219077, "lon": 19.9227486, "tags": {"amenity": "restaurant"}}, {"type": "node", "id": 929657294, "lat": 39.6212582, "lon": 19.9228929, "tags": {"amenity": "restaurant"}}, {"type": "node", "id": 939128971, "lat": 39.6273211, "lon": 19.9149379, "tags": {"amenity": "restaurant", "name": "Stathis"}}, {"type": "node", "id": 1092649950, "lat": 39.6101577, "lon": 19.9279318}, {"type": "node", "id": 1092650124, "lat": 39.6101635, "lon": 19.927819}, {"type": "node", "id": 1092650734, "lat": 39.6103378, "lon": 19.9279474}, {"type": "node", "id": 1092651396, "lat": 39.6103436, "lon": 19.9278346}, {"type": "node", "id": 1135370455, "lat": 39.6392198, "lon": 19.9235321}, {"type": "node", "id": 1135370456, "lat": 39.6392366, "lon": 19.9237565}, {"type": "node", "id": 1135370457, "lat": 39.6393815, "lon": 19.9237382}, {"type": "node", "id": 1135370458, "lat": 39.6393768, "lon": 19.9236746}, {"type": "node", "id": 1135370459, "lat": 39.6394604, "lon": 19.9236641}, {"type": "node", "id": 1135370460, "lat": 39.6394537, "lon": 19.9235755}, {"type": "node", "id": 1135370461, "lat": 39.6393727, "lon": 19.9235857}, {"type": "node", "id": 1135370462, "lat": 39.6393672, "lon": 19.9235134}, {"type": "node", "id": 1269193728, "lat": 39.4233324, "lon": 20.0728544, "tags": {"amenity": "restaurant", "cuisine": "greek", "name": "\u03a3\u03c4\u03b7\u03bd \u03c0\u03bb\u03b1\u03c4\u03b5\u03af\u03b1", "name:el": "\u03a3\u03c4\u03b7\u03bd \u03c0\u03bb\u03b1\u03c4\u03b5\u03af\u03b1", "name:en": "Stin Platia"}}, {"type": "node", "id": 1269193731, "lat": 39.4108024, "lon": 20.0713968, "tags": {"amenity": "cafe", "name": "Cube Bistrot Coffee Bar", "phone": "+302662024967"}}, {"type": "node", "id": 1269193741, "lat": 39.4234046, "lon": 20.0624218, "tags": {"amenity": "cafe", "int_name": "Mikro Cafe Espresso Bar", "name": "\u039c\u03b9\u03ba\u03c1\u03cc Cafe Espresso Bar"}}, {"type": "node", "id": 1269193743, "lat": 39.4223889, "lon": 20.0584574, "tags": {"amenity": "cafe", "int_name": "O Katsotas", "name": "\u039f \u039a\u03b1\u03c4\u03c3\u03ce\u03c4\u03b1\u03c2", "name:el": "\u039f \u039a\u03b1\u03c4\u03c3\u03ce\u03c4\u03b1\u03c2"}}, {"type": "node", "id": 1306075133, "lat": 39.4540332, "lon": 20.001782, "tags": {"addr:city": "Petriti", "amenity": "restaurant", "cuisine": "greek", "name": "Taverna Leonidas", "website": "https://tavernapetriti.wordpress.com/"}}, {"type": "node", "id": 1339597373, "lat": 39.6460496, "lon": 19.8504181, "tags": {"amenity": "restaurant", "name": "Bistro Boileau"}}, {"type": "node", "id": 1339783269, "lat": 39.4520131, "lon": 20.2767819, "tags": {"amenity": "restaurant", "name": "Olga's"}}, {"type": "node", "id": 1340038276, "lat": 39.6242585, "lon": 19.9285626, "tags": {"amenity": "restaurant", "int_name": "Corfu Sailing Club", "name": "\u0399\u03c3\u03c4\u03b9\u03bf\u03c0\u03bb\u03bf\u03ca\u03ba\u03cc\u03c2 \u038c\u03bc\u03b9\u03bb\u03bf\u03c2 \u039a\u03b5\u03c1\u03ba\u03cd\u03c1\u03b1\u03c2"}}, {"type": "node", "id": 1359295588, "lat": 39.5085386, "lon": 19.9092598, "tags": {"amenity": "restaurant", "indoor_seating": "yes", "name:de": "Spiros", "name:en": "Spiros", "outdoor_seating": "yes"}}, {"type": "node", "id": 1361204536, "lat": 39.5655224, "lon": 19.8482242, "tags": {"amenity": "cafe", "name": "\u03a3\u03b9\u03bd\u03b1\u03c1\u03ac\u03b4\u03b5\u03c2", "outdoor_seating": "yes"}}, {"type": "node", "id": 1361204557, "lat": 39.5657147, "lon": 19.8486172, "tags": {"amenity": "restaurant", "internet_access": "wlan", "name": "Apxontapiki", "tourism": "apartment"}}, {"type": "node", "id": 1361205842, "lat": 39.5648214, "lon": 19.8393422, "tags": {"amenity": "restaurant", "int_name": "Aerostato", "name": "\u0391\u03b5\u03c1\u03cc\u03c3\u03c4\u03b1\u03c4\u03bf"}}, {"type": "node", "id": 1361225561, "lat": 39.5971942, "lon": 19.795775}, {"type": "node", "id": 1421020673, "lat": 39.4774061, "lon": 19.8852069}, {"type": "node", "id": 1421074304, "lat": 39.4543796, "lon": 19.9564521, "tags": {"amenity": "restaurant", "name": "Sirtaki"}}, {"type": "node", "id": 1421074306, "lat": 39.4561524, "lon": 19.877166, "tags": {"amenity": "restaurant", "name": "Nikolas"}}, {"type": "node", "id": 1421199983, "lat": 39.455792, "lon": 19.956766, "tags": {"amenity": "restaurant"}}, {"type": "node", "id": 1421199986, "lat": 39.4563388, "lon": 19.9576806, "tags": {"amenity": "cafe"}}, {"type": "node", "id": 1424312522, "lat": 39.5918318, "lon": 19.91713, "tags": {"amenity": "cafe", "name": "Cafe Royal"}}, {"type": "node", "id": 1424312523, "lat": 39.5915545, "lon": 19.9173603, "tags": {"amenity": "cafe", "name": "Kanoni", "phone": "+30 693 680 5330", "website": "http://www.cafekanoni.gr/"}}, {"type": "node", "id": 1424565155, "lat": 39.4286515, "lon": 19.9412742, "tags": {"amenity": "cafe", "name": "Harley Cafe", "wheelchair": "yes"}}, {"type": "node", "id": 1424565157, "lat": 39.4280843, "lon": 19.9415837, "tags": {"amenity": "restaurant", "name": "Akvila Travel Company", "opening_hours": "Mo-Su 10:00-22:00"}}, {"type": "node", "id": 1425859534, "lat": 39.6256013, "lon": 19.9251749, "tags": {"amenity": "cafe", "name": "Art Cafe"}}, {"type": "node", "id": 1426472052, "lat": 39.5520542, "lon": 19.8623446, "tags": {"amenity": "restaurant", "name": "Golden View"}}, {"type": "node", "id": 1426478380, "lat": 39.5939266, "lon": 19.8208973, "tags": {"amenity": "restaurant", "name": "Sunset"}}, {"type": "node", "id": 1435560705, "lat": 39.5121353, "lon": 20.2187687, "tags": {"amenity": "cafe", "name": "Barbarrossa"}}, {"type": "node", "id": 1435561650, "lat": 39.5154115, "lon": 20.2100796, "tags": {"amenity": "cafe"}}, {"type": "node", "id": 1491155959, "lat": 39.6078956, "lon": 19.9142948, "tags": {"amenity": "cafe"}}, {"type": "node", "id": 1782477091, "lat": 39.4641411, "lon": 19.9391846, "tags": {"amenity": "restaurant", "name": "75 steps", "phone": "+30 26610750028"}}, {"type": "node", "id": 1842855350, "lat": 39.4142515, "lon": 20.0960574, "tags": {"amenity": "cafe", "name": "Clepsydra"}}, {"type": "node", "id": 1943275973, "lat": 39.5005444, "lon": 19.8528731, "tags": {"amenity": "restaurant", "cuisine": "greek", "name": "Taverna Plori"}}, {"type": "node", "id": 1968743846, "lat": 39.4224922, "lon": 20.0623048, "tags": {"amenity": "cafe", "name": "Central Cafe"}}, {"type": "node", "id": 1968743850, "lat": 39.4233883, "lon": 20.0637454, "tags": {"amenity": "cafe", "name": "Delsol Cafe Bar"}}, {"type": "node", "id": 1968743856, "lat": 39.4233742, "lon": 20.0639087, "tags": {"amenity": "restaurant", "cuisine": "greek;meze;grill", "int_name": "Methistanes", "name": "\u039c\u03b5\u03b8\u03c5\u03c3\u03c4\u03ac\u03bd\u03b5\u03c2"}}, {"type": "node", "id": 1968743859, "lat": 39.4230682, "lon": 20.0627656, "tags": {"amenity": "cafe", "int_name": "Neon", "name": "\u039d\u03ad\u03bf\u03bd"}}, {"type": "node", "id": 1968743862, "lat": 39.4240673, "lon": 20.0641254, "tags": {"amenity": "restaurant", "cuisine": "pizza", "name": "Venus", "phone": "+302662022210"}}, {"type": "node", "id": 1983916879, "lat": 39.4073377, "lon": 20.2393141, "tags": {"amenity": "cafe", "name": "Bamboo"}}, {"type": "node", "id": 1983916884, "lat": 39.407146, "lon": 20.2392315, "tags": {"amenity": "restaurant", "cuisine": "greek", "name": "Georgeos"}}, {"type": "node", "id": 1983916895, "lat": 39.4072498, "lon": 20.2392694, "tags": {"amenity": "restaurant", "cuisine": "greek", "name": "O Faros"}}, {"type": "node", "id": 1983916900, "lat": 39.4091491, "lon": 20.2393462, "tags": {"amenity": "restaurant", "cuisine": "greek", "name": "Porto Greco"}}, {"type": "node", "id": 1983916911, "lat": 39.4069536, "lon": 20.2392349, "tags": {"amenity": "restaurant", "cuisine": "greek", "name": "Trehantiri"}}, {"type": "node", "id": 1993289443, "lat": 39.5425921, "lon": 19.8692167, "tags": {"amenity": "restaurant", "cuisine": "greek", "name": "Manelouzou"}}, {"type": "node", "id": 2013930014, "lat": 39.4228716, "lon": 20.0719599, "tags": {"amenity": "cafe", "name": "Cafe 7 Bistro"}}, {"type": "node", "id": 2015895208, "lat": 39.4234175, "lon": 20.0634772, "tags": {"amenity": "cafe", "name": "Mersedes"}}, {"type": "node", "id": 2083125945, "lat": 39.4233275, "lon": 20.0625333, "tags": {"amenity": "cafe"}}, {"type": "node", "id": 2096363912, "lat": 39.3946307, "lon": 20.022281}, {"type": "node", "id": 2096363915, "lat": 39.3946562, "lon": 20.022095}, {"type": "node", "id": 2096363917, "lat": 39.3947031, "lon": 20.0218604}, {"type": "node", "id": 2096363918, "lat": 39.3947069, "lon": 20.0222457}, {"type": "node", "id": 2096363920, "lat": 39.3947274, "lon": 20.022111}, {"type": "node", "id": 2096363922, "lat": 39.3947519, "lon": 20.0221165}, {"type": "node", "id": 2096363924, "lat": 39.3947544, "lon": 20.0223181}, {"type": "node", "id": 2096363925, "lat": 39.3947641, "lon": 20.0222608}, {"type": "node", "id": 2096363926, "lat": 39.3947942, "lon": 20.0219485}, {"type": "node", "id": 2100621337, "lat": 39.3896803, "lon": 20.0668027, "tags": {"amenity": "cafe", "name": "Albatros"}}, {"type": "node", "id": 2100621339, "lat": 39.3902931, "lon": 20.0671181, "tags": {"amenity": "cafe", "name": "\u03a4\u03bf \u039a\u03bf\u03c5\u03c4\u03bf\u03cd\u03ba\u03b9", "name:el": "\u03a4\u03bf \u039a\u03bf\u03c5\u03c4\u03bf\u03cd\u03ba\u03b9", "name:en": "Koutouki"}}, {"type": "node", "id": 2100621341, "lat": 39.3931472, "lon": 20.0706467, "tags": {"amenity": "cafe", "name": "\u03a4\u03bf \u03a0\u03ad\u03c1\u03b1\u03c3\u03bc\u03b1", "name:el": "\u03a4\u03bf \u03a0\u03ad\u03c1\u03b1\u03c3\u03bc\u03b1", "name:en": "Perasma"}}, {"type": "node", "id": 2100621465, "lat": 39.388751, "lon": 20.0659027}, {"type": "node", "id": 2100621466, "lat": 39.3887873, "lon": 20.0660052}, {"type": "node", "id": 2100621467, "lat": 39.3888278, "lon": 20.0658573}, {"type": "node", "id": 2100621468, "lat": 39.3888641, "lon": 20.0659597}, {"type": "node", "id": 2111969836, "lat": 39.4229969, "lon": 20.0727897, "tags": {"amenity": "cafe"}}, {"type": "node", "id": 2178497191, "lat": 39.4064366, "lon": 20.2384892, "tags": {"amenity": "restaurant", "cuisine": "greek"}}, {"type": "node", "id": 2178497198, "lat": 39.4066079, "lon": 20.2496951, "tags": {"amenity": "restaurant", "cuisine": "greek"}}, {"type": "node", "id": 2178497226, "lat": 39.4071314, "lon": 20.2477578, "tags": {"amenity": "cafe"}}, {"type": "node", "id": 2287028665, "lat": 39.457065, "lon": 19.869874, "tags": {"amenity": "restaurant", "cuisine": "greek;barbecue", "indoor_seating": "yes", "internet_access": "wlan", "name": "Alonaki Bay View", "outdoor_seating": "yes"}}, {"type": "node", "id": 2287079704, "lat": 39.5343962, "lon": 19.8479717, "tags": {"amenity": "restaurant", "cuisine": "fish", "name": "Angela Rest"}}, {"type": "node", "id": 2288402193, "lat": 39.4788662, "lon": 19.8604866, "tags": {"amenity": "restaurant", "name": "Prasoudi Meze"}}, {"type": "node", "id": 2292348017, "lat": 39.518199, "lon": 19.9238734, "tags": {"amenity": "restaurant", "cuisine": "fish", "name": "Local Ouside"}}, {"type": "node", "id": 2292397237, "lat": 39.4689894, "lon": 19.8874336, "tags": {"amenity": "restaurant", "cuisine": "greek;pizza", "email": "thefarmcorfu@hotmail.com", "name": "Lamb Restaurant", "name:el": "The Farm", "name:en": "The Farm", "phone": "+302661022044"}}, {"type": "node", "id": 2292401718, "lat": 39.459769, "lon": 19.9800115, "tags": {"amenity": "restaurant", "cuisine": "fish", "name": "Inside and Terrace"}}, {"type": "node", "id": 2296357842, "lat": 39.6208675, "lon": 19.9246188, "tags": {"amenity": "restaurant", "name": "Beach Bar"}}, {"type": "node", "id": 2297992803, "lat": 39.4468178, "lon": 20.0049937, "tags": {"amenity": "restaurant", "check_date": "2023-06-18", "contact:facebook": "https://www.facebook.com/panorama.vagias", "contact:youtube": "https://www.youtube.com/channel/UClegQiXO-4T3p5VyucuGJ-A", "cuisine": "greek", "email": "panoramacorfu@hotmail.com", "internet_access": "wlan", "internet_access:fee": "customers", "internet_access:ssid": "Panorama Restaurant", "mobile": "+30 6977715892", "name": "Panorama", "name:cs": "u Anglicanky", "outdoor_seating": "yes", "payment:mastercard": "yes", "payment:visa": "yes", "phone": "+30 2662 051612", "toilets": "yes", "toilets:wheelchair": "no", "website": "https://www.panoramacorfu.gr/restaurant/", "wheelchair": "no"}}, {"type": "node", "id": 2299201191, "lat": 39.623176, "lon": 19.9284966}, {"type": "node", "id": 2299201203, "lat": 39.6231074, "lon": 19.9285664}, {"type": "node", "id": 2299201217, "lat": 39.6230702, "lon": 19.9284512}, {"type": "node", "id": 2299201219, "lat": 39.6230474, "lon": 19.9285407}, {"type": "node", "id": 2368135179, "lat": 39.477466, "lon": 19.8851263}, {"type": "node", "id": 2368135180, "lat": 39.4774536, "lon": 19.8852661}, {"type": "node", "id": 2368135186, "lat": 39.4775135, "lon": 19.8851855}, {"type": "node", "id": 2429791307, "lat": 39.4840343, "lon": 19.9248093, "tags": {"amenity": "restaurant", "check_date:opening_hours": "2023-08-23", "cuisine": "greek;barbecue", "name": "Enjoy Fast Food", "opening_hours:signed": "no"}}, {"type": "node", "id": 2457650963, "lat": 39.2346953, "lon": 20.1353589, "tags": {"amenity": "restaurant", "name": "Taverna Nionios"}}, {"type": "node", "id": 2642478066, "lat": 39.2055207, "lon": 20.1435555, "tags": {"amenity": "restaurant", "name": "\u0395\u03c1\u03b7\u03bc\u03af\u03c4\u03b7\u03c2"}}, {"type": "node", "id": 2835288619, "lat": 39.4353398, "lon": 20.0140985, "tags": {"amenity": "restaurant", "cuisine": "regional", "name": "Tavern Aristo"}}, {"type": "node", "id": 2891558719, "lat": 39.5095978, "lon": 20.221351}, {"type": "node", "id": 2891558720, "lat": 39.5096428, "lon": 20.2215078}, {"type": "node", "id": 2891558722, "lat": 39.5098466, "lon": 20.2212312}, {"type": "node", "id": 2891558725, "lat": 39.5098915, "lon": 20.2213879}, {"type": "node", "id": 2892769314, "lat": 39.5469869, "lon": 19.8531529, "tags": {"amenity": "restaurant", "name": "Sebastian's"}}, {"type": "node", "id": 2914235250, "lat": 39.4754431, "lon": 19.9342774, "tags": {"amenity": "restaurant", "name": "Anna's Garden"}}, {"type": "node", "id": 2914235252, "lat": 39.4753551, "lon": 19.9346895, "tags": {"amenity": "restaurant", "name": "The Stars"}}, {"type": "node", "id": 2914410841, "lat": 39.4765432, "lon": 19.9291016, "tags": {"amenity": "cafe", "name": "Palla"}}, {"type": "node", "id": 2914410900, "lat": 39.4764028, "lon": 19.9292933, "tags": {"amenity": "cafe", "name": "Kokos"}}, {"type": "node", "id": 2914522618, "lat": 39.4802745, "lon": 19.9254592, "tags": {"amenity": "cafe", "check_date:opening_hours": "2023-08-27", "name": "La Nuit", "opening_hours:signed": "no"}}, {"type": "node", "id": 2914522620, "lat": 39.4795276, "lon": 19.9264438, "tags": {"amenity": "cafe", "check_date:opening_hours": "2023-08-27", "name": "Maksim's", "opening_hours:signed": "no"}}, {"type": "node", "id": 2914522623, "lat": 39.4803296, "lon": 19.9253738, "tags": {"amenity": "restaurant", "check_date:opening_hours": "2023-08-27", "name": "Steki", "opening_hours:signed": "no"}}, {"type": "node", "id": 2914522625, "lat": 39.4784193, "lon": 19.9277596, "tags": {"amenity": "restaurant", "cuisine": "greek", "name": "The Three Sisters"}}, {"type": "node", "id": 2914616578, "lat": 39.4748699, "lon": 19.9335499, "tags": {"amenity": "restaurant", "check_date:opening_hours": "2023-08-22", "cuisine": "greek", "internet_access": "wlan", "name": "Minore Taverna", "opening_hours:signed": "no"}}, {"type": "node", "id": 2914669390, "lat": 39.4697447, "lon": 19.9427889}, {"type": "node", "id": 2914669391, "lat": 39.4697675, "lon": 19.9426863}, {"type": "node", "id": 2914669398, "lat": 39.4698535, "lon": 19.9428296}, {"type": "node", "id": 2914669399, "lat": 39.4698576, "lon": 19.9428112}, {"type": "node", "id": 2914669605, "lat": 39.4699135, "lon": 19.9428322}, {"type": "node", "id": 2914669607, "lat": 39.4699323, "lon": 19.9427479}, {"type": "node", "id": 2917243556, "lat": 39.4774993, "lon": 19.9255204, "tags": {"amenity": "cafe", "check_date:opening_hours": "2023-08-25", "name": "Billy's", "opening_hours:signed": "no"}}, {"type": "node", "id": 2917497070, "lat": 39.4773394, "lon": 19.9152009, "tags": {"amenity": "cafe"}}, {"type": "node", "id": 2917644124, "lat": 39.4750287, "lon": 19.9119456, "tags": {"amenity": "cafe"}}, {"type": "node", "id": 2917915123, "lat": 39.4723485, "lon": 19.9109616, "tags": {"amenity": "cafe"}}, {"type": "node", "id": 2918019885, "lat": 39.4812411, "lon": 19.9248345, "tags": {"amenity": "restaurant", "check_date:opening_hours": "2023-08-27", "cuisine": "italian", "name": "Pizzeria Sul Posto", "opening_hours:signed": "no"}}, {"type": "node", "id": 2918019886, "lat": 39.4810399, "lon": 19.9245692, "tags": {"amenity": "cafe", "name": "Rani's"}}, {"type": "node", "id": 2935876422, "lat": 39.4757185, "lon": 19.8856967}, {"type": "node", "id": 2935876427, "lat": 39.4758087, "lon": 19.8856522}, {"type": "node", "id": 2935876429, "lat": 39.4758538, "lon": 19.8858057}, {"type": "node", "id": 2951442195, "lat": 39.5469665, "lon": 19.8529341, "tags": {"amenity": "cafe", "name": "Kalimera"}}, {"type": "node", "id": 2953151789, "lat": 39.5451023, "lon": 19.8540596}, {"type": "node", "id": 2953151790, "lat": 39.5451069, "lon": 19.8539963}, {"type": "node", "id": 2953151795, "lat": 39.5451301, "lon": 19.8539991}, {"type": "node", "id": 2953151797, "lat": 39.5451452, "lon": 19.8537901}, {"type": "node", "id": 2953151799, "lat": 39.5451936, "lon": 19.8540707}, {"type": "node", "id": 2953151800, "lat": 39.545195, "lon": 19.8540508}, {"type": "node", "id": 2953151802, "lat": 39.5453068, "lon": 19.8540643}, {"type": "node", "id": 2953151804, "lat": 39.545325, "lon": 19.8538119}, {"type": "node", "id": 2953803783, "lat": 39.5469687, "lon": 19.850843}, {"type": "node", "id": 2953803785, "lat": 39.5470943, "lon": 19.8510049}, {"type": "node", "id": 2953803787, "lat": 39.547107, "lon": 19.8508654}, {"type": "node", "id": 2953972060, "lat": 39.5467933, "lon": 19.8498749}, {"type": "node", "id": 2953972061, "lat": 39.5468255, "lon": 19.8499232}, {"type": "node", "id": 2976081200, "lat": 39.2866493, "lon": 20.3401214, "tags": {"amenity": "restaurant", "cuisine": "greek"}}, {"type": "node", "id": 2976081202, "lat": 39.2882249, "lon": 20.3389989, "tags": {"amenity": "restaurant", "cuisine": "greek", "name": "\u0395\u03c3\u03c4\u03b9\u03b1\u03c4\u03cc\u03c1\u03b9\u03bf \u0391\u03b3\u03ba\u03ac\u03bb\u03b7", "name:de": "Agali", "name:el": "\u0395\u03c3\u03c4\u03b9\u03b1\u03c4\u03cc\u03c1\u03b9\u03bf \u0391\u03b3\u03ba\u03ac\u03bb\u03b7", "name:en": "Agali", "name:fr": "Agali", "name:it": "Agali"}}, {"type": "node", "id": 3014148681, "lat": 39.6157836, "lon": 19.8484966, "tags": {"amenity": "restaurant", "cuisine": "greek", "name": "Kosta's Taverna", "source": "Own observation; GPS"}}, {"type": "node", "id": 3040693811, "lat": 39.6213225, "lon": 19.9185562, "tags": {"amenity": "cafe", "name": "Coconela"}}, {"type": "node", "id": 3040693812, "lat": 39.6214075, "lon": 19.9188791, "tags": {"amenity": "cafe"}}, {"type": "node", "id": 3040693813, "lat": 39.6215534, "lon": 19.9188062, "tags": {"amenity": "cafe", "internet_access": "wlan", "internet_access:fee": "no", "name": "Deseo"}}, {"type": "node", "id": 3084727735, "lat": 39.4276953, "lon": 19.9423407, "tags": {"amenity": "restaurant", "cuisine": "greek", "name": "Oceano"}}, {"type": "node", "id": 3089697687, "lat": 39.4473057, "lon": 20.0047463, "tags": {"amenity": "restaurant", "cuisine": "greek", "name": "Electra's garden"}}, {"type": "node", "id": 3089709665, "lat": 39.4210513, "lon": 20.0785351, "tags": {"amenity": "cafe", "bar": "yes", "contact:facebook": "https://www.facebook.com/Laverandapotami", "food": "yes", "indoor_seating": "yes", "name": "La Veranda", "outdoor_seating": "yes", "phone": "+30 2662 023814"}}, {"type": "node", "id": 3097520754, "lat": 39.622878, "lon": 19.9198995, "tags": {"amenity": "cafe", "internet_access": "wlan", "internet_access:fee": "no", "name": "Coffeeway", "phone": "2661042162"}}, {"type": "node", "id": 3097524399, "lat": 39.6232636, "lon": 19.9207868, "tags": {"amenity": "cafe", "internet_access": "wlan", "internet_access:fee": "no", "name": "Earth cafe"}}, {"type": "node", "id": 3100647197, "lat": 39.4261824, "lon": 19.9451562, "tags": {"amenity": "restaurant", "cuisine": "pizza", "name": "Alex"}}, {"type": "node", "id": 3100647198, "lat": 39.4260984, "lon": 19.9448678, "tags": {"amenity": "restaurant", "cuisine": "sandwich", "name": "Evergreen Casual Food Bar", "opening_hours": "24/7"}}, {"type": "node", "id": 3100647200, "lat": 39.4279021, "lon": 19.9419545, "tags": {"amenity": "restaurant", "name": "San Carlos"}}, {"type": "node", "id": 3100647396, "lat": 39.4271245, "lon": 19.9429683}, {"type": "node", "id": 3100647398, "lat": 39.4272858, "lon": 19.9429633}, {"type": "node", "id": 3100647400, "lat": 39.4272553, "lon": 19.9434757}, {"type": "node", "id": 3100647401, "lat": 39.4273054, "lon": 19.9429796}, {"type": "node", "id": 3100647405, "lat": 39.4273221, "lon": 19.9428904}, {"type": "node", "id": 3100647409, "lat": 39.427275, "lon": 19.9432501}, {"type": "node", "id": 3100647411, "lat": 39.4273208, "lon": 19.9433114}, {"type": "node", "id": 3100647418, "lat": 39.4273616, "lon": 19.9435468}, {"type": "node", "id": 3100647425, "lat": 39.4274565, "lon": 19.9430023}, {"type": "node", "id": 3100647427, "lat": 39.4274272, "lon": 19.9433826}, {"type": "node", "id": 3100647631, "lat": 39.4368873, "lon": 19.9352639}, {"type": "node", "id": 3100647633, "lat": 39.4369529, "lon": 19.9353218}, {"type": "node", "id": 3100647634, "lat": 39.4369891, "lon": 19.9350709}, {"type": "node", "id": 3100647635, "lat": 39.4370547, "lon": 19.9351289}, {"type": "node", "id": 3106503733, "lat": 39.6251754, "lon": 19.9209189, "tags": {"amenity": "restaurant", "name": "Bellissimo"}}, {"type": "node", "id": 3329754473, "lat": 39.5841367, "lon": 19.8204192}, {"type": "node", "id": 3329754474, "lat": 39.5840314, "lon": 19.8204911}, {"type": "node", "id": 3329754475, "lat": 39.5841147, "lon": 19.8206965}, {"type": "node", "id": 3329754476, "lat": 39.58422, "lon": 19.8206246}, {"type": "node", "id": 3437747891, "lat": 39.6218323, "lon": 20.1955107}, {"type": "node", "id": 3437749398, "lat": 39.6220008, "lon": 20.1955803}, {"type": "node", "id": 3437749419, "lat": 39.6219635, "lon": 20.1957327}, {"type": "node", "id": 3437749423, "lat": 39.6217949, "lon": 20.1956631}, {"type": "node", "id": 3437749425, "lat": 39.6218554, "lon": 20.195688}, {"type": "node", "id": 3495622952, "lat": 39.5907482, "lon": 19.9179603, "tags": {"amenity": "restaurant", "cuisine": "greek", "name": "FLISVOS RESTAURANT"}}, {"type": "node", "id": 3546998298, "lat": 39.5925035, "lon": 19.9177944, "tags": {"addr:city": "\u039a\u03b1\u03bd\u03bf\u03bd\u03b9", "addr:housenumber": "41", "addr:street": "Nafsikas", "amenity": "restaurant", "contact:email": "mitropouloua@yahoo.com", "contact:facebook": "http://www.facebook.com/pages/Captain-George/942833259082614", "cuisine": "greek", "email": "mitropouloua@yahoo.com", "internet_access": "wlan", "name": "Captain George", "opening_hours": "Mo-Su 12:00-24:00", "outdoor_seating": "yes", "payment:american_express": "yes", "payment:mastercard": "yes", "payment:visa": "yes", "phone": "+30 694 820 8208", "takeaway": "yes"}}, {"type": "node", "id": 3581361251, "lat": 39.6270091, "lon": 19.9044105}, {"type": "node", "id": 3581361252, "lat": 39.6270277, "lon": 19.9042492}, {"type": "node", "id": 3581361398, "lat": 39.6243169, "lon": 19.923646, "tags": {"amenity": "restaurant", "name": "REX"}}, {"type": "node", "id": 3673955957, "lat": 39.4856825, "lon": 19.9230222, "tags": {"amenity": "restaurant", "cuisine": "regional", "name": "Bella Vista Taverna"}}, {"type": "node", "id": 3673962189, "lat": 39.4833885, "lon": 19.929965, "tags": {"amenity": "restaurant", "check_date:opening_hours": "2023-08-27", "cuisine": "regional", "internet_access": "wlan", "name": "Alexakis Taverna", "opening_hours:signed": "no"}}, {"type": "node", "id": 3673962190, "lat": 39.4774619, "lon": 19.9343745, "tags": {"amenity": "restaurant", "name": "Christina"}}, {"type": "node", "id": 3673994822, "lat": 39.4834667, "lon": 19.9246286, "tags": {"amenity": "restaurant", "check_date:opening_hours": "2023-08-23", "name": "Freddy's", "opening_hours:signed": "no"}}, {"type": "node", "id": 3673994823, "lat": 39.4825128, "lon": 19.9247642, "tags": {"amenity": "restaurant", "check_date:opening_hours": "2023-08-27", "cuisine": "regional", "internet_access": "wlan", "name": "Stavros Taverna", "opening_hours:signed": "no"}}, {"type": "node", "id": 3674478379, "lat": 39.6251723, "lon": 20.1814219, "tags": {"amenity": "restaurant", "cuisine": "greek", "name": "Panorama"}}, {"type": "node", "id": 3674479249, "lat": 39.6255202, "lon": 20.1811586, "tags": {"addr:city": "Sagiada", "addr:postcode": "46300", "amenity": "restaurant", "cuisine": "greek;fish", "name": "\u0391\u03bb\u03ad\u03ba\u03bf\u03c2", "name:de": "Alekos", "name:el": "\u0391\u03bb\u03ad\u03ba\u03bf\u03c2", "name:en": "Alekos", "phone": "+30 2664 051 244"}}, {"type": "node", "id": 3674479250, "lat": 39.625338, "lon": 20.1813021, "tags": {"amenity": "cafe", "cuisine": "greek", "name": "Faros"}}, {"type": "node", "id": 3687696868, "lat": 39.4838277, "lon": 19.9296287, "tags": {"amenity": "restaurant", "cuisine": "greek", "internet_access": "wlan", "internet_access:fee": "no", "name": "Taverna Margarita"}}, {"type": "node", "id": 3687826523, "lat": 39.4823096, "lon": 19.9312651, "tags": {"amenity": "restaurant"}}, {"type": "node", "id": 3688478497, "lat": 39.4845429, "lon": 19.9251096, "tags": {"amenity": "restaurant", "check_date:opening_hours": "2023-08-27", "name": "Alkionis", "opening_hours:signed": "no"}}, {"type": "node", "id": 3688478498, "lat": 39.4848117, "lon": 19.9252383, "tags": {"amenity": "restaurant", "check_date:opening_hours": "2023-08-27", "name": "Jimmys", "opening_hours:signed": "no"}}, {"type": "node", "id": 3688489152, "lat": 39.4839826, "lon": 19.9251433, "tags": {"amenity": "restaurant", "check_date:opening_hours": "2023-08-27", "name": "Edema taverna", "opening_hours:signed": "no"}}, {"type": "node", "id": 3688584208, "lat": 39.4871048, "lon": 19.9239872, "tags": {"amenity": "restaurant", "contact:facebook": "thevillagetavernacorfu", "cuisine": "deli;fish;greek;regional", "name": "The Village Taverna", "phone": "+30 26610 76403"}}, {"type": "node", "id": 3688641384, "lat": 39.4875994, "lon": 19.9242686, "tags": {"amenity": "restaurant", "name": "Tassos"}}, {"type": "node", "id": 3688952347, "lat": 39.4848336, "lon": 19.9289424, "tags": {"amenity": "restaurant", "name": "Sea Breeze"}}, {"type": "node", "id": 3688981258, "lat": 39.4856304, "lon": 19.9270699, "tags": {"amenity": "restaurant", "name": "Firefly Taverna"}}, {"type": "node", "id": 3689865109, "lat": 39.486951, "lon": 19.9283779, "tags": {"amenity": "restaurant", "name": "Taverna"}}, {"type": "node", "id": 3694017771, "lat": 39.4850043, "lon": 19.9251625, "tags": {"amenity": "restaurant", "internet_access": "wlan", "name": "The Islands"}}, {"type": "node", "id": 3697652137, "lat": 39.4150128, "lon": 19.9833418, "tags": {"amenity": "restaurant", "check_date": "2023-06-24", "cuisine": "greek", "name": "Fisheye", "outdoor_seating": "yes", "payment:mastercard": "yes", "payment:visa": "yes", "toilets": "yes", "wheelchair": "no"}}, {"type": "node", "id": 3697666135, "lat": 39.4130946, "lon": 19.9863494, "tags": {"amenity": "restaurant", "name": "Restaurant and Cafe-Bar Santa Barbara"}}, {"type": "node", "id": 3697666140, "lat": 39.4133113, "lon": 19.9860776, "tags": {"amenity": "restaurant", "name": "Manduvala"}}, {"type": "node", "id": 3698170828, "lat": 39.470927, "lon": 19.9421109, "tags": {"amenity": "restaurant", "name": "The Fishermans Haunt"}}, {"type": "node", "id": 3699949695, "lat": 39.5853855, "lon": 19.8187247}, {"type": "node", "id": 3699949702, "lat": 39.5854593, "lon": 19.8186648}, {"type": "node", "id": 3699949704, "lat": 39.5854324, "lon": 19.8187513}, {"type": "node", "id": 3699949715, "lat": 39.585409, "lon": 19.8186417}, {"type": "node", "id": 3699949720, "lat": 39.5854339, "lon": 19.8169661, "tags": {"amenity": "cafe"}}, {"type": "node", "id": 3700230076, "lat": 39.5851419, "lon": 19.8188583}, {"type": "node", "id": 3700230077, "lat": 39.5852353, "lon": 19.8189051}, {"type": "node", "id": 3700230079, "lat": 39.5852059, "lon": 19.8186433}, {"type": "node", "id": 3700230104, "lat": 39.5852993, "lon": 19.8186901}, {"type": "node", "id": 3700488999, "lat": 39.5826674, "lon": 19.8217773}, {"type": "node", "id": 3700489004, "lat": 39.5825992, "lon": 19.8215232}, {"type": "node", "id": 3700489007, "lat": 39.5825356, "lon": 19.8216144}, {"type": "node", "id": 3700489014, "lat": 39.5825367, "lon": 19.821707}, {"type": "node", "id": 3700489015, "lat": 39.5825846, "lon": 19.821778}, {"type": "node", "id": 3700489018, "lat": 39.5827294, "lon": 19.8217084}, {"type": "node", "id": 3700489021, "lat": 39.5827341, "lon": 19.8216063}, {"type": "node", "id": 3700489226, "lat": 39.5826768, "lon": 19.8215265}, {"type": "node", "id": 3916528364, "lat": 39.6270704, "lon": 19.925287}, {"type": "node", "id": 3916528365, "lat": 39.6270685, "lon": 19.9253821}, {"type": "node", "id": 3916528367, "lat": 39.626989, "lon": 19.9255633}, {"type": "node", "id": 3916528372, "lat": 39.6270652, "lon": 19.9255711}, {"type": "node", "id": 3916528377, "lat": 39.6271073, "lon": 19.9252887}, {"type": "node", "id": 3916528378, "lat": 39.6271093, "lon": 19.9254449}, {"type": "node", "id": 3916528379, "lat": 39.627127, "lon": 19.9253231}, {"type": "node", "id": 3916528380, "lat": 39.6271221, "lon": 19.9254504}, {"type": "node", "id": 3916528382, "lat": 39.6271435, "lon": 19.9253234}, {"type": "node", "id": 4238303149, "lat": 39.5349606, "lon": 19.8489795}, {"type": "node", "id": 4238303150, "lat": 39.5350065, "lon": 19.8491208}, {"type": "node", "id": 4238303151, "lat": 39.5350678, "lon": 19.8489209}, {"type": "node", "id": 4238303152, "lat": 39.5351138, "lon": 19.8490622}, {"type": "node", "id": 4238303157, "lat": 39.4999907, "lon": 19.8543699, "tags": {"amenity": "restaurant", "cuisine": "greek", "name": "Skala", "outdoor_seating": "yes"}}, {"type": "node", "id": 4247143960, "lat": 39.4238262, "lon": 19.9615294}, {"type": "node", "id": 4247143966, "lat": 39.4239008, "lon": 19.9615719}, {"type": "node", "id": 4247143968, "lat": 39.4239416, "lon": 19.9611902}, {"type": "node", "id": 4247143974, "lat": 39.4240162, "lon": 19.9612328}, {"type": "node", "id": 4247161535, "lat": 39.4242767, "lon": 19.9584465}, {"type": "node", "id": 4247161539, "lat": 39.4242441, "lon": 19.9591583}, {"type": "node", "id": 4247161542, "lat": 39.4243234, "lon": 19.9582839}, {"type": "node", "id": 4247161545, "lat": 39.4243101, "lon": 19.9579879}, {"type": "node", "id": 4247161550, "lat": 39.4243419, "lon": 19.9589875}, {"type": "node", "id": 4247161555, "lat": 39.4243775, "lon": 19.9589817}, {"type": "node", "id": 4247161558, "lat": 39.4244005, "lon": 19.9593339}, {"type": "node", "id": 4247161560, "lat": 39.4244204, "lon": 19.9577025}, {"type": "node", "id": 4247161561, "lat": 39.4244031, "lon": 19.9585073}, {"type": "node", "id": 4247161568, "lat": 39.4244498, "lon": 19.9583447}, {"type": "node", "id": 4247161576, "lat": 39.424488, "lon": 19.9578512}, {"type": "node", "id": 4247161581, "lat": 39.424501, "lon": 19.9579165}, {"type": "node", "id": 4247161584, "lat": 39.4245179, "lon": 19.9578689}, {"type": "node", "id": 4247161585, "lat": 39.4245191, "lon": 19.9591382}, {"type": "node", "id": 4247161587, "lat": 39.424521, "lon": 19.9577582}, {"type": "node", "id": 4247161588, "lat": 39.4245265, "lon": 19.9566697}, {"type": "node", "id": 4247161898, "lat": 39.424567, "lon": 19.9579561}, {"type": "node", "id": 4247161901, "lat": 39.4245858, "lon": 19.9569864}, {"type": "node", "id": 4247161902, "lat": 39.4245888, "lon": 19.9565008}, {"type": "node", "id": 4247161909, "lat": 39.4246363, "lon": 19.9567024}, {"type": "node", "id": 4247161915, "lat": 39.4246674, "lon": 19.9566045}, {"type": "node", "id": 4247161920, "lat": 39.4246837, "lon": 19.956543}, {"type": "node", "id": 4247161925, "lat": 39.4247104, "lon": 19.957021}, {"type": "node", "id": 4247161933, "lat": 39.4247771, "lon": 19.9566524}, {"type": "node", "id": 4247205974, "lat": 39.4227796, "lon": 19.9630801}, {"type": "node", "id": 4247205983, "lat": 39.422859, "lon": 19.9631299}, {"type": "node", "id": 4247205986, "lat": 39.4228789, "lon": 19.9628148}, {"type": "node", "id": 4247205998, "lat": 39.4229583, "lon": 19.9628646}, {"type": "node", "id": 4247206011, "lat": 39.4232909, "lon": 19.9627171}, {"type": "node", "id": 4247206035, "lat": 39.4233746, "lon": 19.9625777}, {"type": "node", "id": 4247206048, "lat": 39.4235086, "lon": 19.962929}, {"type": "node", "id": 4247206049, "lat": 39.4235914, "lon": 19.9627805}, {"type": "node", "id": 4248070932, "lat": 39.4254071, "lon": 19.951144}, {"type": "node", "id": 4248070935, "lat": 39.4254338, "lon": 19.950979}, {"type": "node", "id": 4248070945, "lat": 39.4255023, "lon": 19.9533938}, {"type": "node", "id": 4248070951, "lat": 39.4255047, "lon": 19.9511705}, {"type": "node", "id": 4248070958, "lat": 39.4255348, "lon": 19.9532736}, {"type": "node", "id": 4248070959, "lat": 39.4255314, "lon": 19.9510055}, {"type": "node", "id": 4248070964, "lat": 39.4255818, "lon": 19.9512142}, {"type": "node", "id": 4248070966, "lat": 39.425594, "lon": 19.9476664}, {"type": "node", "id": 4248070969, "lat": 39.4256007, "lon": 19.9511316}, {"type": "node", "id": 4248070973, "lat": 39.4256133, "lon": 19.9513653}, {"type": "node", "id": 4248070974, "lat": 39.4256157, "lon": 19.9475098}, {"type": "node", "id": 4248070982, "lat": 39.4256202, "lon": 19.9461318}, {"type": "node", "id": 4248070983, "lat": 39.4256426, "lon": 19.9512375}, {"type": "node", "id": 4248070990, "lat": 39.4256726, "lon": 19.9511866}, {"type": "node", "id": 4248070991, "lat": 39.4256533, "lon": 19.9460335}, {"type": "node", "id": 4248070992, "lat": 39.4256784, "lon": 19.9511614}, {"type": "node", "id": 4248070993, "lat": 39.4257037, "lon": 19.9534849}, {"type": "node", "id": 4248071012, "lat": 39.4257362, "lon": 19.9533646}, {"type": "node", "id": 4248071018, "lat": 39.4257486, "lon": 19.9514172}, {"type": "node", "id": 4248071019, "lat": 39.4257368, "lon": 19.9462068}, {"type": "node", "id": 4248071029, "lat": 39.425791, "lon": 19.951232}, {"type": "node", "id": 4248071031, "lat": 39.4258006, "lon": 19.9477142}, {"type": "node", "id": 4248071038, "lat": 39.4258222, "lon": 19.9475577}, {"type": "node", "id": 4248071063, "lat": 39.4258547, "lon": 19.946267}, {"type": "node", "id": 4248071064, "lat": 39.4260279, "lon": 19.9450841}, {"type": "node", "id": 4248071068, "lat": 39.4258692, "lon": 19.9462741}, {"type": "node", "id": 4248071076, "lat": 39.4258957, "lon": 19.9461702}, {"type": "node", "id": 4248071080, "lat": 39.4258325, "lon": 19.9448876}, {"type": "node", "id": 4248071224, "lat": 39.4260054, "lon": 19.9451543}, {"type": "node", "id": 4248071226, "lat": 39.4260922, "lon": 19.9450333}, {"type": "node", "id": 4248071231, "lat": 39.4260768, "lon": 19.945025}, {"type": "node", "id": 4248071240, "lat": 39.4260463, "lon": 19.9451763}, {"type": "node", "id": 4248071342, "lat": 39.4263664, "lon": 19.9475657}, {"type": "node", "id": 4248071358, "lat": 39.4264087, "lon": 19.9474461}, {"type": "node", "id": 4248071382, "lat": 39.4265099, "lon": 19.9476508}, {"type": "node", "id": 4248071389, "lat": 39.4265522, "lon": 19.9475312}, {"type": "node", "id": 4275203166, "lat": 39.4541683, "lon": 20.0015802, "tags": {"addr:city": "Petriti", "amenity": "restaurant", "name": "Taverna Apaggio"}}, {"type": "node", "id": 4275221224, "lat": 39.4604271, "lon": 19.9686506}, {"type": "node", "id": 4275221225, "lat": 39.4603275, "lon": 19.9687978}, {"type": "node", "id": 4275221226, "lat": 39.4602933, "lon": 19.968759}, {"type": "node", "id": 4275221227, "lat": 39.460262, "lon": 19.9688054}, {"type": "node", "id": 4275221228, "lat": 39.4602239, "lon": 19.9687623}, {"type": "node", "id": 4275221229, "lat": 39.4603549, "lon": 19.9685686}, {"type": "node", "id": 4275280626, "lat": 39.4702768, "lon": 19.9436663}, {"type": "node", "id": 4275280627, "lat": 39.4702706, "lon": 19.9437803}, {"type": "node", "id": 4275280628, "lat": 39.4701992, "lon": 19.9437723}, {"type": "node", "id": 4275280629, "lat": 39.4702064, "lon": 19.9436569}, {"type": "node", "id": 4275311730, "lat": 39.3789929, "lon": 20.0936587}, {"type": "node", "id": 4275311732, "lat": 39.3788936, "lon": 20.0936009}, {"type": "node", "id": 4275311733, "lat": 39.3789443, "lon": 20.0935594}, {"type": "node", "id": 4275351773, "lat": 39.4575237, "lon": 19.9576254}, {"type": "node", "id": 4275351781, "lat": 39.4576106, "lon": 19.9575104}, {"type": "node", "id": 4275351783, "lat": 39.4574707, "lon": 19.9575583}, {"type": "node", "id": 4275351784, "lat": 39.4575575, "lon": 19.9574432}, {"type": "node", "id": 4275351785, "lat": 39.4575732, "lon": 19.9575599, "tags": {"tourism": "viewpoint"}}, {"type": "node", "id": 4281691514, "lat": 39.4242558, "lon": 19.9591379}, {"type": "node", "id": 4281691516, "lat": 39.4244374, "lon": 19.9590479}, {"type": "node", "id": 4281790697, "lat": 39.6215708, "lon": 19.9236758, "tags": {"addr:housenumber": "8", "addr:postcode": "49100", "addr:street": "\u039a\u03b1\u03c0\u03bf\u03b4\u03b9\u03c3\u03c4\u03c1\u03af\u03bf\u03c5", "amenity": "cafe", "cuisine": "coffee_shop", "email": "info@cafetierra.gr", "name": "Cafetierra", "operator": "Micro Roasters Coffee Lab", "phone": "+302661025904", "website": "https://www.cafetierra.gr/"}}, {"type": "node", "id": 4282017693, "lat": 39.4796227, "lon": 19.9270915, "tags": {"amenity": "restaurant", "check_date:opening_hours": "2023-08-23", "cuisine": "greek", "internet_access": "wlan", "name": "Mammo's Taverna", "opening_hours:signed": "no"}}, {"type": "node", "id": 4282582078, "lat": 39.4251846, "lon": 19.9562469, "tags": {"amenity": "restaurant", "name": "Zacks"}}, {"type": "node", "id": 4282646272, "lat": 39.4270683, "lon": 19.9430979}, {"type": "node", "id": 4282646273, "lat": 39.4272304, "lon": 19.9432088}, {"type": "node", "id": 4282646275, "lat": 39.4272594, "lon": 19.9430604}, {"type": "node", "id": 4306248692, "lat": 39.6138937, "lon": 19.9109783, "tags": {"amenity": "restaurant", "name": "Gyroperasma Souvlaki", "name:el": "\u0393\u03c5\u03c1\u03bf\u03c0\u03ad\u03c1\u03b1\u03c3\u03bc\u03b1 \u03a3\u03bf\u03c5\u03b2\u03bb\u03ac\u03ba\u03b9"}}, {"type": "node", "id": 4306459129, "lat": 39.5462162, "lon": 19.9131251, "tags": {"amenity": "restaurant", "name:en": "mama grill"}}, {"type": "node", "id": 4306459132, "lat": 39.5464333, "lon": 19.9129025, "tags": {"amenity": "cafe"}}, {"type": "node", "id": 4306460648, "lat": 39.5618486, "lon": 19.9048586, "tags": {"amenity": "cafe", "cuisine": "sandwich;ice_cream", "name:en": "\"Achilleion\" Snack-Caf\u00e9"}}, {"type": "node", "id": 4306460649, "lat": 39.5617978, "lon": 19.9051818, "tags": {"amenity": "restaurant", "name": "Bella Vista Restaurant Cafe"}}, {"type": "node", "id": 4312681348, "lat": 39.4441385, "lon": 20.0066916, "tags": {"addr:city": "Notos", "amenity": "restaurant", "cuisine": "regional", "name": "Taverna Savvas"}}, {"type": "node", "id": 4316719594, "lat": 39.4763134, "lon": 19.9299921, "tags": {"amenity": "restaurant", "cuisine": "greek", "name": "Zaks Family Taverna", "opening_hours": "Mo-Sa 18:30-18:00+"}}, {"type": "node", "id": 4316974190, "lat": 39.39451, "lon": 20.0238593, "tags": {"amenity": "restaurant", "cuisine": "greek", "name": "Baratos"}}, {"type": "node", "id": 4321034798, "lat": 39.4132411, "lon": 19.9904946, "tags": {"amenity": "restaurant", "name": "Tavern Barbados"}}, {"type": "node", "id": 4321035021, "lat": 39.4140209, "lon": 19.9920313, "tags": {"amenity": "restaurant", "name": "Restaurant and Coctail Bar Maltas"}}, {"type": "node", "id": 4328123005, "lat": 39.4089483, "lon": 20.2399134, "tags": {"amenity": "restaurant", "name": "Pizzeria Mamma Mia"}}, {"type": "node", "id": 4329568397, "lat": 39.525034, "lon": 19.9224673, "tags": {"amenity": "restaurant", "cuisine": "greek", "internet_access": "wlan", "name": "Arokaria"}}, {"type": "node", "id": 4329607711, "lat": 39.5465427, "lon": 19.9128016, "tags": {"amenity": "restaurant", "cuisine": "greek", "internet_access": "wlan", "name": "Loris. Traditional taverna."}}, {"type": "node", "id": 4333449403, "lat": 39.5412582, "lon": 19.9147694, "tags": {"amenity": "restaurant", "cuisine": "greek", "internet_access": "wlan", "name": "Taverna Barbara's"}}, {"type": "node", "id": 4336217608, "lat": 39.4084452, "lon": 20.240337, "tags": {"amenity": "restaurant", "cuisine": "chicken;burger;grill;greek;seafood;fish;breakfast;mediterranean;barbecue", "name": "Ostria"}}, {"type": "node", "id": 4336218804, "lat": 39.4058516, "lon": 20.2389251, "tags": {"amenity": "restaurant", "cuisine": "chicken;sausage;grill;greek;fish;seafood;mediterranean;hot_dog;kebab", "name": "Psitoupoli Snack - Bar - Grill", "phone": "+306973801466"}}, {"type": "node", "id": 4337549289, "lat": 39.4757636, "lon": 19.8858501}, {"type": "node", "id": 4339504089, "lat": 39.5469127, "lon": 19.912702, "tags": {"amenity": "restaurant", "cuisine": "greek", "internet_access": "wlan", "name": "Mezza volta"}}, {"type": "node", "id": 4345808196, "lat": 39.5461567, "lon": 19.9126267, "tags": {"amenity": "restaurant", "cuisine": "greek", "internet_access": "wlan", "name": "Paxinos Restaurant"}}, {"type": "node", "id": 4357368558, "lat": 39.6259149, "lon": 19.9105869, "tags": {"amenity": "cafe", "check_date": "2025-05-14", "cuisine": "coffee_shop;sandwich", "name": "Sette Venti", "outdoor_seating": "yes", "payment:cash": "yes", "payment:credit_cards": "yes", "payment:debit_cards": "yes", "wheelchair": "yes"}}, {"type": "node", "id": 4359251289, "lat": 39.4753853, "lon": 19.9346705, "tags": {"amenity": "restaurant", "cuisine": "greek", "name": "Marilena Family Taverna"}}, {"type": "node", "id": 4364641559, "lat": 39.6262074, "lon": 19.9032742, "tags": {"amenity": "cafe"}}, {"type": "node", "id": 4370712076, "lat": 39.610905, "lon": 19.9231844, "tags": {"addr:housenumber": "7", "addr:street": "Alkiviadou Dari", "amenity": "restaurant", "cuisine": "fish;regional;greek;seafood;mediterranean;local", "name": "TA PSARAKIA TSI GARITSAS", "name:el": "TA PSARAKIA TSI GARITSAS", "name:en": "Garitsa Fish Tavern", "opening_hours": "Mo-Su 12:30-00:30", "phone": "+30 694 850 9095"}}, {"type": "node", "id": 4386859895, "lat": 39.6241362, "lon": 19.9193822, "tags": {"amenity": "cafe", "name:en": "Red hot chilly burger"}}, {"type": "node", "id": 4401512289, "lat": 39.6230094, "lon": 19.918796, "tags": {"addr:street": "Spirou Vlaikou", "amenity": "restaurant", "check_date": "2024-09-10", "cuisine": "seafood", "internet_access": "wlan", "name:en": "Fishalida Fish Restaurant", "phone": "+2661082150"}}, {"type": "node", "id": 4423882304, "lat": 39.6230594, "lon": 19.9284938, "tags": {"entrance": "main"}}, {"type": "node", "id": 4424243630, "lat": 39.6269913, "lon": 19.9255338, "tags": {"entrance": "yes"}}, {"type": "node", "id": 4424243632, "lat": 39.6270305, "lon": 19.9255662, "tags": {"entrance": "yes"}}, {"type": "node", "id": 4424243645, "lat": 39.6270744, "lon": 19.9255443, "tags": {"entrance": "yes"}}, {"type": "node", "id": 4424243648, "lat": 39.6271298, "lon": 19.9252967}, {"type": "node", "id": 4549756180, "lat": 39.4242629, "lon": 19.9581704}, {"type": "node", "id": 4549756181, "lat": 39.4244691, "lon": 19.9582723}, {"type": "node", "id": 4549756182, "lat": 39.4245261, "lon": 19.9580899}, {"type": "node", "id": 4552967459, "lat": 39.4360249, "lon": 19.9512041}, {"type": "node", "id": 4552967460, "lat": 39.4359827, "lon": 19.9511751}, {"type": "node", "id": 4552967461, "lat": 39.43602, "lon": 19.9510839}, {"type": "node", "id": 4552967462, "lat": 39.4360604, "lon": 19.9511116}, {"type": "node", "id": 4552967463, "lat": 39.43607, "lon": 19.951088}, {"type": "node", "id": 4552967464, "lat": 39.4361506, "lon": 19.9511433}, {"type": "node", "id": 4552967465, "lat": 39.4360881, "lon": 19.9512961}, {"type": "node", "id": 4552967466, "lat": 39.4360093, "lon": 19.951242}, {"type": "node", "id": 4810105072, "lat": 39.2172042, "lon": 20.1618017}, {"type": "node", "id": 4810105073, "lat": 39.2171038, "lon": 20.1618613}, {"type": "node", "id": 4810105074, "lat": 39.2171127, "lon": 20.1617361}, {"type": "node", "id": 4810105075, "lat": 39.2171827, "lon": 20.1617414}, {"type": "node", "id": 4810105076, "lat": 39.2170685, "lon": 20.1617624}, {"type": "node", "id": 4810105077, "lat": 39.2171265, "lon": 20.1617748}, {"type": "node", "id": 4810105078, "lat": 39.2170889, "lon": 20.1619487}, {"type": "node", "id": 4810105079, "lat": 39.217091, "lon": 20.1619929}, {"type": "node", "id": 4810105080, "lat": 39.2171159, "lon": 20.1619876}, {"type": "node", "id": 4810105081, "lat": 39.2171273, "lon": 20.1620077}, {"type": "node", "id": 4810105082, "lat": 39.2171263, "lon": 20.1620358}, {"type": "node", "id": 4810105083, "lat": 39.2171159, "lon": 20.1620506}, {"type": "node", "id": 4810105084, "lat": 39.2171003, "lon": 20.1620586}, {"type": "node", "id": 4810105085, "lat": 39.2170806, "lon": 20.1620707}, {"type": "node", "id": 4810105086, "lat": 39.2170577, "lon": 20.1620707}, {"type": "node", "id": 4810105087, "lat": 39.2170307, "lon": 20.1620586}, {"type": "node", "id": 4810105088, "lat": 39.2170172, "lon": 20.1620439}, {"type": "node", "id": 4810105089, "lat": 39.2170047, "lon": 20.1620157}, {"type": "node", "id": 4810105090, "lat": 39.2169995, "lon": 20.1619956}, {"type": "node", "id": 4810105091, "lat": 39.2169985, "lon": 20.1619715}, {"type": "node", "id": 4810105092, "lat": 39.2169964, "lon": 20.16195}, {"type": "node", "id": 4812144885, "lat": 39.2259166, "lon": 20.161266}, {"type": "node", "id": 4812144903, "lat": 39.2258715, "lon": 20.1613236}, {"type": "node", "id": 4812144926, "lat": 39.2257362, "lon": 20.1605462}, {"type": "node", "id": 4812144927, "lat": 39.2256611, "lon": 20.1605702}, {"type": "node", "id": 4812144928, "lat": 39.225689, "lon": 20.1607152}, {"type": "node", "id": 4812144929, "lat": 39.2257454, "lon": 20.1606971}, {"type": "node", "id": 4812144930, "lat": 39.2257394, "lon": 20.1606656}, {"type": "node", "id": 4812144931, "lat": 39.225758, "lon": 20.1606596}, {"type": "node", "id": 4812144940, "lat": 39.2258277, "lon": 20.1614195}, {"type": "node", "id": 4812144941, "lat": 39.2257803, "lon": 20.1614883}, {"type": "node", "id": 4812144942, "lat": 39.225736, "lon": 20.1614337}, {"type": "node", "id": 4812144943, "lat": 39.2257833, "lon": 20.1613649}, {"type": "node", "id": 4812179877, "lat": 39.225726, "lon": 20.1619248}, {"type": "node", "id": 4812179880, "lat": 39.2257916, "lon": 20.1619128}, {"type": "node", "id": 4812179887, "lat": 39.2256465, "lon": 20.1617929}, {"type": "node", "id": 4812179888, "lat": 39.2255721, "lon": 20.1618023}, {"type": "node", "id": 4812179889, "lat": 39.2255791, "lon": 20.1618952}, {"type": "node", "id": 4812179890, "lat": 39.2256535, "lon": 20.1618858}, {"type": "node", "id": 4812179899, "lat": 39.2257978, "lon": 20.1620031}, {"type": "node", "id": 4812179902, "lat": 39.2257476, "lon": 20.1620088}, {"type": "node", "id": 4812180732, "lat": 39.225887, "lon": 20.1624924}, {"type": "node", "id": 4820727287, "lat": 39.5957721, "lon": 19.8010366}, {"type": "node", "id": 4820727288, "lat": 39.5958552, "lon": 19.8011984}, {"type": "node", "id": 4820727289, "lat": 39.5957985, "lon": 19.8012475}, {"type": "node", "id": 4820727290, "lat": 39.5957154, "lon": 19.8010857}, {"type": "node", "id": 4826174068, "lat": 39.5970868, "lon": 19.7957499}, {"type": "node", "id": 4826174069, "lat": 39.5970599, "lon": 19.795943}, {"type": "node", "id": 4826174070, "lat": 39.5971673, "lon": 19.7959682}, {"type": "node", "id": 4847330187, "lat": 39.2249808, "lon": 20.1644802}, {"type": "node", "id": 4847330188, "lat": 39.2249912, "lon": 20.1644543}, {"type": "node", "id": 4847330189, "lat": 39.2250379, "lon": 20.1644855}, {"type": "node", "id": 4847330190, "lat": 39.2249856, "lon": 20.1646156}, {"type": "node", "id": 4847330191, "lat": 39.2248827, "lon": 20.1645466}, {"type": "node", "id": 4847330192, "lat": 39.2249246, "lon": 20.1644425}, {"type": "node", "id": 4908446021, "lat": 39.460057, "lon": 19.982223, "tags": {"amenity": "restaurant", "cuisine": "greek", "email": "filinopolos@rambler.ru", "internet_access": "wlan", "name:en": "Kalami Taverna", "name:ru": "\u041a\u0430\u043b\u0430\u043c\u0438 \u0422\u0430\u0432\u0435\u0440\u043d\u0430", "opening_hours": "24/7", "operator": "\u0418\u0440\u0438\u043d\u0430", "phone": "+302662053003"}}, {"type": "node", "id": 4931192356, "lat": 39.5614226, "lon": 19.8985443, "tags": {"amenity": "restaurant", "name": "Taverna To Pouli Tsi Kotas"}}, {"type": "node", "id": 4931573847, "lat": 39.2350046, "lon": 20.1346256, "tags": {"amenity": "restaurant", "name": "Fanis"}}, {"type": "node", "id": 4931573954, "lat": 39.2314579, "lon": 20.1509484, "tags": {"amenity": "restaurant", "name": "Ben's Bar"}}, {"type": "node", "id": 4946867422, "lat": 39.4072554, "lon": 20.2470178, "tags": {"amenity": "restaurant", "cuisine": "mediterranean;greek", "language:cs": "yes", "language:el": "main", "name": "Taverna Tessalia", "operator": "\u039c\u03b1\u03bd\u03c4\u03b6\u03b1\u03b2\u03ad\u03bb\u03bb\u03b1\u03c2 \u0393\u03b5\u03ce\u03c1\u03b3\u03b9\u03bf\u03c2", "outdoor_seating": "yes"}}, {"type": "node", "id": 4951659215, "lat": 39.4143406, "lon": 19.9878283}, {"type": "node", "id": 4951659216, "lat": 39.4141662, "lon": 19.988074}, {"type": "node", "id": 4951659217, "lat": 39.4144244, "lon": 19.987924}, {"type": "node", "id": 4951659218, "lat": 39.4144134, "lon": 19.9879412}, {"type": "node", "id": 4951659219, "lat": 39.4144266, "lon": 19.987954}, {"type": "node", "id": 4951659220, "lat": 39.4143792, "lon": 19.9880283}, {"type": "node", "id": 4951660121, "lat": 39.4143648, "lon": 19.9880155}, {"type": "node", "id": 4951660122, "lat": 39.4142567, "lon": 19.9881712}, {"type": "node", "id": 4951660140, "lat": 39.4153794, "lon": 19.9876842}, {"type": "node", "id": 4951660141, "lat": 39.4155228, "lon": 19.9874883}, {"type": "node", "id": 4951660142, "lat": 39.4155985, "lon": 19.9875811}, {"type": "node", "id": 4951660143, "lat": 39.4154551, "lon": 19.987777}, {"type": "node", "id": 4951660209, "lat": 39.4148199, "lon": 19.9871809}, {"type": "node", "id": 4951660210, "lat": 39.4147711, "lon": 19.986984}, {"type": "node", "id": 4951660211, "lat": 39.4146454, "lon": 19.9870364}, {"type": "node", "id": 4951660212, "lat": 39.4146943, "lon": 19.9872333}, {"type": "node", "id": 4970808520, "lat": 39.6241022, "lon": 19.9200503, "tags": {"amenity": "cafe", "name": "Averto"}}, {"type": "node", "id": 4970808557, "lat": 39.627289, "lon": 19.9231955, "tags": {"amenity": "restaurant", "name": "Veranda", "seasonal": "yes"}}, {"type": "node", "id": 4970808558, "lat": 39.610625, "lon": 19.9238003, "tags": {"amenity": "restaurant", "fixme": "is this still open? if yes, please update with a webpage or social media", "name": "Alexakis", "phone": "+302661020170"}}, {"type": "node", "id": 4970809037, "lat": 39.6450451, "lon": 19.8523456, "tags": {"amenity": "restaurant", "cuisine": "seafood", "name": "Gerekos"}}, {"type": "node", "id": 4970809121, "lat": 39.6272404, "lon": 19.9232462, "tags": {"amenity": "restaurant", "name": "Mouragia"}}, {"type": "node", "id": 4988069025, "lat": 39.6257099, "lon": 19.9194047, "tags": {"addr:housenumber": "131-133", "addr:street": "\u039d\u03b9\u03ba\u03bf\u03bb\u03ac\u03bf\u03c5 \u03a0\u03bf\u03bb\u03af\u03c4\u03b7", "amenity": "restaurant", "cuisine": "greek", "internet_access": "wlan", "name": "\u03a0\u03b9\u03c4\u03bf\u03bd\u03bf\u03c3\u03c4\u03b9\u03bc\u03b9\u03ad\u03c2", "name:el": "\u03a0\u03b9\u03c4\u03bf\u03bd\u03bf\u03c3\u03c4\u03b9\u03bc\u03b9\u03ad\u03c2", "name:en": "Pitonostimies", "opening_hours": "Mo-Su 09:00-01:00", "website": "https://www.tripadvisor.ru/Restaurant_Review-g662629-d6993821-Reviews-Pitonostimies-Corfu_Town_Corfu_Ionian_Islands.html?m=19904"}}, {"type": "node", "id": 5008381915, "lat": 39.5793879, "lon": 19.9130309, "tags": {"amenity": "restaurant", "cuisine": "greek;german;mediterranean", "name": "Restaurant \"Zeffiros\"", "outdoor_seating": "yes", "smoking": "outside"}}, {"type": "node", "id": 5027804223, "lat": 39.4261404, "lon": 19.9453639, "tags": {"amenity": "restaurant", "cuisine": "greek;chicken", "internet_access": "wlan", "name": "Makis"}}, {"type": "node", "id": 5044514122, "lat": 39.6230333, "lon": 19.9233559, "tags": {"amenity": "cafe", "brand": "Starbucks", "brand:wikidata": "Q37158", "cuisine": "coffee_shop", "name": "Starbucks", "name:en": "Starbucks", "name:ru": "\u0421\u0442\u0430\u0440\u0431\u0430\u043a\u0441", "official_name": "Starbucks Coffee", "takeaway": "yes"}}, {"type": "node", "id": 5044532323, "lat": 39.624765, "lon": 19.9212856, "tags": {"addr:city": "\u039a\u03ad\u03c1\u03ba\u03c5\u03c1\u03b1", "addr:housenumber": "42", "addr:street": "\u0398\u03b5\u03bf\u03c4\u03cc\u03ba\u03b7 \u039a\u03bf\u03c4\u03b1\u03c1\u03b4\u03bf\u03c5", "amenity": "cafe", "cuisine": "greek", "internet_access": "wlan", "name": "\u039c\u03b9\u03ba\u03c1\u03cc caf\u00e9", "name:el": "\u039c\u03b9\u03ba\u03c1\u03cc caf\u00e9", "name:en": "Mikro Cafe", "opening_hours": "Mo-Sa 09:00-01:00, Su 09:00-00:00", "outdoor_seating": "yes", "phone": "26610 31009", "website": "https://www.facebook.com/mikrocafecorfu"}}, {"type": "node", "id": 5054379021, "lat": 39.6108191, "lon": 19.9226949, "tags": {"amenity": "restaurant", "cuisine": "seafood;greek;grill", "internet_access": "wlan", "name:en": "Avli", "website": "https://www.avlicorfu.com/"}}, {"type": "node", "id": 5067021667, "lat": 39.3700315, "lon": 20.3014985, "tags": {"amenity": "restaurant", "name": "Fork & Knife"}}, {"type": "node", "id": 5067021668, "lat": 39.3694853, "lon": 20.3016957, "tags": {"amenity": "restaurant", "cuisine": "pizza", "name": "\u039a\u03b1\u03c1\u03b2\u03bf\u03cd\u03bd\u03b7\u03c2", "outdoor_seating": "yes", "takeaway": "yes"}}, {"type": "node", "id": 5067021676, "lat": 39.3545617, "lon": 20.288368, "tags": {"amenity": "restaurant", "name": "Akti Arilla", "outdoor_seating": "yes"}}, {"type": "node", "id": 5067021680, "lat": 39.3694931, "lon": 20.3019885, "tags": {"amenity": "restaurant", "name": "\u039c\u03c5\u03c3\u03c4\u03ae\u03c1\u03b9\u03bf\u03c2"}}, {"type": "node", "id": 5067021681, "lat": 39.3704467, "lon": 20.3002129, "tags": {"amenity": "restaurant", "name": "Onoiron geuseis"}}, {"type": "node", "id": 5067021685, "lat": 39.3704914, "lon": 20.3004655, "tags": {"amenity": "restaurant", "name": "Thalia"}}, {"type": "node", "id": 5075001088, "lat": 39.5404479, "lon": 19.9158747, "tags": {"amenity": "restaurant", "name": "Zorbas Taverna"}}, {"type": "node", "id": 5075313319, "lat": 39.3831337, "lon": 20.1183475, "tags": {"amenity": "restaurant"}}, {"type": "node", "id": 5100227123, "lat": 39.4633453, "lon": 19.9220344, "tags": {"addr:street": "\u039a\u03ad\u03c1\u03ba\u03c5\u03c1\u03b1 - \u039b\u03b5\u03c5\u03ba\u03af\u03bc\u03bc\u03b7", "amenity": "restaurant", "cuisine": "greek", "name:de": "Archontiko", "name:en": "Archontiko", "operator": "Akis Kouris", "phone": "2661 075851", "website": "http://Archontiko.gr.com"}}, {"type": "node", "id": 5107126122, "lat": 39.6209812, "lon": 19.9173007, "tags": {"amenity": "cafe", "internet_access": "wlan", "name:en": "Sugar Cafe"}}, {"type": "node", "id": 5112419927, "lat": 39.4752203, "lon": 19.9347117, "tags": {"amenity": "restaurant", "name": "Romeo"}}, {"type": "node", "id": 5112419928, "lat": 39.4750878, "lon": 19.9354224, "tags": {"amenity": "restaurant", "cuisine": "regional", "name": "Baccus"}}, {"type": "node", "id": 5112419929, "lat": 39.4756034, "lon": 19.9350287, "tags": {"amenity": "restaurant", "name": "Korali"}}, {"type": "node", "id": 5112419930, "lat": 39.4783512, "lon": 19.9342491, "tags": {"amenity": "restaurant", "name": "Dionysos"}}, {"type": "node", "id": 5112442521, "lat": 39.4728707, "lon": 19.9367253, "tags": {"amenity": "restaurant", "name": "Merimaid bar and restaurant"}}, {"type": "node", "id": 5144966122, "lat": 39.6248426, "lon": 19.9229251, "tags": {"addr:housenumber": "17", "addr:street": "\u03a0\u03ac\u03c1\u03b3\u03b1\u03c2", "amenity": "restaurant", "name:en": "Ta Kokoria"}}, {"type": "node", "id": 5144966222, "lat": 39.6267225, "lon": 19.9217718, "tags": {"addr:housenumber": "1", "addr:street": "Lili Desila", "amenity": "restaurant", "name:en": "The Venetian Well"}}, {"type": "node", "id": 5147741321, "lat": 39.5076949, "lon": 20.2623814, "tags": {"amenity": "restaurant", "cuisine": "greek;grill;burger;chicken", "internet_access": "wlan", "name": "\u03a4\u03bf \u039c\u03c0\u03c1\u03b9\u03b6\u03bf\u03bb\u03ac\u03b4\u03b9\u03ba\u03bf \u03c4\u03bf\u03c5 \u039b\u03bf\u03cd\u03b7", "name:el": "\u03a4\u03bf \u039c\u03c0\u03c1\u03b9\u03b6\u03bf\u03bb\u03ac\u03b4\u03b9\u03ba\u03bf \u03c4\u03bf\u03c5 \u039b\u03bf\u03cd\u03b7", "name:en": "To Brizoladiko tou Loui"}}, {"type": "node", "id": 5175235121, "lat": 39.6400676, "lon": 19.8046823, "tags": {"amenity": "restaurant", "cuisine": "greek", "name": "\u039b\u03b1\u03b4\u03cc\u03ba\u03bf\u03bb\u03bb\u03b1 \u03a8\u03b7\u03c3\u03c4\u03b1\u03c1\u03b9\u03ac", "name:el": "\u039b\u03b1\u03b4\u03cc\u03ba\u03bf\u03bb\u03bb\u03b1 \u03a8\u03b7\u03c3\u03c4\u03b1\u03c1\u03b9\u03ac", "name:en": "Ladokola Grill House"}}, {"type": "node", "id": 5187216309, "lat": 39.6247736, "lon": 20.1814861, "tags": {"amenity": "cafe", "name": "Sea You"}}, {"type": "node", "id": 5187216310, "lat": 39.6245763, "lon": 20.1815732, "tags": {"amenity": "restaurant", "name": "\u03a3\u03ba\u03ac\u03bb\u03c9\u03bc\u03b1"}}, {"type": "node", "id": 5190388137, "lat": 39.5216428, "lon": 19.8615916, "tags": {"amenity": "cafe", "name:de": "Ano Pavliana", "name:en": "Ano Pavliana"}}, {"type": "node", "id": 5196592949, "lat": 39.4593795, "lon": 20.2645962}, {"type": "node", "id": 5196592972, "lat": 39.4593682, "lon": 20.264586}, {"type": "node", "id": 5196592973, "lat": 39.4595267, "lon": 20.2644009}, {"type": "node", "id": 5196592974, "lat": 39.4595748, "lon": 20.2644763}, {"type": "node", "id": 5196592975, "lat": 39.4594316, "lon": 20.264643}, {"type": "node", "id": 5215244901, "lat": 39.624708, "lon": 19.9219036, "tags": {"amenity": "cafe", "cuisine": "pancakes", "name": "Creperie \"Koukounara\""}}, {"type": "node", "id": 5300463482, "lat": 39.5027281, "lon": 20.2657254, "tags": {"amenity": "cafe", "name": "\u03a4\u03bf \u03c3\u03c4\u03b5\u03ba\u03b9"}}, {"type": "node", "id": 5300463490, "lat": 39.5021851, "lon": 20.2654637, "tags": {"amenity": "cafe"}}, {"type": "node", "id": 5300463491, "lat": 39.5021112, "lon": 20.2654596, "tags": {"amenity": "cafe", "name": "Da copa"}}, {"type": "node", "id": 5300463496, "lat": 39.5017608, "lon": 20.2649996, "tags": {"amenity": "cafe", "name": "Passepartout"}}, {"type": "node", "id": 5300463497, "lat": 39.5017521, "lon": 20.2649295, "tags": {"amenity": "cafe", "name": "Duomo caff\u00e8"}}, {"type": "node", "id": 5300495375, "lat": 39.5015101, "lon": 20.2643439, "tags": {"amenity": "cafe", "name": "Cartel"}}, {"type": "node", "id": 5300495380, "lat": 39.502787, "lon": 20.2648281, "tags": {"amenity": "cafe", "name": "Meeting"}}, {"type": "node", "id": 5300520434, "lat": 39.5038861, "lon": 20.2631742, "tags": {"amenity": "cafe", "name": "Presto"}}, {"type": "node", "id": 5300581243, "lat": 39.5053199, "lon": 20.2641724, "tags": {"amenity": "cafe", "name": "\u03a7\u03b1\u03c1\u03b1\u03bc\u03b1"}}, {"type": "node", "id": 5300581258, "lat": 39.5052759, "lon": 20.2629577, "tags": {"amenity": "cafe", "name": "Del mar"}}, {"type": "node", "id": 5300605647, "lat": 39.505747, "lon": 20.2629779, "tags": {"amenity": "restaurant", "name": "\u039b\u03b9\u03b8\u03bf\u03c2"}}, {"type": "node", "id": 5300648572, "lat": 39.5036497, "lon": 20.2644291, "tags": {"amenity": "cafe", "name": "All day coffee"}}, {"type": "node", "id": 5300648581, "lat": 39.5032797, "lon": 20.264849, "tags": {"amenity": "cafe", "name": "\u0397 \u03c3\u03c4\u03bf\u03b1"}}, {"type": "node", "id": 5300704925, "lat": 39.5016951, "lon": 20.2644701, "tags": {"amenity": "restaurant", "name": "\u0397 \u0394\u03ce\u03c1\u03b1"}}, {"type": "node", "id": 5300704929, "lat": 39.5013976, "lon": 20.2644788, "tags": {"amenity": "cafe", "name": "Espresso"}}, {"type": "node", "id": 5300704936, "lat": 39.5010746, "lon": 20.2638913, "tags": {"amenity": "cafe"}}, {"type": "node", "id": 5300704940, "lat": 39.500962, "lon": 20.2640063, "tags": {"amenity": "restaurant", "name": "\u03a4\u03bf \u03ba\u03cd\u03bc\u03b1"}}, {"type": "node", "id": 5300704944, "lat": 39.5008765, "lon": 20.2637441, "tags": {"amenity": "cafe", "name": "\u0395\u1f56 \u03ba\u03b1\u03c1\u03c0\u03bf\u1fd6\u03c2"}}, {"type": "node", "id": 5300704945, "lat": 39.5008149, "lon": 20.2637525, "tags": {"amenity": "cafe", "name": "Kafe meze il porto"}}, {"type": "node", "id": 5300704948, "lat": 39.49997, "lon": 20.264004, "tags": {"amenity": "cafe", "name": "Smiris"}}, {"type": "node", "id": 5300704949, "lat": 39.4999286, "lon": 20.2640134, "tags": {"amenity": "cafe", "brand": "Coffee Island", "brand:wikidata": "Q60867333", "brand:wikipedia": "en:Coffee Island", "cuisine": "coffee_shop", "name": "Coffee Island", "takeaway": "yes"}}, {"type": "node", "id": 5300704952, "lat": 39.4993696, "lon": 20.264152, "tags": {"amenity": "cafe", "name": "\u0391\u03af\u03b8\u03c1\u03b9\u03bf (quadrangle)"}}, {"type": "node", "id": 5300704960, "lat": 39.4986791, "lon": 20.2642155, "tags": {"amenity": "restaurant", "name": "Emily akti"}}, {"type": "node", "id": 5300739154, "lat": 39.4958857, "lon": 20.2627337, "tags": {"amenity": "cafe", "name": "Cafe Anatoli"}}, {"type": "node", "id": 5300739157, "lat": 39.4963912, "lon": 20.2629094, "tags": {"amenity": "restaurant", "name": "Oscar restaurant"}}, {"type": "node", "id": 5300793311, "lat": 39.4999785, "lon": 20.2641573, "tags": {"amenity": "restaurant", "name": "Strada Marina"}}, {"type": "node", "id": 5300793315, "lat": 39.5011602, "lon": 20.2636984, "tags": {"amenity": "cafe", "name": "\u0392\u03b1\u03bd\u03af\u03bb\u03b9\u03b1"}}, {"type": "node", "id": 5300793316, "lat": 39.5012379, "lon": 20.2636835, "tags": {"amenity": "cafe", "name": "The bank"}}, {"type": "node", "id": 5300793317, "lat": 39.5015224, "lon": 20.2636267, "tags": {"amenity": "cafe", "name": "Lift"}}, {"type": "node", "id": 5300793318, "lat": 39.5017814, "lon": 20.2635396, "tags": {"amenity": "cafe", "name": "Stretto"}}, {"type": "node", "id": 5300793319, "lat": 39.5019389, "lon": 20.2635098, "tags": {"amenity": "cafe", "name": "City"}}, {"type": "node", "id": 5300793320, "lat": 39.502008, "lon": 20.2635073, "tags": {"amenity": "cafe"}}, {"type": "node", "id": 5300793822, "lat": 39.5021957, "lon": 20.2634435, "tags": {"amenity": "cafe", "name": "\u0394\u03c9\u03b4\u03ce\u03bd\u03b7"}}, {"type": "node", "id": 5300793823, "lat": 39.5022373, "lon": 20.2634401, "tags": {"amenity": "cafe", "name": "Therapy"}}, {"type": "node", "id": 5300793824, "lat": 39.5023237, "lon": 20.2634221, "tags": {"amenity": "cafe", "name": "Tram"}}, {"type": "node", "id": 5300793829, "lat": 39.502615, "lon": 20.2634054, "tags": {"amenity": "cafe", "name": "\u03a4\u03c3\u03af\u03c0\u03bf\u03c5\u03c1\u03bf"}}, {"type": "node", "id": 5302460309, "lat": 39.4946632, "lon": 20.2622769, "tags": {"amenity": "cafe", "cuisine": "burger;sandwich;pasta;breakfast;pizza;coffee_shop", "name": "Chocolat"}}, {"type": "node", "id": 5302460310, "lat": 39.4917117, "lon": 20.2606067, "tags": {"amenity": "restaurant", "name": "\u039f \u03a4\u03af\u03bc\u03bf\u03c2"}}, {"type": "node", "id": 5303724201, "lat": 39.4939881, "lon": 20.2617999, "tags": {"amenity": "cafe", "brand": "Mikel", "brand:wikidata": "Q16952021", "brand:wikipedia": "el:Mikel", "cuisine": "coffee_shop", "name": "Mikel", "takeaway": "yes"}}, {"type": "node", "id": 5303724212, "lat": 39.4953527, "lon": 20.2625464, "tags": {"amenity": "cafe"}}, {"type": "node", "id": 5303724214, "lat": 39.494416, "lon": 20.2622029, "tags": {"amenity": "cafe", "name": "\u039a\u03ac\u03c1\u03bc\u03b1"}}, {"type": "node", "id": 5303724215, "lat": 39.4925263, "lon": 20.2609582, "tags": {"amenity": "cafe", "name": "\u039c\u03c0\u03ad\u03bb\u03bb\u03bf\u03c2"}}, {"type": "node", "id": 5303724216, "lat": 39.4923483, "lon": 20.2608837, "tags": {"amenity": "cafe", "name": "Angelica Pallas"}}, {"type": "node", "id": 5303724218, "lat": 39.4890179, "lon": 20.2604849, "tags": {"amenity": "cafe", "name": "Thirsty dog"}}, {"type": "node", "id": 5310394667, "lat": 39.208992, "lon": 20.1532461, "tags": {"amenity": "restaurant", "name": "\u039f \u0397\u03bb\u03af\u03b1\u03c2"}}, {"type": "node", "id": 5310394668, "lat": 39.2095041, "lon": 20.1522328, "tags": {"amenity": "cafe", "name": "\u039f \u039c\u03c0\u03bf\u03cd\u03c1\u03bd\u03b1\u03bf\u03c2"}}, {"type": "node", "id": 5315110765, "lat": 39.4839575, "lon": 20.2887019}, {"type": "node", "id": 5315110768, "lat": 39.4837726, "lon": 20.2888568}, {"type": "node", "id": 5315110770, "lat": 39.4838273, "lon": 20.2886473}, {"type": "node", "id": 5423015678, "lat": 39.490922, "lon": 20.2602519, "tags": {"amenity": "restaurant", "name": "\u0391\u03c0\u03cc\u03b4\u03c1\u03b1\u03c3\u03b7"}}, {"type": "node", "id": 5423015679, "lat": 39.491646, "lon": 20.2605313, "tags": {"amenity": "cafe", "name": "Dolce"}}, {"type": "node", "id": 5423015688, "lat": 39.4951369, "lon": 20.262418, "tags": {"amenity": "cafe", "name": "Indigo"}}, {"type": "node", "id": 5454577694, "lat": 39.5015776, "lon": 20.2640246}, {"type": "node", "id": 5454577703, "lat": 39.5016918, "lon": 20.2640027}, {"type": "node", "id": 5454577704, "lat": 39.5017014, "lon": 20.2640872}, {"type": "node", "id": 5454577705, "lat": 39.5015706, "lon": 20.2641132}, {"type": "node", "id": 5454577706, "lat": 39.5015612, "lon": 20.2640277}, {"type": "node", "id": 5459425867, "lat": 39.5289367, "lon": 20.1579379}, {"type": "node", "id": 5459425868, "lat": 39.5288518, "lon": 20.158022}, {"type": "node", "id": 5459425869, "lat": 39.5287634, "lon": 20.1578719}, {"type": "node", "id": 5459425870, "lat": 39.5288484, "lon": 20.1577878}, {"type": "node", "id": 5480887367, "lat": 39.4440779, "lon": 20.272871, "tags": {"amenity": "restaurant", "cuisine": "pizza;italian;greek", "name": "Pizzeria To Lithino", "outdoor_seating": "yes"}}, {"type": "node", "id": 5480887371, "lat": 39.4444401, "lon": 20.2733112, "tags": {"amenity": "restaurant", "cuisine": "seafood;greek", "name": "Seafood Kokosis", "outdoor_seating": "yes"}}, {"type": "node", "id": 5482819622, "lat": 39.6239003, "lon": 19.9229037, "tags": {"addr:housenumber": "12", "addr:postcode": "49100", "addr:street": "\u0391\u03b3\u03af\u03c9\u03bd \u03a0\u03ac\u03bd\u03c4\u03c9\u03bd", "amenity": "restaurant", "cuisine": "greek", "internet_access": "wlan", "name": "\u0397 \u03a0\u03af\u03c4\u03b1 \u03c4\u03bf\u03c5 \u03a0\u03b1\u03c0\u03c0\u03bf\u03cd", "name:el": "\u0397 \u03a0\u03af\u03c4\u03b1 \u03c4\u03bf\u03c5 \u03a0\u03b1\u03c0\u03c0\u03bf\u03cd", "name:en": "Pitta Pappou", "name:ru": "\u042f \u043f\u0438\u0442\u0442\u0430 \u0441\u044c\u0435\u0448\u044c \u043c\u0435\u043d\u044f", "opening_hours": "Mo-Su 09:00-22:00", "website": "http://www.pittapappoukerkyra.gr"}}, {"type": "node", "id": 5541391466, "lat": 39.5227528, "lon": 20.2613724, "tags": {"amenity": "restaurant", "name": "Sea's"}}, {"type": "node", "id": 5600698713, "lat": 39.6452526, "lon": 19.8599553, "tags": {"amenity": "restaurant", "check_date": "2024-05-22", "cuisine": "greek", "name": "\u039a\u03ad\u03c1\u03ba\u03c5\u03c1\u03b1", "outdoor_seating": "yes"}}, {"type": "node", "id": 5622601123, "lat": 39.6046674, "lon": 19.7959271, "tags": {"amenity": "restaurant", "indoor_seating": "yes", "name": "Spiros", "outdoor_seating": "yes"}}, {"type": "node", "id": 5629970822, "lat": 39.6342485, "lon": 19.7806889, "tags": {"amenity": "cafe"}}, {"type": "node", "id": 5659092385, "lat": 39.4258469, "lon": 19.9460837, "tags": {"amenity": "restaurant", "name": "Seaside Restaurant Cafe"}}, {"type": "node", "id": 5663788921, "lat": 39.3856719, "lon": 20.1121065, "tags": {"amenity": "restaurant", "cuisine": "greek;seafood;italian_pizza;mexican", "diet:vegetarian": "yes", "internet_access": "wlan", "name:en": "The Shack"}}, {"type": "node", "id": 5667474133, "lat": 39.3847208, "lon": 20.1131698, "tags": {"amenity": "restaurant", "cuisine": "american;greek;italian_pizza;mexican", "internet_access": "wlan", "name": "Flames", "name:en": "Flames"}}, {"type": "node", "id": 5705441255, "lat": 39.5016951, "lon": 20.2640318, "tags": {"entrance": "yes"}}, {"type": "node", "id": 5705441256, "lat": 39.5016983, "lon": 20.2640595, "tags": {"entrance": "yes"}}, {"type": "node", "id": 5727907115, "lat": 39.3349398, "lon": 20.2884183, "tags": {"amenity": "restaurant", "name": "Taberna Skala"}}, {"type": "node", "id": 5734292121, "lat": 39.4522102, "lon": 20.0014777, "tags": {"amenity": "restaurant", "cuisine": "greek", "name": "Limnopoula Tavern", "name:el": "\u03a4\u03b1\u03b2\u03ad\u03c1\u03bd\u03b1 \u039b\u03b9\u03bc\u03bd\u03bf\u03c0\u03bf\u03cd\u03bb\u03b1", "opening_hours": "Mo-Su 09:30-22:30"}}, {"type": "node", "id": 5741243121, "lat": 39.3749985, "lon": 20.0684535, "tags": {"amenity": "restaurant", "cuisine": "mediterranean;burger;noodles;pasta;sandwich", "name": "Micronisi", "name:en": "Mikronisi beach venue", "opening_hours": "Mo-Su 09:00-02:00", "phone": "+306980686611", "website": "https://mikro-nisi.com/"}}, {"type": "node", "id": 5745205722, "lat": 39.6227003, "lon": 19.9192667, "tags": {"addr:city": "\u039a\u03ad\u03c1\u03ba\u03c5\u03c1\u03b1", "addr:housenumber": "13", "addr:postcode": "49100", "addr:street": "\u03a3\u03c4\u03b1\u03bc\u03b1\u03c4\u03af\u03bf\u03c5 \u0394\u03b5\u03c3\u03cd\u03bb\u03bb\u03b1", "amenity": "restaurant", "cuisine": "greek", "diet:vegan": "yes", "diet:vegetarian": "yes", "name": "Tavernas Rouvas", "name:el": "Taverna Rouvas", "name:en": "Taverna Rouvas", "name:fr": "Taverna Rouvas"}}, {"type": "node", "id": 5840200456, "lat": 39.4785317, "lon": 19.8605933, "tags": {"amenity": "restaurant", "cuisine": "regional;greek", "name": "Avra Oceanos", "outdoor_seating": "yes", "website": "https://prasoudi.gr/?page_id=75"}}, {"type": "node", "id": 5890433785, "lat": 39.6248909, "lon": 19.9091201, "tags": {"amenity": "cafe", "check_date": "2025-05-13", "cuisine": "bakery;coffee_shop", "internet_access": "no", "level": "0", "name": "\u03a6\u03bf\u03cd\u03c1\u03bd\u03bf\u03c2 \u0391\u03c5\u03b3\u03b5\u03c1\u03b9\u03bd\u03bf\u03cd", "name:el": "\u03a6\u03bf\u03cd\u03c1\u03bd\u03bf\u03c2 \u0391\u03c5\u03b3\u03b5\u03c1\u03b9\u03bd\u03bf\u03cd", "name:en": "Avgerinou Bakery", "payment:cash": "yes", "payment:credit_cards": "yes", "payment:debit_cards": "yes", "wheelchair": "limited"}}, {"type": "node", "id": 5892565186, "lat": 39.6219685, "lon": 19.9171224, "tags": {"amenity": "cafe", "name:en": "Espresso Island", "wheelchair": "limited"}}, {"type": "node", "id": 5897386592, "lat": 39.5617736, "lon": 19.9050661, "tags": {"FIXME": "continue"}}, {"type": "node", "id": 5899429386, "lat": 39.6265474, "lon": 19.9206356, "tags": {"addr:housenumber": "23", "addr:street": "\u0394\u03cc\u03bd\u03b6\u03b5\u03bb\u03bf\u03c4", "amenity": "restaurant", "name": "Salto Wine Bar"}}, {"type": "node", "id": 5908083886, "lat": 39.6244789, "lon": 19.9195042, "tags": {"amenity": "cafe", "cuisine": "greek", "name": "Gia-souvlaki"}}, {"type": "node", "id": 5912091585, "lat": 39.6244497, "lon": 19.9192066, "tags": {"addr:housenumber": "30", "addr:postcode": "49100", "addr:street": "\u0392\u03b5\u03bb\u03b9\u03c3\u03c3\u03b1\u03c1\u03af\u03bf\u03c5", "amenity": "restaurant", "name": "Abakas mezedopoleio", "phone": "+30 2661304219"}}, {"type": "node", "id": 5918111026, "lat": 39.6238505, "lon": 19.9234894, "tags": {"addr:city": "\u039a\u03ad\u03c1\u03ba\u03c5\u03c1\u03b1", "addr:housenumber": "5", "addr:postcode": "49100", "addr:street": "\u039a\u03b1\u03c0\u03bf\u03b4\u03b9\u03c3\u03c4\u03c1\u03af\u03bf\u03c5", "amenity": "cafe", "check_date": "2023-06-25", "name": "Cafe Grec", "outdoor_seating": "yes", "toilets": "yes", "wheelchair": "no"}}, {"type": "node", "id": 5964169730, "lat": 39.6199255, "lon": 19.9181734, "tags": {"amenity": "cafe"}}, {"type": "node", "id": 5964169732, "lat": 39.6155253, "lon": 19.9201849, "tags": {"amenity": "cafe"}}, {"type": "node", "id": 5964170499, "lat": 39.6214653, "lon": 19.9167463, "tags": {"amenity": "restaurant", "name": "\u039c\u03ad\u03c1\u03b9\u03b1\u03bd\u03bf\u03c2", "wheelchair": "limited"}}, {"type": "node", "id": 5969053371, "lat": 39.426073, "lon": 19.9449786, "tags": {"addr:city": "Corfu", "addr:postcode": "49080", "addr:street": "St. George South", "amenity": "restaurant", "capacity": "50", "cuisine": "greek", "name": "Rouvelas taverna", "opening_hours": "Mo-Su 09:00-23:30", "outdoor_seating": "yes", "takeaway": "no", "toilets:wheelchair": "no", "wheelchair": "yes"}}, {"type": "node", "id": 5983125004, "lat": 39.6160973, "lon": 19.9119494, "tags": {"amenity": "cafe"}}, {"type": "node", "id": 5993767689, "lat": 39.5831139, "lon": 19.915051, "tags": {"amenity": "restaurant", "name:en": "Avra"}}, {"type": "node", "id": 5993767690, "lat": 39.5770723, "lon": 19.9133945, "tags": {"amenity": "cafe", "name:en": "Monte Caf\u00e9"}}, {"type": "node", "id": 6022133917, "lat": 39.5800342, "lon": 19.9138642}, {"type": "node", "id": 6022133924, "lat": 39.5800774, "lon": 19.9140174}, {"type": "node", "id": 6022133945, "lat": 39.5799642, "lon": 19.913897}, {"type": "node", "id": 6022133946, "lat": 39.5800066, "lon": 19.9140633}, {"type": "node", "id": 6022133947, "lat": 39.5800087, "lon": 19.9141398}, {"type": "node", "id": 6022133948, "lat": 39.5801069, "lon": 19.91418}, {"type": "node", "id": 6022133949, "lat": 39.5801709, "lon": 19.913973}, {"type": "node", "id": 6117197055, "lat": 39.3983478, "lon": 20.255694}, {"type": "node", "id": 6117197056, "lat": 39.3984649, "lon": 20.2556371}, {"type": "node", "id": 6117197057, "lat": 39.3986498, "lon": 20.2556158}, {"type": "node", "id": 6117197058, "lat": 39.3987011, "lon": 20.2556585}, {"type": "node", "id": 6117197059, "lat": 39.3988054, "lon": 20.2554689}, {"type": "node", "id": 6117197060, "lat": 39.3989207, "lon": 20.2555495}, {"type": "node", "id": 6117197061, "lat": 39.3987487, "lon": 20.2559166}, {"type": "node", "id": 6117197062, "lat": 39.3986425, "lon": 20.2559759}, {"type": "node", "id": 6117197063, "lat": 39.3985949, "lon": 20.2558408}, {"type": "node", "id": 6117197064, "lat": 39.3985327, "lon": 20.2557793}, {"type": "node", "id": 6201884651, "lat": 39.6222164, "lon": 19.9178092, "tags": {"amenity": "cafe", "check_date": "2025-05-14", "cuisine": "ice_cream;cake;coffee_shop;tea;juice;dessert;pastry;bakery", "internet_access": "wlan", "internet_access:fee": "customers", "level": "0", "name": "Emeral", "outdoor_seating": "yes", "payment:cash": "yes", "payment:credit_cards": "yes", "payment:debit_cards": "yes"}}, {"type": "node", "id": 6201884652, "lat": 39.6221473, "lon": 19.9172609, "tags": {"amenity": "cafe", "brand": "Coffee Island", "brand:wikidata": "Q60867333", "brand:wikipedia": "en:Coffee Island", "check_date": "2025-05-14", "cuisine": "coffee_shop;sandwich;donut;tea;juice", "internet_access": "wlan", "internet_access:fee": "customers", "level": "0", "name": "Coffee Island", "outdoor_seating": "yes", "payment:cash": "yes", "payment:credit_cards": "yes", "payment:debit_cards": "yes", "takeaway": "yes", "wheelchair": "no"}}, {"type": "node", "id": 6207525393, "lat": 39.6217363, "lon": 19.9174266, "tags": {"amenity": "cafe", "name": "Rialto Cafe"}}, {"type": "node", "id": 6207525401, "lat": 39.6213786, "lon": 19.9181186, "tags": {"amenity": "cafe", "check_date": "2025-05-14", "cuisine": "sandwich;crepe;burger", "level": "0", "name": "Metro Crepe Station", "name:en": "Metro Crepe Station", "outdoor_seating": "yes", "payment:cash": "yes", "payment:credit_cards": "yes", "payment:debit_cards": "yes", "wheelchair": "no"}}, {"type": "node", "id": 6207550135, "lat": 39.6221854, "lon": 19.9173118, "tags": {"amenity": "restaurant", "check_date": "2023-06-17", "cuisine": "kebab", "internet_access": "wlan", "internet_access:fee": "no", "internet_access:ssid": "EXPRESSSAROCO", "level": "0", "name": "Souvlike", "outdoor_seating": "yes", "payment:debit_cards": "yes", "phone": "+30 2661 027131", "takeaway": "yes", "wheelchair": "limited"}}, {"type": "node", "id": 6207569297, "lat": 39.6223853, "lon": 19.9172791, "tags": {"amenity": "cafe", "name": "5th Avenue"}}, {"type": "node", "id": 6207569298, "lat": 39.6223482, "lon": 19.9173864, "tags": {"amenity": "cafe", "name": "Momen"}}, {"type": "node", "id": 6207722024, "lat": 39.6221124, "lon": 19.9181275, "tags": {"amenity": "cafe", "name": "Del Capo", "wheelchair": "no"}}, {"type": "node", "id": 6207722028, "lat": 39.622195, "lon": 19.9178619, "tags": {"amenity": "cafe", "name": "Big Apple", "wheelchair": "no"}}, {"type": "node", "id": 6207727446, "lat": 39.6220339, "lon": 19.9188628, "tags": {"amenity": "cafe", "name": "Azienda Cafe"}}, {"type": "node", "id": 6207736395, "lat": 39.6210857, "lon": 19.9186974, "tags": {"amenity": "cafe", "cuisine": "burger;sandwich", "internet_access": "wlan", "name": "Miky Coffee", "outdoor_seating": "yes", "toilets:wheelchair": "no", "wheelchair": "yes"}}, {"type": "node", "id": 6207738247, "lat": 39.6211818, "lon": 19.9189786, "tags": {"amenity": "cafe", "name": "My Habit"}}, {"type": "node", "id": 6327151540, "lat": 39.4671216, "lon": 20.2504381}, {"type": "node", "id": 6327151541, "lat": 39.4670452, "lon": 20.2505384}, {"type": "node", "id": 6327151542, "lat": 39.4669437, "lon": 20.2504061}, {"type": "node", "id": 6327151543, "lat": 39.4670226, "lon": 20.2503075}, {"type": "node", "id": 6327170933, "lat": 39.4839065, "lon": 20.2889117}, {"type": "node", "id": 6327207656, "lat": 39.4884991, "lon": 20.2777768}, {"type": "node", "id": 6327207657, "lat": 39.4884252, "lon": 20.2777764}, {"type": "node", "id": 6327207658, "lat": 39.4884998, "lon": 20.2776458}, {"type": "node", "id": 6327207659, "lat": 39.4884253, "lon": 20.2776455}, {"type": "node", "id": 6449408454, "lat": 39.5667756, "lon": 19.8641176}, {"type": "node", "id": 6449408455, "lat": 39.5668331, "lon": 19.8641507}, {"type": "node", "id": 6449408456, "lat": 39.5669469, "lon": 19.8641357}, {"type": "node", "id": 6449408457, "lat": 39.5667987, "lon": 19.8640503}, {"type": "node", "id": 6449408458, "lat": 39.5667662, "lon": 19.8643461}, {"type": "node", "id": 6449408459, "lat": 39.5668569, "lon": 19.8643984}, {"type": "node", "id": 6450575762, "lat": 39.6068979, "lon": 19.8955847}, {"type": "node", "id": 6450575763, "lat": 39.6068061, "lon": 19.8956435}, {"type": "node", "id": 6450575764, "lat": 39.6066367, "lon": 19.8951986}, {"type": "node", "id": 6450575765, "lat": 39.6067394, "lon": 19.8951327}, {"type": "node", "id": 6468242786, "lat": 39.6156271, "lon": 19.8944743, "tags": {"addr:street": "Mamaloi, 491 50 Alepou, Corfu Corfu Greece", "amenity": "restaurant", "cuisine": "greek;barbecue", "internet_access": "wlan", "name": "\u03a0\u03ac\u03c0\u03c1\u03b9\u03ba\u03b1", "name:de": "Paprika Steakhouse", "name:el": "\u03a0\u03ac\u03c0\u03c1\u03b9\u03ba\u03b1", "opening_hours": "Mo-Su 12:30-00:30", "website": "https://www.corfudeliveras.gr/corfu-delivery-kerkyra/\u03c0\u03b1\u03c0\u03c1\u03b9\u03ba\u03b1/"}}, {"type": "node", "id": 6469999317, "lat": 39.5184915, "lon": 20.1949368, "tags": {"amenity": "cafe"}}, {"type": "node", "id": 6473757407, "lat": 39.3649629, "lon": 20.3010046}, {"type": "node", "id": 6473757408, "lat": 39.3649183, "lon": 20.3009636}, {"type": "node", "id": 6473757409, "lat": 39.364854, "lon": 20.3010804}, {"type": "node", "id": 6473757410, "lat": 39.3648986, "lon": 20.3011215}, {"type": "node", "id": 6506428933, "lat": 39.5017966, "lon": 20.264068}, {"type": "node", "id": 6506428934, "lat": 39.5018662, "lon": 20.2640582}, {"type": "node", "id": 6506428935, "lat": 39.5018597, "lon": 20.2639804}, {"type": "node", "id": 6506428936, "lat": 39.5017901, "lon": 20.2639902}, {"type": "node", "id": 6506428937, "lat": 39.5017881, "lon": 20.2639612}, {"type": "node", "id": 6506428938, "lat": 39.5018562, "lon": 20.2639506}, {"type": "node", "id": 6506428939, "lat": 39.5018458, "lon": 20.2638383}, {"type": "node", "id": 6506428940, "lat": 39.5017777, "lon": 20.2638489}, {"type": "node", "id": 6550946501, "lat": 39.5962256, "lon": 19.8254576, "tags": {"amenity": "restaurant", "name": "staurodromi"}}, {"type": "node", "id": 6550977502, "lat": 39.5955165, "lon": 19.8270762, "tags": {"amenity": "restaurant", "internet_access": "wlan", "name": "Sun-Splashed Skyline Apt.", "operator": "Booking.com", "rooms": "1"}}, {"type": "node", "id": 6555614562, "lat": 39.207297, "lon": 20.1548173, "tags": {"amenity": "restaurant"}}, {"type": "node", "id": 6555632899, "lat": 39.2170665, "lon": 20.1619924, "tags": {"amenity": "restaurant", "name": "Pratigos Taverna"}}, {"type": "node", "id": 6560277179, "lat": 39.2089514, "lon": 20.1630238, "tags": {"amenity": "restaurant", "name": "Dolos"}}, {"type": "node", "id": 6564268430, "lat": 39.2345638, "lon": 20.1361078, "tags": {"amenity": "restaurant", "name": "La Piazza"}}, {"type": "node", "id": 6564271830, "lat": 39.2344657, "lon": 20.1356261, "tags": {"amenity": "restaurant", "name": "Stasinos Garden Restaurant"}}, {"type": "node", "id": 6587367178, "lat": 39.383356, "lon": 20.1155192, "tags": {"amenity": "restaurant", "cuisine": "chinese", "description": "Chinese and Thai Cuisine", "name": "Golden Courser", "opening_hours": "Mo-Su 17:00-23:45"}}, {"type": "node", "id": 6656178089, "lat": 39.6256305, "lon": 19.9091972, "tags": {"addr:postcode": "49100", "amenity": "restaurant", "check_date": "2025-05-15", "cuisine": "sandwich;hot_dog", "delivery": "no", "diet:meat": "yes", "diet:pork": "yes", "diet:vegan": "yes", "diet:vegetarian": "yes", "highchair": "yes", "internet_access": "no", "level": "0", "name": "To Vromiko", "name:en": "To Vromiko", "outdoor_seating": "yes", "payment:cash": "yes", "payment:credit_cards": "yes", "payment:debit_cards": "yes", "source": "local knowledge", "takeaway": "yes", "toilets": "yes", "toilets:menstrual_products": "no", "wheelchair": "yes"}}, {"type": "node", "id": 6656178100, "lat": 39.6256425, "lon": 19.9193863, "tags": {"amenity": "restaurant"}}, {"type": "node", "id": 6656178107, "lat": 39.6238889, "lon": 19.9236263, "tags": {"amenity": "cafe", "check_date": "2023-06-25", "name": "Libro d'Oro", "name:en": "Libro d'Oro"}}, {"type": "node", "id": 6656178285, "lat": 39.626876, "lon": 19.9060829, "tags": {"amenity": "cafe"}}, {"type": "node", "id": 6656178286, "lat": 39.625804, "lon": 19.9069163, "tags": {"amenity": "cafe", "name:en": "Cava Nekka"}}, {"type": "node", "id": 6656178298, "lat": 39.6270964, "lon": 19.9150111, "tags": {"amenity": "cafe", "name:en": "Stathis"}}, {"type": "node", "id": 6656178299, "lat": 39.6270908, "lon": 19.9152646, "tags": {"amenity": "cafe", "name:en": "Alegr\u00eda"}}, {"type": "node", "id": 6656178310, "lat": 39.6237701, "lon": 19.9204235, "tags": {"amenity": "restaurant", "cuisine": "greek", "name": "Elia Homemade Greek Cuisine", "name:es": "Taberna Elia"}}, {"type": "node", "id": 6656178332, "lat": 39.6247373, "lon": 19.9237993, "tags": {"amenity": "restaurant", "name:en": "Gondola"}}, {"type": "node", "id": 6656178343, "lat": 39.626066, "lon": 19.920036, "tags": {"amenity": "cafe"}}, {"type": "node", "id": 6656178352, "lat": 39.624941, "lon": 19.9188522, "tags": {"amenity": "restaurant", "name": "Marinas Tavern"}}, {"type": "node", "id": 6656178494, "lat": 39.625873, "lon": 19.9197133, "tags": {"amenity": "restaurant", "name": "Mavros Tatoor"}}, {"type": "node", "id": 6656178498, "lat": 39.6249881, "lon": 19.9196945, "tags": {"amenity": "cafe", "name": "The Dream"}}, {"type": "node", "id": 6656178511, "lat": 39.6257805, "lon": 19.9196555, "tags": {"amenity": "restaurant", "name": "Xenia"}}, {"type": "node", "id": 6656178517, "lat": 39.6258864, "lon": 19.9123394, "tags": {"amenity": "cafe", "name:en": "Porto Bello"}}, {"type": "node", "id": 6656178518, "lat": 39.6258288, "lon": 19.912177, "tags": {"amenity": "cafe", "name:en": "Onan"}}, {"type": "node", "id": 6656178519, "lat": 39.625667, "lon": 19.9119828, "tags": {"amenity": "cafe", "indoor_seating": "yes", "name:en": "Cofee Factory", "outdoor_seating": "yes"}}, {"type": "node", "id": 6656178521, "lat": 39.6256145, "lon": 19.9117441, "tags": {"amenity": "cafe", "check_date": "2025-05-14", "cuisine": "coffee_shop;greek;sandwich;burger", "internet_access": "wlan", "internet_access:fee": "customers", "name": "\u0386\u03bb\u03c3\u03bf\u03c2 Coffee & Food Bar", "name:el": "\u0386\u03bb\u03c3\u03bf\u03c2 Coffee & Food Bar", "name:en": "Alsos Coffee & Food Bar", "outdoor_seating": "yes", "payment:cash": "yes", "payment:credit_cards": "yes", "payment:debit_cards": "yes", "wheelchair": "limited"}}, {"type": "node", "id": 6656178525, "lat": 39.6257496, "lon": 19.9071694, "tags": {"amenity": "cafe", "name:en": "\u00d8a"}}, {"type": "node", "id": 6656187687, "lat": 39.6261174, "lon": 19.9201547, "tags": {"amenity": "restaurant", "name": "Mapkas"}}, {"type": "node", "id": 6673264285, "lat": 39.5466839, "lon": 19.9128421, "tags": {"addr:city": "\u039a\u03b5\u03c1\u03ba\u03c5\u03c1\u03b1", "addr:country": "GR", "addr:postcode": "49100", "addr:street": "Benitses main Square", "amenity": "restaurant", "cuisine": "greek", "email": "neongrillbenitses@gmail.com", "internet_access": "wlan", "name": "Neon Grill & Restaurant", "phone": "+302661072334"}}, {"type": "node", "id": 6681488097, "lat": 39.6232116, "lon": 19.9225761, "tags": {"amenity": "restaurant", "cuisine": "italian", "name": "Nolita", "outdoor_seating": "yes", "smoking": "outside"}}, {"type": "node", "id": 6681488098, "lat": 39.6233957, "lon": 19.9225742, "tags": {"amenity": "restaurant", "cuisine": "greek", "name": "Olive tree", "outdoor_seating": "yes", "smoking": "outside"}}, {"type": "node", "id": 6681840878, "lat": 39.6298837, "lon": 19.8950893, "tags": {"amenity": "restaurant", "name": "Mylos"}}, {"type": "node", "id": 6696597630, "lat": 39.3528657, "lon": 20.2877389}, {"type": "node", "id": 6696597631, "lat": 39.3527435, "lon": 20.2877814}, {"type": "node", "id": 6696597632, "lat": 39.3527834, "lon": 20.2879729}, {"type": "node", "id": 6696597633, "lat": 39.3529056, "lon": 20.2879304}, {"type": "node", "id": 6696873910, "lat": 39.354609, "lon": 20.2884822}, {"type": "node", "id": 6696873911, "lat": 39.3544525, "lon": 20.2884179}, {"type": "node", "id": 6696873912, "lat": 39.3544987, "lon": 20.2882299}, {"type": "node", "id": 6696873913, "lat": 39.3546541, "lon": 20.2882937}, {"type": "node", "id": 6696873914, "lat": 39.3546405, "lon": 20.2883491}, {"type": "node", "id": 6696873915, "lat": 39.3546697, "lon": 20.2883611}, {"type": "node", "id": 6696873916, "lat": 39.3546406, "lon": 20.2884796}, {"type": "node", "id": 6696873917, "lat": 39.3546125, "lon": 20.288468}, {"type": "node", "id": 6696899152, "lat": 39.3528996, "lon": 20.2879015}, {"type": "node", "id": 6696899153, "lat": 39.35288, "lon": 20.2878074}, {"type": "node", "id": 6700421326, "lat": 39.6452488, "lon": 19.8516327, "tags": {"amenity": "cafe", "name": "Pita Pita"}}, {"type": "node", "id": 6707461485, "lat": 39.6450822, "lon": 19.85566, "tags": {"amenity": "restaurant", "name": "Taverna Zorbas Kontokali", "name:fr": "zorba"}}, {"type": "node", "id": 6723037586, "lat": 39.5421776, "lon": 19.914413, "tags": {"amenity": "restaurant", "name:en": "Big Bite", "opening_hours": "Mo-Su 09:00-02:00"}}, {"type": "node", "id": 6727444100, "lat": 39.6243036, "lon": 19.9213165, "tags": {"addr:city": "Kerkyra - CORFU TOWN", "addr:housenumber": "14", "addr:postcode": "491 31", "addr:street": "\u039a\u039f\u03a1\u0399\u039d\u0398\u0399\u03a9\u039d", "air_conditioning": "yes", "amenity": "cafe", "bar": "yes", "cuisine": "coffee_shop", "description": "No frills coffee shop. Locals and visitors. Mixed ages. Family friendly. Greek and international coffee.", "internet_access": "yes", "internet_access:fee": "yes", "name": "Cafe ARKOUDA", "outdoor_seating": "yes", "payment:cash": "yes", "payment:contactless": "yes", "payment:credit_cards": "yes", "payment:debit_cards": "yes"}}, {"type": "node", "id": 6865103485, "lat": 39.6232212, "lon": 19.9233201, "tags": {"amenity": "restaurant", "name": "Pane e Psaraki", "name:en": "Pane e Psaraki"}}, {"type": "node", "id": 6867918887, "lat": 39.6220122, "lon": 19.9226224, "tags": {"amenity": "restaurant", "name": "Il Vesuvio", "name:en": "Il Vesuvio"}}, {"type": "node", "id": 6918313640, "lat": 39.5529105, "lon": 19.8875508, "tags": {"addr:city": "\u0386\u03b3\u03b9\u03bf\u03b9 \u0394\u03ad\u03ba\u03b1", "amenity": "restaurant", "cuisine": "regional", "name": "Areti's Place", "phone": "+302661056348;+306946727551"}}, {"type": "node", "id": 7040539685, "lat": 39.6251026, "lon": 19.9237984, "tags": {"amenity": "restaurant"}}, {"type": "node", "id": 7150341286, "lat": 39.6252453, "lon": 19.9196865, "tags": {"amenity": "restaurant", "name": "Safran Mediterranean"}}, {"type": "node", "id": 7150345485, "lat": 39.6249141, "lon": 19.9220476, "tags": {"amenity": "restaurant", "name": "Anthos"}}, {"type": "node", "id": 7575762385, "lat": 39.6400773, "lon": 19.8047749, "tags": {"amenity": "restaurant", "cuisine": "greek", "name": "\u03a3\u03c4\u03bf\u03c5 \u039c\u03b1\u03ba\u03ac", "phone": "6936607277"}}, {"type": "node", "id": 7625771385, "lat": 39.6238831, "lon": 19.9206788, "tags": {"amenity": "restaurant", "name": "\u03a4\u03b1\u03b2\u03ad\u03c1\u03bd\u03b1 \u03a8\u03b7\u03c3\u03c4\u03b1\u03c1\u03b9\u03ac \u03a4\u03bf \u0394\u03af\u03c0\u03bf\u03c1\u03c4\u03bf", "name:el": "\u03a4\u03b1\u03b2\u03ad\u03c1\u03bd\u03b1 \u03a8\u03b7\u03c3\u03c4\u03b1\u03c1\u03b9\u03ac \u03a4\u03bf \u0394\u03af\u03c0\u03bf\u03c1\u03c4\u03bf", "name:en": "Traditional Taverna Diporto"}}, {"type": "node", "id": 7637957786, "lat": 39.3872881, "lon": 20.2740477, "tags": {"amenity": "restaurant", "internet_access": "wlan", "name:en": "Elaia plus"}}, {"type": "node", "id": 7638015885, "lat": 39.3834815, "lon": 20.2780684, "tags": {"amenity": "restaurant", "cuisine": "fish;greek", "name": "\u039a\u03b1\u03bc\u03af\u03bd\u03b9", "name:el": "\u039a\u03b1\u03bc\u03af\u03bd\u03b9", "name:en": "Kamini"}}, {"type": "node", "id": 7647368259, "lat": 39.3836239, "lon": 20.2797303, "tags": {"amenity": "restaurant", "cuisine": "greek", "name": "\u0391\u03b3\u03ba\u03ac\u03bb\u03b7", "name:el": "\u0391\u03b3\u03ba\u03ac\u03bb\u03b7", "name:en": "Agali", "website": "http://agali-restaurant.gr/"}}, {"type": "node", "id": 7673605385, "lat": 39.4222777, "lon": 20.0624657, "tags": {"amenity": "restaurant", "int_name": "Ladokolla", "name": "\u039b\u03b1\u03b4\u03cc\u03ba\u03bf\u03bb\u03bb\u03b1"}}, {"type": "node", "id": 7728770100, "lat": 39.4280451, "lon": 19.9416608, "tags": {"amenity": "restaurant", "cuisine": "american", "name": "Mondo's Bar & Grill", "outdoor_seating": "yes", "phone": "+306988525809", "smoking": "outside"}}, {"type": "node", "id": 7829845016, "lat": 39.2875932, "lon": 20.3401685, "tags": {"amenity": "restaurant", "cuisine": "greek", "name": "Taverna Resalto"}}, {"type": "node", "id": 7832459501, "lat": 39.5620692, "lon": 19.9033832}, {"type": "node", "id": 7832459502, "lat": 39.5619744, "lon": 19.9034976}, {"type": "node", "id": 7832459503, "lat": 39.5618487, "lon": 19.9033222}, {"type": "node", "id": 7832459504, "lat": 39.5619435, "lon": 19.9032078}, {"type": "node", "id": 7832459505, "lat": 39.561843, "lon": 19.9052331}, {"type": "node", "id": 7832459506, "lat": 39.5618356, "lon": 19.9050733}, {"type": "node", "id": 7832459507, "lat": 39.5617755, "lon": 19.9050123}, {"type": "node", "id": 7832459508, "lat": 39.5616874, "lon": 19.9050099}, {"type": "node", "id": 7832459509, "lat": 39.5616955, "lon": 19.9052493}, {"type": "node", "id": 7832459510, "lat": 39.5617813, "lon": 19.9052985}, {"type": "node", "id": 7842219285, "lat": 39.6268653, "lon": 19.9219455, "tags": {"amenity": "cafe", "name:en": "Favela #17"}}, {"type": "node", "id": 7900035503, "lat": 39.5946008, "lon": 19.804626, "tags": {"amenity": "restaurant", "name": "Glyfada Mexas Club", "outdoor_seating": "yes", "website": "https://www.facebook.com/glydadabeachrestaurant"}}, {"type": "node", "id": 7917866378, "lat": 39.6253886, "lon": 19.9239477, "tags": {"amenity": "restaurant", "diet:vegetarian": "yes", "name": "Aubergine"}}, {"type": "node", "id": 7937401849, "lat": 39.3936247, "lon": 20.2685174}, {"type": "node", "id": 7937401850, "lat": 39.3935712, "lon": 20.2685008}, {"type": "node", "id": 7937401851, "lat": 39.3935899, "lon": 20.2683997}, {"type": "node", "id": 7937401852, "lat": 39.3936435, "lon": 20.2684163}, {"type": "node", "id": 8384693200, "lat": 39.5669654, "lon": 19.9091817, "tags": {"amenity": "restaurant", "cuisine": "greek", "name": "\u03a4\u03b1\u03b2\u03ad\u03c1\u03bd\u03b1 \u03a4\u03ac\u03c3\u03bf\u03c2", "name:el": "\u03a4\u03b1\u03b2\u03ad\u03c1\u03bd\u03b1 \u03a4\u03ac\u03c3\u03bf\u03c2", "name:en": "Tasos Taverna", "opening_hours": "Jun-Sep: Mo-Su 10:00-23:00"}}, {"type": "node", "id": 8390120659, "lat": 39.2260019, "lon": 20.1611761}, {"type": "node", "id": 8390324589, "lat": 39.2257728, "lon": 20.162006}, {"type": "node", "id": 8612119339, "lat": 39.5466031, "lon": 19.9128184, "tags": {"addr:city": "\u039a\u03b5\u03c1\u03ba\u03c5\u03c1\u03b1", "addr:country": "GR", "addr:postcode": "49084", "addr:street": "\u039a\u03ad\u03c1\u03ba\u03c5\u03c1\u03b1 - \u039b\u03b5\u03c5\u03ba\u03af\u03bc\u03bc\u03b7", "addr:unit": "\u039c\u03c0\u03b5\u03bd\u03b9\u03c4\u03c3\u03b5\u03c2", "amenity": "restaurant", "cuisine": "greek;seafood;traditional", "email": "florasrestaurant1@gmail.com", "name": "Flora's Restaurant", "phone": "+306980905588"}}, {"type": "node", "id": 8752587138, "lat": 39.6225919, "lon": 19.9226489, "tags": {"amenity": "restaurant", "name": "Porta Remounda", "name:en": "Porta Remounda"}}, {"type": "node", "id": 8753110761, "lat": 39.604736, "lon": 19.7958114},