{"version": 0.6, "generator": "Overpass API 0.7.62.7 375dc00a", "osm3s": {"timestamp_osm_base": "2025-06-14T15:27:15Z", "copyright": "The data included in this document is from www.openstreetmap.org. The data is made available under ODbL."}, "elements": [{"type": "node", "id": 3753387903, "lat": 40.6178118, "lon": 40.2914507, "tags": {"amenity": "restaurant", "name": "Ada"}}, {"type": "node", "id": 3754731072, "lat": 40.6188326, "lon": 40.3027373, "tags": {"amenity": "restaurant"}}, {"type": "node", "id": 3754734565, "lat": 40.6182632, "lon": 40.29323, "tags": {"addr:city": "Trabzon", "addr:district": "\u00c7aykara", "addr:housenumber": "38", "addr:neighbourhood": "Uzung\u00f6l", "addr:postcode": "61960", "addr:street": "Fevzi \u00c7akmak", "amenity": "cafe", "cuisine": "burger;coffee_shop;italian;regional;american;chicken;ice_cream;international;thai;local;breakfast;bread;turkish;italian_pizza;pasta;crepe;waffle;dessert;meat;salad;pizza", "email": "info@zeenlounge.com", "internet_access": "yes", "internet_access:fee": "no", "internet_access:ssid": "ZEEN", "name": "Zeen Lounge Cafe", "opening_hours": "24/7", "outdoor_seating": "yes", "payment:american_express": "yes", "payment:apple_pay": "yes", "payment:cash": "yes", "payment:google_pay": "yes", "payment:maestro": "yes", "payment:mastercard": "yes", "payment:nakit": "yes", "payment:visa": "yes", "phone": "+904626665666", "website": "https://zeenlounge.com"}}, {"type": "node", "id": 3754851157, "lat": 40.6180868, "lon": 40.2925404, "tags": {"amenity": "restaurant", "name": "Migron"}}, {"type": "node", "id": 5054672701, "lat": 40.6771109, "lon": 40.1907188}, {"type": "node", "id": 5054672702, "lat": 40.6771078, "lon": 40.1908824}, {"type": "node", "id": 5054672703, "lat": 40.6771368, "lon": 40.1909387}, {"type": "node", "id": 5054672704, "lat": 40.6771988, "lon": 40.1909488}, {"type": "node", "id": 5054672705, "lat": 40.6772365, "lon": 40.1908857}, {"type": "node", "id": 5054672706, "lat": 40.6772436, "lon": 40.1907483}, {"type": "node", "id": 5054672707, "lat": 40.6772238, "lon": 40.1906906}, {"type": "node", "id": 5054672708, "lat": 40.6771292, "lon": 40.1906879}, {"type": "node", "id": 5776389741, "lat": 40.6041962, "lon": 40.2684104, "tags": {"amenity": "restaurant", "name": "Restaurant"}}, {"type": "node", "id": 6690842086, "lat": 40.6180631, "lon": 40.2949499, "tags": {"addr:street": "Uzung\u00f6l yolu", "amenity": "cafe", "cuisine": "tea;hotdog", "internet_access": "wlan", "name": "K\u00f6rfez Kafe", "name:en": "Korfez cafe", "name:ru": "\u041a\u043e\u0440\u0444\u0435\u0437 \u043a\u0430\u0444\u0435", "opening_hours": "Mo-Su 08:00-01:00", "phone": "05380463919"}}, {"type": "node", "id": 6925248685, "lat": 40.6182807, "lon": 40.2938216, "tags": {"amenity": "restaurant", "name": "Sofra"}}, {"type": "node", "id": 6926554185, "lat": 40.6066817, "lon": 40.3160035, "tags": {"amenity": "cafe", "name": "\u015eelale Cafe"}}, {"type": "node", "id": 8781235283, "lat": 40.6199997, "lon": 40.2981702}, {"type": "node", "id": 8781235284, "lat": 40.6199823, "lon": 40.2984292}, {"type": "node", "id": 8781235285, "lat": 40.6198848, "lon": 40.2983893}, {"type": "node", "id": 8781235286, "lat": 40.6199145, "lon": 40.2981523}, {"type": "node", "id": 10956923929, "lat": 40.6178907, "lon": 40.2980667, "tags": {"amenity": "restaurant", "name": "Cafe Kule"}}, {"type": "node", "id": 10957007252, "lat": 40.6190689, "lon": 40.2845328, "tags": {"air_conditioning": "no", "amenity": "restaurant", "name": "Nuriye G\u00f6zleme", "opening_hours": "We-Mo 07:30-19:00; Tu 07:00-19:00"}}, {"type": "way", "id": 518101768, "nodes": [5054672708, 5054672707, 5054672706, 5054672705, 5054672704, 5054672703, 5054672702, 5054672701, 5054672708], "tags": {"addr:country": "TR", "addr:place": "Sultan Murat Yolu \u00dczeri", "addr:province": "Trabzon", "amenity": "cafe", "building": "yes", "name": "Ay Meydan\u0131 Otel Cafe Restaurant", "operator": "Sakalo\u011flu Ltd.", "tourism": "hotel"}}, {"type": "way", "id": 948710504, "nodes": [8781235283, 8781235284, 8781235285, 8781235286, 8781235283], "tags": {"addr:city": "Trabzon", "addr:district": "\u00c7aykara", "addr:neighbourhood": "Uzung\u00f6l", "addr:postcode": "61960", "amenity": "cafe", "building": "yes", "cuisine": "coffee;coffee_shop;burger;chicken;regional;pizza;ice_cream;barbecue;meat;dessert;pasta;turkish;local;american", "internet_access": "yes", "internet_access:fee": "no", "internet_access:ssid": "MuccA_2.4Ghz", "name": "Mucca Coffee - Lavazza Shop", "opening_hours": "24/7", "outdoor_seating": "yes", "website": "https://mucca.com.tr"}}]}