{"version": 0.6, "generator": "Overpass API 0.7.62.7 375dc00a", "osm3s": {"timestamp_osm_base": "2025-06-14T13:58:38Z", "copyright": "The data included in this document is from www.openstreetmap.org. The data is made available under ODbL."}, "elements": [{"type": "node", "id": 391659702, "lat": 40.5619268, "lon": 16.5040615, "tags": {"amenity": "restaurant", "name": "Il Ritrovo del Cima"}}, {"type": "node", "id": 409933357, "lat": 40.7218437, "lon": 16.5742902, "tags": {"amenity": "restaurant", "cuisine": "pizza", "name": "Sarni"}}, {"type": "node", "id": 539317041, "lat": 40.6522057, "lon": 16.6072899, "tags": {"amenity": "restaurant", "cuisine": "regional", "name": "Agritur"}}, {"type": "node", "id": 898310380, "lat": 40.8179816, "lon": 16.4109987, "tags": {"amenity": "restaurant", "contact:fax": "+39 080 3223302", "contact:phone": "+39 080 3256383", "name": "Madonna della Stella", "tourism": "hotel", "website": "http://www.madonnadellastella.org"}}, {"type": "node", "id": 898336497, "lat": 40.8134199, "lon": 16.417243, "tags": {"addr:city": "Gravina in Puglia", "addr:housenumber": "86-89", "addr:street": "Via Alcide De Gasperi", "amenity": "cafe", "contact:phone": "+39 080 3267667", "name": "Pitti Bar", "operator": "Giuseppe Battista"}}, {"type": "node", "id": 898357689, "lat": 40.8168807, "lon": 16.4146428, "tags": {"addr:city": "Gravina in Puglia", "addr:housenumber": "18", "addr:postcode": "70024", "addr:street": "Via Guglielmo Marconi", "amenity": "restaurant", "cuisine": "regional", "name": "Trattoria Zia Rosa", "opening_hours": "Mo-Su;Su evening off;Tu off", "operator": "Trattoria Zia Rosa Srl.", "phone": "+39 080 3257842", "ref:vatin": "IT06801080729", "website": "http://www.trattoriaziarosa.it"}}, {"type": "node", "id": 898369618, "lat": 40.821621, "lon": 16.4162075, "tags": {"amenity": "cafe", "name": "Roxy bar"}}, {"type": "node", "id": 898387847, "lat": 40.793496, "lon": 16.7355754, "tags": {"addr:city": "Santeramo in Colle", "amenity": "cafe", "contact:phone": "+39 080 3036255", "name": "Bar Q8 - Al Punto Giusto", "operator": "Giovanni Vito Lanzolla"}}, {"type": "node", "id": 1330800995, "lat": 40.6466798, "lon": 16.6177314, "tags": {"amenity": "cafe", "name": "Caff\u00e8 Royal", "phone": "+39 0835 312320"}}, {"type": "node", "id": 2135441919, "lat": 40.6611471, "lon": 16.6124271, "tags": {"addr:city": "Matera", "addr:housenumber": "169", "addr:postcode": "75100", "addr:street": "Via Casalnuovo", "amenity": "restaurant", "cuisine": "regional", "name": "Enosteria Mataduva", "phone": "+39 0835 312071"}}, {"type": "node", "id": 2338995097, "lat": 40.8311688, "lon": 16.5554173, "tags": {"amenity": "cafe", "name": "Gran Caff\u00e8 Cicimarra"}}, {"type": "node", "id": 2407166235, "lat": 40.6672356, "lon": 16.609945, "tags": {"amenity": "cafe"}}, {"type": "node", "id": 2440315626, "lat": 40.8320636, "lon": 16.5574005, "tags": {"amenity": "cafe", "name": "Stazione di Servizio"}}, {"type": "node", "id": 2505072562, "lat": 40.6663629, "lon": 16.6067652, "tags": {"amenity": "cafe", "check_date": "2024-09-17", "name": "Vittorio Veneto Caff\u00e8", "outdoor_seating": "yes", "smoking": "outside", "wheelchair": "yes"}}, {"type": "node", "id": 2505304292, "lat": 40.6666667, "lon": 16.6061022, "tags": {"amenity": "cafe", "name": "Caff\u00e8 Tripoli", "note": "Chiuso Lunedi, tavoli esterni, aperto 6-22", "wheelchair": "no"}}, {"type": "node", "id": 2505388898, "lat": 40.6661166, "lon": 16.6065872, "tags": {"addr:housenumber": "3", "addr:street": "Piazza Vittorio Veneto", "amenity": "cafe", "check_date": "2024-09-17", "contact:phone": "+39 0835 332302", "name": "Gran Caff\u00e8", "operator": "Lapacciana Giovanni", "ref:vatin": "IT01254570771", "wheelchair": "no"}}, {"type": "node", "id": 2505822497, "lat": 40.6639179, "lon": 16.6094847, "tags": {"addr:city": "Matera", "addr:housenumber": "17", "addr:postcode": "75100", "addr:street": "Via Domenico Ridola", "amenity": "restaurant", "name": "Al Falco Grillaio", "wheelchair": "no"}}, {"type": "node", "id": 2505863675, "lat": 40.6632178, "lon": 16.6098625, "tags": {"amenity": "restaurant", "cuisine": "pizza", "name": "Van Gogh", "wheelchair": "limited"}}, {"type": "node", "id": 2508521308, "lat": 40.6689407, "lon": 16.5809524, "tags": {"addr:city": "Matera", "addr:postcode": "75100", "addr:street": "Via La Martella", "amenity": "restaurant", "name": "Il casino del diavolo"}}, {"type": "node", "id": 2508534504, "lat": 40.5967909, "lon": 16.5275242, "tags": {"addr:city": "Matera", "addr:postcode": "75100", "addr:street": "SS Appia", "amenity": "restaurant", "cuisine": "regional", "name": "Agriturismo L'Assiolo", "note": "Casa Netural Diffusa"}}, {"type": "node", "id": 2508863068, "lat": 40.66105, "lon": 16.5355318, "tags": {"addr:postcode": "75100", "addr:street": "Piazza Montegrappa", "amenity": "cafe", "name": "Bar Del Borgo"}}, {"type": "node", "id": 2508900247, "lat": 40.6701657, "lon": 16.6064341, "tags": {"amenity": "cafe", "name": "Caff\u00e8 Schiuma"}}, {"type": "node", "id": 2508901225, "lat": 40.6673896, "lon": 16.6044213, "tags": {"amenity": "cafe", "name": "Papille"}}, {"type": "node", "id": 2508976380, "lat": 40.6721891, "lon": 16.5938503, "tags": {"amenity": "cafe", "name": "Bar Igea"}}, {"type": "node", "id": 2510009760, "lat": 40.6646912, "lon": 16.6057386}, {"type": "node", "id": 2510009774, "lat": 40.6647351, "lon": 16.6057109}, {"type": "node", "id": 2510009783, "lat": 40.6647585, "lon": 16.605923}, {"type": "node", "id": 2510009799, "lat": 40.6647977, "lon": 16.6058826}, {"type": "node", "id": 2510009804, "lat": 40.6648024, "lon": 16.6058954}, {"type": "node", "id": 2512787109, "lat": 40.667476, "lon": 16.61029, "tags": {"amenity": "restaurant", "contact:facebook": "https://www.facebook.com/pages/Vicolo-Cieco-Salsamenteria/119304924807926", "cuisine": "mediterranean", "internet_access": "wlan", "name": "Vicolo Cieco Salsamenteria", "opening_hours": "08:00-03:00", "ref": "Nando Irene", "wheelchair": "limited"}}, {"type": "node", "id": 2512819208, "lat": 40.6654254, "lon": 16.6023286, "tags": {"addr:city": "Matera", "addr:housenumber": "21", "addr:postcode": "75100", "addr:street": "Via Vincenzo Cappelluti", "amenity": "restaurant", "name": "Divine Creazioni", "opening_hours": "Mo-Su 12:30-15:00,19:30-23:00"}}, {"type": "node", "id": 2512819213, "lat": 40.665284, "lon": 16.602154, "tags": {"addr:housename": "25", "amenity": "restaurant", "cuisine": "pizza", "name": "Pi\u00f9 Pizza"}}, {"type": "node", "id": 2513644416, "lat": 40.6668898, "lon": 16.5997338, "tags": {"addr:city": "Matera", "addr:postcode": "75100", "amenity": "cafe", "name": "Coffee Time", "wheelchair": "yes"}}, {"type": "node", "id": 2513693270, "lat": 40.6773491, "lon": 16.5918386, "tags": {"addr:city": "Matera", "addr:postcode": "75100", "addr:street": "Via Nazionale", "amenity": "cafe", "name": "Bar Di Pede"}}, {"type": "node", "id": 2514054130, "lat": 40.6642436, "lon": 16.5984647, "tags": {"addr:city": "Matera", "addr:housenumber": "78", "addr:postcode": "75100", "addr:street": "Via Vincenzo Cappelluti", "air_conditioning": "yes", "amenity": "cafe", "bar": "yes", "check_date": "2022-06-05", "internet_access": "no", "name": "\"Caffe\" Bar Dixy", "outdoor_seating": "no", "payment:mastercard": "yes", "payment:visa": "yes", "phone": "+39 0835 336859", "source": "local knowledge", "toilets:wheelchair": "no", "wheelchair": "limited"}}, {"type": "node", "id": 2516308151, "lat": 40.6623809, "lon": 16.6105245, "tags": {"amenity": "restaurant", "cuisine": "pizza", "name": "I Caponi", "phone": "+39 0835 1973152", "website": "Www.icaponi.it"}}, {"type": "node", "id": 2519917749, "lat": 40.6699663, "lon": 16.6088154, "tags": {"addr:city": "Matera", "addr:country": "IT", "addr:housenumber": "67", "addr:postcode": "75100", "addr:street": "Via Santa Cesarea", "amenity": "restaurant", "cuisine": "regional", "name": "Stano", "phone": "+39 0835 344101"}}, {"type": "node", "id": 2531908408, "lat": 40.665368, "lon": 16.6063876, "tags": {"amenity": "restaurant", "cuisine": "pizza", "name": "Piadineria Pizzeria"}}, {"type": "node", "id": 2531908410, "lat": 40.6666222, "lon": 16.6030455, "tags": {"addr:housenumber": "32", "addr:street": "Via Don Giovanni Minzoni", "amenity": "restaurant", "cuisine": "italian", "name": "Ristorante Spaghetteria Miseria e Nobilt\u00e0", "opening_hours": "Mo-We 12:00-15:30, 19:30-23:00; Th 12:00-15:30; Fr-Sa 12:00-15:30, 19:30-23:00; Su 12:00-15:30", "phone": "+39 393 916 8110", "website": "https://www.spaghetteriamiseriaenobilta.it/"}}, {"type": "node", "id": 2541715220, "lat": 40.6975022, "lon": 16.5306692}, {"type": "node", "id": 2541715224, "lat": 40.6975089, "lon": 16.5303949}, {"type": "node", "id": 2541715229, "lat": 40.6975179, "lon": 16.5302319}, {"type": "node", "id": 2541715234, "lat": 40.6975179, "lon": 16.5302917}, {"type": "node", "id": 2541715239, "lat": 40.697518, "lon": 16.5302276}, {"type": "node", "id": 2541715243, "lat": 40.6975181, "lon": 16.5303067}, {"type": "node", "id": 2541715258, "lat": 40.697528, "lon": 16.5301682}, {"type": "node", "id": 2541715263, "lat": 40.6975281, "lon": 16.5302277}, {"type": "node", "id": 2541715326, "lat": 40.6975693, "lon": 16.530305}, {"type": "node", "id": 2541715337, "lat": 40.6975694, "lon": 16.5302821}, {"type": "node", "id": 2541715430, "lat": 40.697605, "lon": 16.5302823}, {"type": "node", "id": 2541715432, "lat": 40.6976141, "lon": 16.5302287}, {"type": "node", "id": 2541715433, "lat": 40.6976142, "lon": 16.5301679}, {"type": "node", "id": 2541715436, "lat": 40.6976206, "lon": 16.530229}, {"type": "node", "id": 2541715439, "lat": 40.6976206, "lon": 16.5302822}, {"type": "node", "id": 2541715466, "lat": 40.697629, "lon": 16.5304312}, {"type": "node", "id": 2541715469, "lat": 40.6976297, "lon": 16.5303983}, {"type": "node", "id": 2541715501, "lat": 40.6976473, "lon": 16.5307088}, {"type": "node", "id": 2541715505, "lat": 40.6976478, "lon": 16.5306915}, {"type": "node", "id": 2541715518, "lat": 40.6976593, "lon": 16.5302821}, {"type": "node", "id": 2541715523, "lat": 40.6976599, "lon": 16.5302295}, {"type": "node", "id": 2541715567, "lat": 40.6976695, "lon": 16.5307094}, {"type": "node", "id": 2541715570, "lat": 40.6976696, "lon": 16.5306917}, {"type": "node", "id": 2541715579, "lat": 40.69767, "lon": 16.5302821}, {"type": "node", "id": 2541715583, "lat": 40.6976701, "lon": 16.5306752}, {"type": "node", "id": 2541715588, "lat": 40.6976717, "lon": 16.5302296}, {"type": "node", "id": 2541715614, "lat": 40.6976862, "lon": 16.5307096}, {"type": "node", "id": 2541715617, "lat": 40.6976867, "lon": 16.5306745}, {"type": "node", "id": 2541715622, "lat": 40.6976867, "lon": 16.5306796}, {"type": "node", "id": 2541715626, "lat": 40.6976884, "lon": 16.5304335}, {"type": "node", "id": 2541715630, "lat": 40.6976885, "lon": 16.5304232}, {"type": "node", "id": 2541715643, "lat": 40.6976905, "lon": 16.5302823}, {"type": "node", "id": 2541715648, "lat": 40.6976925, "lon": 16.5304232}, {"type": "node", "id": 2541715655, "lat": 40.6976928, "lon": 16.530334}, {"type": "node", "id": 2541715658, "lat": 40.6976928, "lon": 16.5303387}, {"type": "node", "id": 2541715688, "lat": 40.6977054, "lon": 16.530334}, {"type": "node", "id": 2541715693, "lat": 40.6977056, "lon": 16.5302824}, {"type": "node", "id": 2541715697, "lat": 40.6977139, "lon": 16.5302301}, {"type": "node", "id": 2541715713, "lat": 40.697718, "lon": 16.5302302}, {"type": "node", "id": 2541715721, "lat": 40.6977222, "lon": 16.53023}, {"type": "node", "id": 2541715782, "lat": 40.6977362, "lon": 16.5306757}, {"type": "node", "id": 2541715814, "lat": 40.6977409, "lon": 16.5302289}, {"type": "node", "id": 2541715858, "lat": 40.6977458, "lon": 16.5306759}, {"type": "node", "id": 2541715998, "lat": 40.6977892, "lon": 16.5306636}, {"type": "node", "id": 2541716005, "lat": 40.6977892, "lon": 16.530677}, {"type": "node", "id": 2541716013, "lat": 40.6977896, "lon": 16.5302305}, {"type": "node", "id": 2541716021, "lat": 40.69779, "lon": 16.530425}, {"type": "node", "id": 2541716036, "lat": 40.6977922, "lon": 16.5302306}, {"type": "node", "id": 2583771991, "lat": 40.6656141, "lon": 16.6037815, "tags": {"addr:city": "Matera", "addr:housenumber": "20", "addr:postcode": "75100", "addr:street": "Via Michele Torraca", "amenity": "cafe", "cuisine": "regional", "name": "Sapori di Sicilia", "phone": "+39 0835 336059", "website": "https://www.saporidisiciliamatera.it/"}}, {"type": "node", "id": 2614103176, "lat": 40.666344, "lon": 16.6071595, "tags": {"addr:city": "Matera", "addr:housenumber": "7", "addr:postcode": "75100", "addr:street": "Vico San Giuseppe", "amenity": "restaurant", "check_date": "2024-09-17", "cuisine": "italian", "name": "Il Terrazzino", "opening_hours": "Mo-Su 12:00-15:00,19:00-24:00; Tu 12:00-15:00", "payment:credit_cards": "yes", "phone": "+39 0835 332503", "website": "https://www.ilterrazzino.org/", "wheelchair": "no"}}, {"type": "node", "id": 2614116038, "lat": 40.6694646, "lon": 16.6095019, "tags": {"addr:city": "Matera", "addr:country": "IT", "addr:housenumber": "14", "addr:postcode": "75100", "addr:street": "Via D'Addozio", "amenity": "restaurant", "cuisine": "italian", "name": "Lacapagira", "opening_hours": "Mo-Su 12:00-15:00,19:00-24:00; Tu 12:00-15:00", "payment:credit_cards": "yes", "phone": "+39 0835 256630", "website": "www.lacapagiramt.it"}}, {"type": "node", "id": 2651625837, "lat": 40.8403563, "lon": 16.3544154, "tags": {"amenity": "restaurant", "cuisine": "italian", "name": "Masseria San Giacomo"}}, {"type": "node", "id": 2651633651, "lat": 40.8365819, "lon": 16.3791132, "tags": {"amenity": "restaurant", "cuisine": "italian", "description": "Agriturismo", "name": "Agriturismo Borgo Scaringella"}}, {"type": "node", "id": 2652870378, "lat": 40.6655961, "lon": 16.7015196, "tags": {"amenity": "restaurant", "cuisine": "italian", "name": "Parco Diana bellavista"}}, {"type": "node", "id": 2667364216, "lat": 40.6622083, "lon": 16.6108951, "tags": {"addr:street": "Via Bruno Buozzi", "amenity": "restaurant", "cuisine": "regional", "name": "L'Abbondanza Lucana", "toilets:wheelchair": "no", "wheelchair": "no"}}, {"type": "node", "id": 2667364217, "lat": 40.662032, "lon": 16.610723, "tags": {"addr:city": "Matera", "addr:housenumber": "2", "addr:postcode": "75100", "addr:street": "Via Bruno Buozzi", "amenity": "restaurant", "cuisine": "pizza;regional", "email": "info@morganpub.com", "name": "Morgan", "operator": "Morgan S.r.l.s.", "phone": "+39 0835 312233", "ref:vatin": "IT01278250772", "website": "http://www.morganristorante.it/", "wheelchair": "no", "wheelchair:description": "all'esterno, davanti all' ingresso c'\u00e9 una mappa tattile del locale"}}, {"type": "node", "id": 2667364220, "lat": 40.6622629, "lon": 16.6110263, "tags": {"addr:city": "Matera", "addr:country": "IT", "addr:housenumber": "21", "addr:postcode": "75100", "addr:street": "Via Bruno Buozzi", "alt_name": "Ristorante del Caveoso", "amenity": "restaurant", "cuisine": "regional", "email": "info@ristorantedelcaveoso.it", "name": "Trattoria del Caveoso", "opening_hours": "12:30-15:00,19:30-23:00; We off", "phone": "+39 0835312374", "phone:mobile": "+39 3293910143", "website": "http://www.ristorantedelcaveoso.it", "wheelchair": "no"}}, {"type": "node", "id": 2668401144, "lat": 40.6639744, "lon": 16.6094898, "tags": {"addr:city": "Matera", "addr:housenumber": "19", "addr:postcode": "75100", "addr:street": "Via Domenico Ridola", "amenity": "cafe", "cuisine": "italian", "fixme": "survey", "name": "Caff\u00e8 Ridola", "ref": "enrico ruggieri", "website": "http://www.ridolacaffe.com", "wheelchair": "no", "wifi": "free"}}, {"type": "node", "id": 2720660334, "lat": 40.6727914, "lon": 16.6024085, "tags": {"amenity": "cafe", "cuisine": "coffee_shop", "internet_access": "no", "name": "Bar Valentino"}}, {"type": "node", "id": 2728920353, "lat": 40.5904986, "lon": 16.5308042, "tags": {"amenity": "restaurant", "cuisine": "italian", "name": "Tenuta la Volpe", "phone": "+39 0835 559752", "website": "www.tenutalavolpe.it/"}}, {"type": "node", "id": 3005348281, "lat": 40.5501345, "lon": 16.32814, "tags": {"amenity": "restaurant", "name": "Ai Laghetti"}}, {"type": "node", "id": 3161203242, "lat": 40.819152, "lon": 16.5537894, "tags": {"addr:housenumber": "90", "addr:street": "Via Matera", "amenity": "cafe", "name": "Caffetteria Nicolas", "operator": "Siciliano Rosa", "ref:vatin": "IT07449950729"}}, {"type": "node", "id": 3175473985, "lat": 40.5169898, "lon": 16.5476707, "tags": {"addr:housenumber": "6", "addr:street": "Via Roma", "amenity": "cafe", "name": "Caff\u00e8 del Marchese"}}, {"type": "node", "id": 3232471583, "lat": 40.6665539, "lon": 16.6066142, "tags": {"amenity": "restaurant", "cuisine": "regional", "name": "Kappador", "wheelchair": "no"}}, {"type": "node", "id": 3373340355, "lat": 40.6712139, "lon": 16.6087107, "tags": {"addr:city": "Matera", "addr:housenumber": "31", "addr:street": "Via Santo Stefano", "amenity": "restaurant", "name": "'900 Restaurant", "note": "Casa Netural Diffusa", "opening_hours": "Mo 19:30-23:00"}}, {"type": "node", "id": 3465829102, "lat": 40.7954619, "lon": 16.7591583, "tags": {"addr:city": "Santeramo in Colle", "addr:housenumber": "47", "addr:postcode": "70029", "addr:street": "Via Iacoviello", "amenity": "restaurant", "butcher": "horse", "name": "Mimmo e Valeria", "operator": "MIVAL s.rl.", "restaurant:type:it": "rosticceria;tavola_calda;macelleria", "shop": "butcher"}}, {"type": "node", "id": 3491175930, "lat": 40.7987212, "lon": 16.7595035, "tags": {"addr:city": "Santeramo in Colle", "addr:housenumber": "34", "addr:postcode": "70029", "addr:street": "Via Stazione", "amenity": "restaurant", "butcher": "beef;horse;pork;chicken;", "name": "Centro Carni Ciccarone", "operator": "Centro Carni Ciccarone s.n.c", "restaurant:type:it": "rosticceria;tavola_calda;macelleria", "shop": "butcher"}}, {"type": "node", "id": 3491213537, "lat": 40.7870714, "lon": 16.7512664, "tags": {"addr:city": "Santeramo in Colle", "addr:postcode": "70029", "addr:street": "Via Iazzitiello", "amenity": "restaurant", "butcher": "beef;horse;pork;chicken;", "name": "Mecelleria Braceria da Angelo Lauria", "operator": "Angelo Lauria", "restaurant:type:it": "rosticceria;tavola_calda;macelleria", "shop": "butcher"}}, {"type": "node", "id": 3491226097, "lat": 40.7919339, "lon": 16.7547064, "tags": {"addr:city": "Santeramo in Colle", "addr:housenumber": "156", "addr:postcode": "70029", "addr:street": "Corso Tripoli", "amenity": "restaurant", "butcher": "horse", "name": "Macelleria - Rosticceria Equina Di Lauria Marcello", "operator": "Lauria Marcello", "restaurant:type:it": "rosticceria;tavola_calda;macelleria", "shop": "butcher"}}, {"type": "node", "id": 3491236665, "lat": 40.7944889, "lon": 16.760844, "tags": {"addr:city": "Santeramo in Colle", "addr:housenumber": "10", "addr:postcode": "70029", "addr:street": "Via Padre Guerrino", "amenity": "restaurant", "butcher": "beef;horse;pork;chicken;", "name": "Da Scatozz", "operator": "Chairelli Lucia", "restaurant:type:it": "rosticceria;tavola_calda;macelleria", "shop": "butcher"}}, {"type": "node", "id": 3491253101, "lat": 40.7928523, "lon": 16.7580686, "tags": {"addr:city": "Santeramo in Colle", "addr:housenumber": "45", "addr:postcode": "70029", "addr:street": "Via Giuseppe di Vittorio", "amenity": "restaurant", "butcher": "beef;horse;", "name": "Laertina", "operator": "Fraccalvieri Erasmo", "restaurant:type:it": "rosticceria;tavola_calda;macelleria", "shop": "butcher"}}, {"type": "node", "id": 3491262341, "lat": 40.7959372, "lon": 16.7574518, "tags": {"addr:city": "Santeramo in Colle", "addr:housenumber": "43", "addr:postcode": "70029", "addr:street": "Via Francesco Netti", "amenity": "restaurant", "butcher": "horse", "name": "Macelleria Lauria", "operator": "Lauria Vincenzo", "restaurant:type:it": "rosticceria;tavola_calda;macelleria", "shop": "butcher"}}, {"type": "node", "id": 3526773861, "lat": 40.668949, "lon": 16.605534, "tags": {"addr:city": "Matera", "addr:housenumber": "7", "addr:postcode": "75100", "addr:street": "Piazza Cesare Firrao", "amenity": "restaurant", "cuisine": "italian", "diet:gluten_free": "yes", "email": "ristoranteallefornaci@virgilio.it", "name": "Alle Fornaci", "opening_hours": "Mo-Sa 19:30-22:00", "phone": "+39 0835 335037", "website": "https://www.ristoranteallefornaci.it/"}}, {"type": "node", "id": 3535202281, "lat": 40.8912739, "lon": 16.6998339}, {"type": "node", "id": 3535202282, "lat": 40.8914599, "lon": 16.6996008}, {"type": "node", "id": 3535202283, "lat": 40.8914631, "lon": 16.7000982}, {"type": "node", "id": 3535202284, "lat": 40.8916492, "lon": 16.6998651}, {"type": "node", "id": 3608600496, "lat": 40.7943126, "lon": 16.7541013, "tags": {"addr:city": "Santeramo in Colle", "addr:housenumber": "14", "addr:postcode": "70029", "addr:street": "Via Palombaio", "amenity": "restaurant", "name": "Macelleria Lauria", "operator": "Lauria Michele", "restaurant:type:it": "rosticceria;tavola_calda;macelleria", "shop": "butcher"}}, {"type": "node", "id": 3608660468, "lat": 40.7880399, "lon": 16.7540648, "tags": {"addr:city": "Santeramo in Colle", "addr:housenumber": "21", "addr:postcode": "70029", "addr:street": "Via Socrate", "amenity": "restaurant", "name": "Socrate", "operator": "Difonzo Nunzio", "restaurant:type:it": "rosticceria;tavola_calda;macelleria", "shop": "butcher"}}, {"type": "node", "id": 3609264872, "lat": 40.7939591, "lon": 16.7593194, "tags": {"addr:city": "Santeramo in Colle", "addr:housenumber": "48", "addr:postcode": "70029", "addr:street": "Corso Tripoli", "amenity": "restaurant", "name": "Da Michele & Figli", "operator": "Lassandro Michele", "restaurant:type:it": "rosticceria;tavola_calda;macelleria", "shop": "butcher"}}, {"type": "node", "id": 3609372616, "lat": 40.7946485, "lon": 16.755709, "tags": {"addr:city": "Santeramo in Colle", "addr:housenumber": "28", "addr:postcode": "70029", "addr:street": "Via Roma", "amenity": "restaurant", "name": "Macelleria Lassandro", "operator": "Lassandro Giuseppe", "restaurant:type:it": "rosticceria;tavola_calda;macelleria", "shop": "butcher"}}, {"type": "node", "id": 3609416736, "lat": 40.7910892, "lon": 16.7592869, "tags": {"addr:city": "Santeramo in Colle", "addr:housenumber": "16/A", "addr:postcode": "70029", "addr:street": "Via Luigi Pirandello", "amenity": "restaurant", "name": "Macelleria Carni Arrosto", "operator": "Difonzo Giuseppe", "restaurant:type:it": "rosticceria;tavola_calda;macelleria", "shop": "butcher"}}, {"type": "node", "id": 3610417141, "lat": 40.7909972, "lon": 16.7598538, "tags": {"addr:city": "Santeramo in Colle", "addr:housenumber": "81", "addr:postcode": "70029", "addr:street": "Via Laterza", "amenity": "restaurant", "name": "I giardini della carne", "restaurant:type:it": "rosticceria;tavola_calda;macelleria", "shop": "butcher"}}, {"type": "node", "id": 3610489991, "lat": 40.8005188, "lon": 16.7575295, "tags": {"addr:city": "Santeramo in Colle", "addr:housenumber": "16", "addr:postcode": "70029", "addr:street": "Via Pietro e Maria Curie", "amenity": "restaurant", "name": "Da Masin", "restaurant:type:it": "rosticceria;tavola_calda;macelleria", "shop": "butcher"}}, {"type": "node", "id": 3621758234, "lat": 40.784741, "lon": 16.7884033, "tags": {"addr:city": "Santeramo in Colle", "addr:postcode": "70029", "addr:street": "Strada Comunale esterna Contrada Cocevoline -Cialledda", "amenity": "restaurant", "name": "La Murgia di Cialledda", "phone": "+39 080 3022875", "restaurant:type:it": "rosticceria;tavola_calda;maccelleria;caseificio", "shop": "butcher;cheese", "website": "www.lamurgiadicialledda.it"}}, {"type": "node", "id": 3621792814, "lat": 40.7951839, "lon": 16.6839942, "tags": {"addr:city": "Santeramo in Colle", "addr:postcode": "70029", "addr:street": "Strada Comunale esterna Monte Fumavo", "amenity": "restaurant", "name": "Masseria Nuzzi", "operator": "Nuzzi & Fiorentino", "phone": "+39 334 1092117", "restaurant:type:it": "rosticceria;tavola_calda;maccelleria;caseificio", "shop": "butcher;cheese"}}, {"type": "node", "id": 3623057854, "lat": 40.7715893, "lon": 16.7315508, "tags": {"addr:city": "Santeramo in Colle", "addr:housenumber": "16", "addr:postcode": "70029", "addr:street": "Strada Comunale esterna Lacometana", "amenity": "restaurant", "name": "Nonno Oreste", "phone": "+39 0803021930", "restaurant:type:it": "rosticceria;tavola_calda;macelleria", "shop": "butcher"}}, {"type": "node", "id": 3668080525, "lat": 40.666912, "lon": 16.6097329, "tags": {"amenity": "restaurant", "cuisine": "regional", "name": "la talpa", "payment:cash": "yes", "payment:credit_cards": "yes", "payment:debit_cards": "yes", "payment:maestro": "yes"}}, {"type": "node", "id": 3800637540, "lat": 40.8355104, "lon": 16.5646418, "tags": {"addr:street": "Via bruxelles", "amenity": "restaurant", "cuisine": "italian", "name": "Pizzeria Mercadante"}}, {"type": "node", "id": 4120012601, "lat": 40.8878946, "lon": 16.7558275, "tags": {"amenity": "restaurant", "name": "Dimora Sovrana"}}, {"type": "node", "id": 4120012602, "lat": 40.869507, "lon": 16.7736861, "tags": {"amenity": "restaurant", "name": "Tenuta Battista"}}, {"type": "node", "id": 4120012603, "lat": 40.8586795, "lon": 16.704941, "tags": {"amenity": "restaurant", "name": "Tenuta La Vallonea"}}, {"type": "node", "id": 4120012604, "lat": 40.8620457, "lon": 16.7071022, "tags": {"amenity": "restaurant", "name": "Villa Fano del Poggio"}}, {"type": "node", "id": 4126486697, "lat": 40.8503105, "lon": 16.5865763, "tags": {"amenity": "restaurant", "name": "Agritur Valleverde"}}, {"type": "node", "id": 4191642968, "lat": 40.6664423, "lon": 16.6116804, "tags": {"amenity": "restaurant", "name": "Ristorante Don Matteo"}}, {"type": "node", "id": 4191967717, "lat": 40.6633148, "lon": 16.610131, "tags": {"addr:city": "Matera", "addr:housenumber": "43", "addr:postcode": "75100", "addr:street": "Via Domenico Ridola", "amenity": "cafe", "cuisine": "caffetteria", "name": "Lanfranchi Caff\u00e8", "smoking": "outside", "wheelchair": "no"}}, {"type": "node", "id": 4191967722, "lat": 40.6641575, "lon": 16.6091412, "tags": {"addr:city": "Matera", "addr:housenumber": "18", "addr:postcode": "75100", "addr:street": "Via Domenico Ridola", "amenity": "restaurant", "name": "Mosto", "opening_hours": "19:00-02:00", "smoking": "outside", "takeaway": "no", "wheelchair": "yes"}}, {"type": "node", "id": 4191976666, "lat": 40.6640715, "lon": 16.6094201, "tags": {"addr:city": "Matera", "addr:housenumber": "12", "addr:postcode": "75100", "addr:street": "Vico Purgatorio", "amenity": "restaurant", "name": "Shibuya", "note": "Referente Damiano Fragrasso", "wheelchair": "no"}}, {"type": "node", "id": 4192062305, "lat": 40.6647948, "lon": 16.6090933, "tags": {"addr:city": "Matera", "addr:housenumber": "33", "addr:postcode": "75100", "addr:street": "Via San Francesco", "air_conditioning": "no", "amenity": "restaurant", "indoor_seating": "yes", "name": "Basilico", "opening_hours": "12:30-15:30,19:30-24:00", "outdoor_seating": "yes", "takeaway": "no", "wheelchair": "no"}}, {"type": "node", "id": 4192062323, "lat": 40.6655413, "lon": 16.6096673, "tags": {"addr:city": "Matera", "addr:housenumber": "4", "addr:postcode": "75100", "addr:street": "Piazza del Sedile", "amenity": "restaurant", "check_date": "2024-09-17", "name": "Da Nonna Lina", "opening_hours": "09:00-02:00"}}, {"type": "node", "id": 4192062325, "lat": 40.6655747, "lon": 16.6098889, "tags": {"addr:city": "Matera", "addr:housenumber": "24", "addr:postcode": "75100", "addr:street": "Piazza del Sedile", "amenity": "restaurant", "cuisine": "pizza", "name": "De Simmeeo S.A.S."}}, {"type": "node", "id": 4254145903, "lat": 40.6673111, "lon": 16.610346, "tags": {"addr:city": "Matera", "addr:housenumber": "66", "addr:postcode": "75100", "addr:street": "Via Fiorentini", "amenity": "restaurant", "check_date": "2022-06-12", "cuisine": "pizza;regional", "email": "contatti@oimari.it", "mobile": "+39 339 4086680; +39 329 9370997", "name": "Oi Mar\u00ec Ristorante", "operator": "Oi Mar\u00ec S.r.l.", "phone": "+39 0835 346121", "ref:vatin": "IT01048770778", "website": "https://www.oimari.it/", "wheelchair": "yes"}}, {"type": "node", "id": 4320901396, "lat": 40.5174098, "lon": 16.5462376, "tags": {"addr:city": "Pomarico", "addr:housenumber": "11", "addr:postcode": "75016", "addr:street": "Corso Giuseppe Garibaldi", "amenity": "restaurant", "capacity": "45", "name": "Lancione", "website": "http://www.ristorantelancione.com/"}}, {"type": "node", "id": 4331006523, "lat": 40.5534804, "lon": 16.4824741, "tags": {"amenity": "restaurant", "name": "Agriturismo Fontan di Noce"}}, {"type": "node", "id": 4360655192, "lat": 40.6658772, "lon": 16.6091882, "tags": {"addr:housenumber": "78", "addr:street": "Via delle Beccherie", "amenity": "restaurant", "check_date": "2024-09-17", "name": "Fave", "wheelchair": "no"}}, {"type": "node", "id": 4473473375, "lat": 40.580897, "lon": 16.7503808, "tags": {"amenity": "restaurant", "name": "Ristorante Biffy"}}, {"type": "node", "id": 4510301568, "lat": 40.6675358, "lon": 16.6054267, "tags": {"amenity": "restaurant", "cuisine": "italian", "name": "Groove", "wheelchair": "yes"}}, {"type": "node", "id": 4510381060, "lat": 40.6651452, "lon": 16.6085509, "tags": {"addr:city": "Matera", "addr:housenumber": "78", "addr:postcode": "75100", "addr:street": "Via del Corso", "amenity": "restaurant", "name": "Osteria San Francesco", "operator": "Caffe' del Corso s.r.l.", "wheelchair": "no"}}, {"type": "node", "id": 4823926122, "lat": 40.6610492, "lon": 16.6105904, "tags": {"amenity": "restaurant", "changing_table": "yes", "changing_table:count": "1", "changing_table:fee": "no", "changing_table:location": "female_toilet", "cuisine": "fish;italian;noodle;pizza", "diet:vegetarian": "yes", "internet_access:fee": "no", "level": "0", "name": "Genuino Cucina e Bottega", "name:it": "Genuino Cucina e Bottega", "operator": "Riccardo Francomagro", "outdoor_seating": "yes", "phone": "+39 328 6824684", "toilets": "no", "toilets:access": "customers", "wheelchair": "limited"}}, {"type": "node", "id": 4823926123, "lat": 40.6636464, "lon": 16.6079825, "tags": {"amenity": "restaurant", "check_date": "2025-06-04", "name": "Da Nonna Rosa", "name:it": "Da Nonna Rosa"}}, {"type": "node", "id": 4823926124, "lat": 40.6659808, "lon": 16.6098776, "tags": {"amenity": "restaurant", "name": "L'Arturo Enogastrnomia", "name:it": "L'Arturo Enogastrnomia"}}, {"type": "node", "id": 4823926621, "lat": 40.6617293, "lon": 16.6102359, "tags": {"addr:city": "Matera", "addr:housenumber": "71", "addr:postcode": "75100", "addr:street": "Via Domenico Ridola", "amenity": "restaurant", "description": "Ristorante nel centro della citt\u00e0 dei sassi. La passione per la mia terra e per i suoi prodotti tipici sono fonte di ispirazione per ogni singolo piatto preparato nel mio ristorante. Luned\u00ec chiuso.", "name": "Dalla Padella alla Brace", "name:it": "Dalla Padella alla Brace", "opening_hours": "Tu-Sa 12:30-14:30, 19:30-22:30; Su 12:30-15:00", "phone": "+393895054540", "website": "http://www.dallapadellaallabrace.com/"}}, {"type": "node", "id": 4823926622, "lat": 40.6620809, "lon": 16.6101994, "tags": {"amenity": "restaurant", "name": "Il Pettolino", "name:it": "Il Pettolino"}}, {"type": "node", "id": 4823930522, "lat": 40.662786, "lon": 16.609245, "tags": {"amenity": "restaurant", "name": "Osteria la Pignata", "name:it": "Osteria la Pignata"}}, {"type": "node", "id": 4848158629, "lat": 40.670524, "lon": 16.6067375, "tags": {"addr:housenumber": "39", "addr:street": "Via Giambattista Pentasuglia", "amenity": "cafe", "cuisine": "italian_pizza", "name:en": "AltraPizza", "opening_hours": "Mo-Th 19:00-23:55; Fr-Su 12:00-16:00, 19:00-23:55"}}, {"type": "node", "id": 4970302834, "lat": 40.6623818, "lon": 16.610416, "tags": {"addr:housenumber": "27", "addr:street": "Via Casalnuovo", "amenity": "restaurant", "name:en": "ristorante Soul Kitchen"}}, {"type": "node", "id": 5045013025, "lat": 40.8291941, "lon": 16.5500795, "tags": {"addr:street": "Via Vittorio Veneto", "amenity": "cafe", "name": "Caff\u00e8 Pepe", "name:it": "Caff\u00e8 Pepe"}}, {"type": "node", "id": 5208013757, "lat": 40.8907497, "lon": 16.6990382, "tags": {"amenity": "restaurant", "cuisine": "coffee_shop;italian;pizza", "name": "Il Tronco"}}, {"type": "node", "id": 5249129425, "lat": 40.6661925, "lon": 16.6091594, "tags": {"addr:housenumber": "20", "addr:postcode": "75100", "addr:street": "Via Spartivento", "amenity": "restaurant", "cuisine": "italian;pizza;regional", "email": "info@lacolacola.it", "name": "Cola Cola", "operator": "Dore s.r.l.", "outdoor_seating": "yes", "outdoor_seating:comfort": "weather_protection", "phone": "+39 0835 336937", "website": "https://lacolacola.it/"}}, {"type": "node", "id": 5272670342, "lat": 40.6651847, "lon": 16.6084326, "tags": {"addr:city": "Matera", "addr:housenumber": "1", "addr:postcode": "75100", "addr:street": "Via Rocco Scotellaro", "amenity": "restaurant", "contact:facebook": "https://www.facebook.com/enjoythelittlethings2015", "diet:vegan": "yes", "diet:vegetarian": "only", "email": "fiordicucuzza2015@gmail.com", "level": "0", "name": "Fior di Cucuzza", "opening_hours": "Mo-We,Fr-Su 12:30-15:00,19:30-23:00", "outdoor_seating": "yes", "phone": "+39 0835 680665", "smoking": "no", "website": "https://www.fiordicucuzza.it"}}, {"type": "node", "id": 5330489523, "lat": 40.6801539, "lon": 16.6238045, "tags": {"amenity": "restaurant"}}, {"type": "node", "id": 5342340140, "lat": 40.8775743, "lon": 16.6624172, "tags": {"amenity": "restaurant", "name": "Sala Chinunno"}}, {"type": "node", "id": 5407055823, "lat": 40.662837, "lon": 16.609417, "tags": {"addr:city": "Matera", "addr:housenumber": "12", "addr:postcode": "75100", "addr:province": "Matera", "addr:street": "Via Emanuele Duni", "amenity": "restaurant", "contact:phone": "+39 0835 311305", "contact:website": "http://www.trattoriapaolangelo.com", "name": "Ristorante Pizzeria Paolangelo"}}, {"type": "node", "id": 5407140823, "lat": 40.6651149, "lon": 16.6091925, "tags": {"addr:city": "Matera", "addr:housenumber": "12", "addr:postcode": "75100", "addr:province": "Matera", "addr:street": "Piazza San Francesco", "amenity": "restaurant", "name": "L\u2019antica credenza", "opening_hours": "Mo 19:30-23:00"}}, {"type": "node", "id": 5602927598, "lat": 40.8913121, "lon": 16.7253995, "tags": {"amenity": "restaurant", "name": "La Quercia"}}, {"type": "node", "id": 5602949569, "lat": 40.7654623, "lon": 16.7173583, "tags": {"amenity": "restaurant", "name": "Villa Brigida Ricevimenti"}}, {"type": "node", "id": 5602999683, "lat": 40.8058475, "lon": 16.7951665, "tags": {"amenity": "restaurant", "name": "Agriturismo Peucetia"}}, {"type": "node", "id": 5792835161, "lat": 40.5760049, "lon": 16.7422872, "tags": {"amenity": "restaurant", "name": "Imperatore di Puglia"}}, {"type": "node", "id": 5894262485, "lat": 40.66973, "lon": 16.6070464, "tags": {"amenity": "restaurant", "diet:gluten_free": "only", "name": "Sapori senza glutine"}}, {"type": "node", "id": 6056152384, "lat": 40.6668613, "lon": 16.6086183, "tags": {"addr:city": "Matera", "addr:housenumber": "20", "addr:postcode": "75100", "addr:street": "Via Fiorentini", "amenity": "cafe", "contact:facebook": "https://www.facebook.com/brunchbaruciddar", "cuisine": "brunch;cafe;italian", "diet:vegetarian": "yes", "name": "Brunch Bar \u00d9 Ciddar", "opening_hours": "Mo-Su 10:30-22:30", "phone": "+39 329 619 3797"}}, {"type": "node", "id": 6056154286, "lat": 40.6660373, "lon": 16.6086762, "tags": {"amenity": "restaurant", "check_date": "2024-09-17", "name": "Vigna del Mare"}}, {"type": "node", "id": 6105855087, "lat": 40.6317899, "lon": 16.282205, "tags": {"addr:city": "Grassano", "addr:housenumber": "58", "addr:postcode": "75014", "addr:street": "Via Meridionale", "amenity": "restaurant", "cuisine": "italian;regional;burger;sandwich;coffee_shop;american;ice_cream;fish_and_chips;traditional", "delivery": "yes", "description": "Il gusto genuino della tradizione lucana incontra raffinatezza e creativit\u00e0. Un angolo di piacere in cui perdersi tra il buon cibo e il buon vino.", "email": "info@itacabistrot.it", "name": "Itaca Bistrot", "opening_hours": "Mo-Tu 05:30-02:30, Th-Su 05:30-02:30", "smoking": "outside", "takeaway": "yes", "website": "https://www.itacabistrot.it/"}}, {"type": "node", "id": 6166997873, "lat": 40.8059222, "lon": 16.7952526, "tags": {"amenity": "restaurant", "cuisine": "italian;steak_house", "name": "Peucetia"}}, {"type": "node", "id": 6329305369, "lat": 40.665814, "lon": 16.6096392, "tags": {"addr:housenumber": "92", "addr:street": "Via delle Beccherie", "amenity": "restaurant", "entrance": "yes", "name": "La Gatta Buia", "phone": "+39 0835 256510"}}, {"type": "node", "id": 6331402398, "lat": 40.6633834, "lon": 16.6081456, "tags": {"amenity": "restaurant", "name": "x", "name:en": "Kapunto", "name:it": "Kapunto", "opening_hours": "Mo 14:30-20:30"}}, {"type": "node", "id": 6552360740, "lat": 40.6671062, "lon": 16.6011571, "tags": {"amenity": "cafe", "name": "Caffetteria Tabacchi e..."}}, {"type": "node", "id": 6576717386, "lat": 40.5323125, "lon": 16.506167, "tags": {"addr:postcode": "75016", "addr:street": "Contrada Manferrara", "amenity": "restaurant", "name": "Ristoro della Manferrara", "website": "http://www.ristoromanferrara.com"}}, {"type": "node", "id": 6615072385, "lat": 40.6687231, "lon": 16.609581, "tags": {"amenity": "restaurant", "name": "La Nicchia nel Sasso"}}, {"type": "node", "id": 6615121785, "lat": 40.6656143, "lon": 16.6124701, "tags": {"addr:housenumber": "58/61", "addr:postcode": "75100", "addr:street": "Via Sant'Angelo", "amenity": "restaurant", "cuisine": "italian", "internet_access": "wlan", "name": "Baccanti", "opening_hours": "Tu-Su 00:30-14:30, Tu-Sa 17:30-22:30", "phone": "+39 0835 333704", "website": "https://www.baccantiristorante.com/"}}, {"type": "node", "id": 6616945486, "lat": 40.6664021, "lon": 16.6066556, "tags": {"amenity": "restaurant", "name": "La Bruschetta"}}, {"type": "node", "id": 6616951410, "lat": 40.666386, "lon": 16.613447, "tags": {"addr:city": "Matera", "addr:housenumber": "1", "addr:postcode": "75100", "addr:street": "Via Ospedale Vecchio", "amenity": "restaurant", "name": "Trattoria i Due Sassi", "phone": "+39 0835 238123", "website": "http://www.trattoriaiduesassi.it"}}, {"type": "node", "id": 6617002685, "lat": 40.6663404, "lon": 16.6078353, "tags": {"amenity": "restaurant", "name": "Piadi"}}, {"type": "node", "id": 6703303286, "lat": 40.6680206, "lon": 16.6099979, "tags": {"amenity": "restaurant", "name": "Dedalo"}}, {"type": "node", "id": 6761619079, "lat": 40.6671974, "lon": 16.6073462, "tags": {"addr:city": "Matera", "addr:housenumber": "22", "addr:postcode": "75100", "addr:street": "Via San Biagio", "amenity": "cafe", "check_date": "2024-09-17", "cuisine": "italian;cafe", "name": "San Biagio Caff\u00e8", "opening_hours": "Mo-Su 07:30-22:00", "phone": "+39 0835 344166", "website": "https://www.facebook.com/SanBiagioCaffe/"}}, {"type": "node", "id": 6763613795, "lat": 40.6663471, "lon": 16.6085699, "tags": {"addr:city": "Matera", "addr:housenumber": "17", "addr:postcode": "75100", "addr:street": "Via Lombardi", "amenity": "restaurant", "check_date": "2024-08-29", "cuisine": "italian;wine;mediterranean", "diet:gluten_free": "yes", "diet:vegetarian": "yes", "name": "Cibinium", "phone": "+39 391 382 1788"}}, {"type": "node", "id": 6812718866, "lat": 40.8284951, "lon": 16.5516366, "tags": {"addr:housenumber": "7", "addr:street": "Piazza Giacomo Matteotti", "amenity": "cafe", "name": "Antico Castello"}}, {"type": "node", "id": 7036049887, "lat": 40.6671582, "lon": 16.6072363, "tags": {"addr:city": "Matera", "addr:housenumber": "5", "addr:postcode": "75100", "addr:street": "Via San Biagio", "amenity": "cafe", "check_date": "2024-09-17", "email": "info@ilrusticone.com", "name": "Caf\u00e9 vergnano", "opening_hours": "Tu-Su 12:00-14:30,19:30-23:30", "phone": "+39 0835 185 3209", "website": "https://ilrusticone.com/"}}, {"type": "node", "id": 7050354685, "lat": 40.6703238, "lon": 16.6091253, "tags": {"amenity": "restaurant", "name": "MateraMI"}}, {"type": "node", "id": 7072143285, "lat": 40.6626789, "lon": 16.6101861, "tags": {"amenity": "restaurant", "cuisine": "italian", "name": "Ristorante \"Sassapora\"", "phone": "+39 0835 256724", "reservation": "recommended"}}, {"type": "node", "id": 7974997762, "lat": 40.6670895, "lon": 16.6137728, "tags": {"addr:city": "Matera", "addr:housenumber": "6", "addr:postcode": "75100", "addr:street": "Via Madonna delle Virt\u00f9", "air_conditioning": "yes", "amenity": "cafe", "bar": "yes", "brand": "Vari", "check_date": "2022-06-12", "name": "Alterno Caf\u00e9", "outdoor_seating": "yes", "phone": "+39 0835 339951"}}, {"type": "node", "id": 8032536985, "lat": 40.6641521, "lon": 16.6085405, "tags": {"addr:street": "Via Alessandro Volta", "amenity": "cafe", "check_date": "2025-06-04", "cuisine": "coffee_shop;sandwich", "name": "Ocio", "name:en": "Ocio Sandwich Room"}}, {"type": "node", "id": 8033181886, "lat": 40.6666262, "lon": 16.6093951, "tags": {"amenity": "restaurant", "check_date": "2024-08-29", "cuisine": "italian;local", "name": "Osteria Pico"}}, {"type": "node", "id": 8039742985, "lat": 40.6660038, "lon": 16.608823, "tags": {"addr:floor": "G", "amenity": "cafe", "bar": "yes", "changing_table": "no", "check_date": "2024-06-22", "cuisine": "cake;coffee_shop", "level": "0", "name": "Dulcis in Fundo", "name:it": "Dulcis In Fundo", "outdoor_seating": "yes", "payment:cash": "yes", "payment:mastercard": "yes", "payment:visa": "yes", "source": "survey", "wheelchair": "limited"}}, {"type": "node", "id": 8039743085, "lat": 40.6659134, "lon": 16.6087414, "tags": {"addr:city": "Matera", "addr:housenumber": "42", "addr:postcode": "75100", "addr:street": "Via delle Beccherie", "amenity": "restaurant", "cuisine": "italian", "name": "Zio Nini"}}, {"type": "node", "id": 8040516386, "lat": 40.6665799, "lon": 16.613285, "tags": {"amenity": "restaurant", "cuisine": "italian;local", "internet_access": "wlan", "name": "Osteria Belvedere al Vecchio Frantoio"}}, {"type": "node", "id": 8142814569, "lat": 40.8859939, "lon": 16.7657975, "tags": {"amenity": "cafe", "name": "Bar Yogi"}}, {"type": "node", "id": 8240099421, "lat": 40.8667831, "lon": 16.573506}, {"type": "node", "id": 8240099422, "lat": 40.8665443, "lon": 16.5734176}, {"type": "node", "id": 8240099423, "lat": 40.8665373, "lon": 16.5734565}, {"type": "node", "id": 8240099424, "lat": 40.866451, "lon": 16.5734227}, {"type": "node", "id": 8240099425, "lat": 40.8664856, "lon": 16.5732768}, {"type": "node", "id": 8240099426, "lat": 40.866808, "lon": 16.5733913}, {"type": "node", "id": 8589202706, "lat": 40.7922792, "lon": 16.7565779, "tags": {"amenity": "cafe", "name": "Bistrot Bar"}}, {"type": "node", "id": 8589202707, "lat": 40.7921624, "lon": 16.7555574, "tags": {"amenity": "cafe", "name": "Bar Tripoli"}}, {"type": "node", "id": 8589291966, "lat": 40.7938652, "lon": 16.7550214, "tags": {"amenity": "cafe", "name": "Caff\u00e8 Netti"}}, {"type": "node", "id": 8589291986, "lat": 40.7865283, "lon": 16.7356769, "tags": {"amenity": "restaurant", "name": "Il Country"}}, {"type": "node", "id": 8589454580, "lat": 40.7967475, "lon": 16.7542778, "tags": {"amenity": "restaurant", "name": "Rosticceria - Macelleria Da Nicola"}}, {"type": "node", "id": 8939326006, "lat": 40.5019489, "lon": 16.4480885, "tags": {"addr:city": "Ferrandina", "addr:housenumber": "225", "addr:postcode": "75013", "addr:street": "Via Nicholas Green", "amenity": "restaurant", "name": "Bellavista", "phone": "+39 0835 1880600"}}, {"type": "node", "id": 8939338644, "lat": 40.4986835, "lon": 16.4563226, "tags": {"addr:city": "Ferrandina MT", "addr:housenumber": "8", "addr:postcode": "75013", "addr:street": "Via Dante Alighieri", "amenity": "restaurant", "cuisine": "italian", "name": "Rosso di Sera", "outdoor_seating": "yes", "phone": "+39 0835757426; +39 3203598211"}}, {"type": "node", "id": 8948687546, "lat": 40.6209359, "lon": 16.4111441, "tags": {"addr:city": "Grottole", "addr:postcode": "75010", "addr:street": "Contrada Bosco Coste", "amenity": "restaurant", "cuisine": "italian", "name": "Podus Mangio dunque sono", "phone": "+39 349 545 5873"}}, {"type": "node", "id": 8949033480, "lat": 40.6674363, "lon": 16.6076197, "tags": {"addr:city": "Matera", "addr:housenumber": "27", "addr:postcode": "75100", "addr:street": "Via San Biagio", "amenity": "restaurant", "check_date": "2024-09-17", "contact:facebook": "https://www.facebook.com/tierramatera", "contact:instagram": "https://www.instagram.com/tierra.matera/", "cuisine": "regional;italian", "name": "Osteria San Giovanni", "phone": "+393518044939", "website": "https://www.tierramatera.com/"}}, {"type": "node", "id": 9023097018, "lat": 40.6661805, "lon": 16.6095424, "tags": {"addr:housenumber": "62", "addr:postcode": "75100", "addr:street": "Via Sette Dolori", "amenity": "restaurant"}}, {"type": "node", "id": 9115204992, "lat": 40.6661059, "lon": 16.6085629, "tags": {"amenity": "restaurant", "name": "Annina"}}, {"type": "node", "id": 9115768371, "lat": 40.6659927, "lon": 16.6077232, "tags": {"addr:housenumber": "33", "addr:street": "via delle Beccherie", "amenity": "restaurant", "check_date": "2024-09-17", "name": "Il Cantuccio"}}, {"type": "node", "id": 9116960699, "lat": 40.6842758, "lon": 16.5817979, "tags": {"amenity": "restaurant", "description": "asporto, self service", "name": "La Bottega dello Chef"}}, {"type": "node", "id": 9183198217, "lat": 40.8254617, "lon": 16.5548048, "tags": {"addr:housenumber": "63", "addr:street": "Corso Umberto I", "amenity": "restaurant", "name": "Pein Assutt"}}, {"type": "node", "id": 9273092488, "lat": 40.669437, "lon": 16.6072834, "tags": {"addr:housenumber": "44", "addr:street": "Via Tommaso Stigliani", "air_conditioning": "yes", "amenity": "restaurant", "bar": "no", "check_date": "2022-05-27", "contact:instagram": "https://www.instagram.com/ego_gourmet_restaurant?igshid=YmMyMTA2M2Y=", "description": "Ristorante sensoriale con influenze tradizionali.", "name": "EGO Ristorante", "opening_hours": "Mo, We-Su 19:15-22:00, 12:30-14:00", "outdoor_seating": "no", "phone": "+39 392 903 0963", "reservation": "yes", "website": "https://www.egogourmet.it/ego-ristorante-gourmet-matera-2/"}}, {"type": "node", "id": 9276255917, "lat": 40.6709121, "lon": 16.5953364, "tags": {"amenity": "restaurant", "name": "Essenza"}}, {"type": "node", "id": 9301162817, "lat": 40.6706801, "lon": 16.6058305, "tags": {"addr:housenumber": "6", "addr:street": "Via Annunziatella", "amenity": "cafe", "description": "Luxury shop e caff\u00e8 all'inizio della trafficata e passeggiata \"Via Annunziatella\" nello shop sono presenti tavoli all'interno nella stagione invernale e esterni nella stagione estiva. Prodotti lievitati da migliorare ma caff\u00e8 e posto sono davvero Top!", "name": "Di Bitonto Cafe luxury shop", "opening_hours": "Mo-Su 07:30-13:00, 16:00-20:30", "phone": "+39 0835 334002", "website": "https://www.dibitonto.it/"}}, {"type": "node", "id": 9311530917, "lat": 40.6679941, "lon": 16.6083298, "tags": {"amenity": "restaurant", "name": "Osteria Malatesta"}}, {"type": "node", "id": 9372126792, "lat": 40.8270867, "lon": 16.5530622, "tags": {"addr:city": "Altamura", "addr:housenumber": "73", "addr:postcode": "70022", "addr:street": "Corso Federico II di Svevia", "amenity": "cafe", "cuisine": "italian", "name": "Caffe' Ronchi Striccoli", "phone": "+39 0803117001"}}, {"type": "node", "id": 9506307217, "lat": 40.6682057, "lon": 16.6090295, "tags": {"amenity": "restaurant", "name": "S. Pietro Barisano"}}, {"type": "node", "id": 9506671717, "lat": 40.6675308, "lon": 16.6045346, "tags": {"addr:city": "Matera", "addr:housenumber": "48", "addr:postcode": "75100", "addr:street": "Via Lucana", "amenity": "restaurant", "check_date": "2024-12-10", "name": "Trattoria Lucana", "phone": "+39 0835 33 61 17", "website": "https://trattorialucana.it/"}}, {"type": "node", "id": 9506749417, "lat": 40.6621858, "lon": 16.6109285, "tags": {"addr:city": "Matera", "addr:housenumber": "13", "addr:postcode": "75100", "addr:street": "Via Bruno Buozzi", "amenity": "restaurant", "email": "info@lalopa.com", "name": "La Lopa", "opening_hours": "Mo-Fr 19:30-22:30; Sa 12:30-14:30,19:30-22:30; Su 12:30-14:30,19:30-22:30", "phone": "+39 0835 1651370", "website": "https://www.lalopa.com/"}}, {"type": "node", "id": 9522535217, "lat": 40.6673716, "lon": 16.6078254, "tags": {"addr:housenumber": "73", "addr:street": "Via Rosario", "amenity": "restaurant", "name": "La Grotta nei Sassi", "phone": "3910030007"}}, {"type": "node", "id": 9733743417, "lat": 40.6677495, "lon": 16.6081236, "tags": {"amenity": "restaurant", "check_date": "2024-09-17", "name": "Materia Prima Bistro", "name:it": "Materia Prima Bistrot"}}, {"type": "node", "id": 9733755417, "lat": 40.6659363, "lon": 16.6053071, "tags": {"amenity": "restaurant", "name": "Fior di Latte", "name:it": "Il Fiore del Latte"}}, {"type": "node", "id": 9755650218, "lat": 40.801328, "lon": 16.7622307, "tags": {"addr:postcode": "70029", "addr:street": "Via Stazione", "amenity": "restaurant", "name": "Il giglio, ristorante-pizzeria", "name:en": "Italian food and pizza", "opening_hours": "Mo-Su 12:30-15:00, 20:30-00:00"}}, {"type": "node", "id": 9761645218, "lat": 40.8254133, "lon": 16.5527331, "tags": {"addr:housenumber": "3", "addr:street": "Piazza Resistenza", "amenity": "restaurant"}}, {"type": "node", "id": 9781212486, "lat": 40.6755826, "lon": 16.574379, "tags": {"air_conditioning": "yes", "amenity": "restaurant", "bar": "no", "check_date": "2022-05-30", "cuisine": "pizza", "name": "Stand - Up!", "opening_hours": "Mo-Sa 22:00-19:00", "payment:mastercard": "yes", "payment:visa": "yes", "phone": "+39 0835 381830", "takeaway": "yes"}}, {"type": "node", "id": 9791157629, "lat": 40.678635, "lon": 16.5871737, "tags": {"addr:street": "Via Dante Alighieri", "amenity": "restaurant", "contact:facebook": "https://www.facebook.com/onetheoriginal/", "description": "Pizzeria con posti a sedere esterni nella stagione estiva, possibilit\u00e0 di consumo anche all interno.", "name": "Pizzeria \"One The Original\"", "phone": "+39 0835 261729"}}, {"type": "node", "id": 9791651334, "lat": 40.6774671, "lon": 16.5873467, "tags": {"addr:housenumber": "79", "addr:street": "Via Dante Alighieri", "amenity": "restaurant", "name": "Pizzeria \"Anema & Core\"", "phone": "+39 0835 262004"}}, {"type": "node", "id": 9791884125, "lat": 40.6626242, "lon": 16.6090211, "tags": {"addr:housenumber": "26", "addr:street": "Via Emanuele Duni", "amenity": "restaurant", "check_date": "2022-06-03", "internet_access": "wlan", "internet_access:fee": "customers", "name": "L'acquasotto Bistrot", "payment:mastercard": "yes", "payment:visa": "yes", "phone": "+39 333 114 8000", "takeaway": "yes", "wheelchair": "yes"}}, {"type": "node", "id": 9791893262, "lat": 40.6615325, "lon": 16.6100284, "tags": {"addr:city": "Matera", "addr:housenumber": "226", "air_conditioning": "yes", "amenity": "cafe", "bar": "yes", "brand": "Various", "check_date": "2022-06-16", "cuisine": "coffee_shop", "delivery": "no", "description": "Caffe Torrefazione \"Grieco\"", "highchair": "yes", "internet_access": "no", "name": "\"Alto\" Caf\u00e9 & More", "opening_hours": "07:00-03:00", "outdoor_seating": "yes", "payment:mastercard": "yes", "payment:visa": "yes", "phone": "+39 0835 1970195", "reservation": "yes", "takeaway": "yes", "wheelchair": "no"}}, {"type": "node", "id": 9791963347, "lat": 40.6646054, "lon": 16.5989607, "tags": {"air_conditioning": "yes", "amenity": "cafe", "bar": "yes", "brand": "Torrefazione \"Gallitelli\"", "check_date": "2022-06-03", "cuisine": "coffee_shop;sandwich;juice;cake;chocolate;dessert;breakfast;local;bakery;mediterranean", "delivery": "no", "description": "Descrizione, vision & mission dell'azienda disponibile qui: https://www.gallitellicaffe.it/en/our-story/", "highchair": "yes", "name": "Caffetteria \"Gallitelli\"", "note": "\u00c8 possibile consumare caff\u00e8 torrefazione \"Gallitelli\" alle macchine automatiche presenti in via Annunziatella 67 sempre a Matera", "outdoor_seating": "yes", "payment:cash": "yes", "payment:coins": "yes", "payment:credit_cards": "yes", "payment:debit_cards": "yes", "reservation": "yes", "takeaway": "yes", "website": "https://www.gallitellicaffe.it/"}}, {"type": "node", "id": 9796547550, "lat": 40.675662, "lon": 16.5843928, "tags": {"addr:housenumber": "18", "addr:street": "Piazzetta Tre Torri", "amenity": "restaurant", "name": "\"GNAM GNAM\" Steakhouse", "opening_hours": "Mo-Sa 19:30-00:00"}}, {"type": "node", "id": 9796563326, "lat": 40.675606, "lon": 16.5845002, "tags": {"addr:housenumber": "19", "addr:street": "Piazzetta Tre Torri", "amenity": "restaurant", "name": "\"CIBUS\" Pizzeria"}}, {"type": "node", "id": 9797156107, "lat": 40.8159385, "lon": 16.4152934, "tags": {"addr:city": "Gravina in Puglia", "addr:housenumber": "4", "addr:street": "Piazza Pellicciarilebiscito", "amenity": "restaurant", "cuisine": "regional", "name": "Ristorante Tibbasta", "outdoor_seating": "yes", "phone": "+39 080 3268432", "website": "https://tibbasta.it"}}, {"type": "node", "id": 9804223685, "lat": 40.6773352, "lon": 16.5742112, "tags": {"air_conditioning": "yes", "amenity": "restaurant", "bar": "yes", "check_date": "2022-06-08", "description": "Hamilton ristorante per feste, compleanni ed eventi", "name": "Ristorante per feste \"Hamilton\""}}, {"type": "node", "id": 9804525973, "lat": 40.6780434, "lon": 16.5711259, "tags": {"amenity": "restaurant", "check_date": "2022-06-08", "name": "RistoGlobo Hotellerie e Attrezzature per ristorazione"}}, {"type": "node", "id": 9805903346, "lat": 40.6678714, "lon": 16.5714628, "tags": {"addr:housenumber": "45", "addr:street": "Via La Martella", "amenity": "restaurant", "check_date": "2022-06-09", "name": "Pizzeria Ristorante \"Il giardino di Pan\""}}, {"type": "node", "id": 9812250595, "lat": 40.6667669, "lon": 16.6094922, "tags": {"amenity": "restaurant", "check_date": "2022-06-12", "name": "Pietra Viva i sapori della Lucania", "payment:mastercard": "yes", "payment:visa": "yes"}}, {"type": "node", "id": 9812257035, "lat": 40.6687776, "lon": 16.6109807, "tags": {"addr:city": "Matera", "addr:housenumber": "29", "addr:postcode": "75100", "addr:street": "Via Madonna delle Virt\u00f9", "amenity": "restaurant", "check_date": "2022-06-12", "name": "Osteria al Casale", "payment:mastercard": "yes", "payment:visa": "yes", "phone": "+39 329 802 1190;+39 0835 684645", "website": "https://www.osterialcasale.it/"}}, {"type": "node", "id": 9812281047, "lat": 40.6672477, "lon": 16.6128216, "tags": {"addr:city": "Matera", "addr:housenumber": "13", "addr:postcode": "75100", "addr:street": "Via Madonna delle Virt\u00f9", "amenity": "restaurant", "check_date": "2022-06-12", "description": "Ristorante 1 stella Michelin", "email": "info@vlristorante.it", "indoor_seating": "yes", "name": "Vitantonio Lombardo Ristorante", "outdoor_seating": "no", "phone": "+39 0835 335475", "reservation": "recommended", "smoking": "outside", "stars": "1", "website": "https://www.vlristorante.it"}}, {"type": "node", "id": 9812314797, "lat": 40.6622893, "lon": 16.6103169, "tags": {"amenity": "restaurant", "check_date": "2022-06-12", "contact:facebook": "https://www.facebook.com/BollicineMatera/", "contact:instagram": "https://instagram.com/bollicine_matera?igshid=YmMyMTA2M2Y=", "name": "Bollicine Ristorante", "phone": "+39 349 147 5254"}}, {"type": "node", "id": 9812314798, "lat": 40.6623459, "lon": 16.610319, "tags": {"amenity": "cafe", "check_date": "2022-06-12", "name": "Charlie's coffe & Teas"}}, {"type": "node", "id": 9812324629, "lat": 40.6622703, "lon": 16.6103205, "tags": {"amenity": "restaurant", "check_date": "2022-06-12", "name": "Dottoni", "payment:mastercard": "yes", "payment:visa": "yes", "phone": "+39 350 039 6340", "wheelchair": "no"}}, {"type": "node", "id": 9815439189, "lat": 40.6847219, "lon": 16.57554, "tags": {"amenity": "cafe", "cuisine": "coffee_shop", "name": "Bar", "takeaway": "yes"}}, {"type": "node", "id": 9816927349, "lat": 40.6782134, "lon": 16.5932201, "tags": {"air_conditioning": "yes", "amenity": "restaurant", "bar": "yes", "brewery": "yes", "check_date": "2022-06-14", "cuisine": "pizza;coffee_shop;italian;ice_cream;chocolate;dessert;friture;italian_pizza", "name": "Ristorante - Pizzeria \"San Pardo\"", "phone": "+39 0835 381774", "source": "local knowledge;survey;aerial imagery;gps", "takeaway": "yes"}}, {"type": "node", "id": 9824355717, "lat": 40.5683514, "lon": 16.5009612, "tags": {"addr:housenumber": "32", "addr:postcode": "75010", "addr:street": "Via Estramurale Castello", "amenity": "restaurant", "name": "Hosteria del Malconsiglio"}}, {"type": "node", "id": 9858211589, "lat": 40.6778799, "lon": 16.5825939, "tags": {"addr:housenumber": "7", "addr:street": "Via Bari", "air_conditioning": "yes", "amenity": "restaurant", "brewery": "yes", "check_date": "2022-06-30", "cuisine": "pizza", "name": "Pizzeria \"Rugantino\"", "payment:mastercard": "yes", "payment:visa": "yes", "phone": "+39 329 989 5364", "smoking": "outside", "source": "local knowledge", "takeaway": "yes", "website": "https://www.ilrugantino.it/"}}, {"type": "node", "id": 9874675802, "lat": 40.6611636, "lon": 16.612335, "tags": {"amenity": "restaurant", "check_date": "2022-07-08", "name": "Al Caveau Ristorante"}}, {"type": "node", "id": 9900136521, "lat": 40.665989, "lon": 16.6043242, "tags": {"amenity": "restaurant", "cuisine": "pizza", "name": "Italiae Gustum"}}, {"type": "node", "id": 9900147545, "lat": 40.6658506, "lon": 16.604825, "tags": {"amenity": "restaurant", "check_date": "2022-07-20", "cuisine": "hawaiian", "name": "Ristorante Hawaiano \"Ohana\"", "phone": "+39 0835 165 9883"}}, {"type": "node", "id": 9903855483, "lat": 40.6626744, "lon": 16.5330773, "tags": {"amenity": "restaurant", "cuisine": "italian;pizza", "name": "Il Poeta Contadino Matera", "phone": "+39 0835 307688", "takeaway": "yes"}}, {"type": "node", "id": 9904175798, "lat": 40.5566862, "lon": 16.6644814, "tags": {"amenity": "restaurant", "check_date": "2022-07-22", "description": "Caveosus SAS di Suglia Gianvincenzo & C.", "name": "Ristorante Caveosus", "phone": "+39 331 283 7961"}}, {"type": "node", "id": 9904211454, "lat": 40.5569131, "lon": 16.6640326, "tags": {"amenity": "cafe", "check_date": "2022-07-22", "cuisine": "coffee_shop", "name": "Caff\u00e8 Letterario", "phone": "+39 0835 200296"}}, {"type": "node", "id": 9904771695, "lat": 40.6678891, "lon": 16.6865796, "tags": {"amenity": "restaurant", "check_date": "2022-07-22", "name": "Gran Casale delle Gravine", "phone": "+39 366 725 9991"}}, {"type": "node", "id": 9904805068, "lat": 40.6853771, "lon": 16.6676167, "tags": {"amenity": "restaurant", "check_date": "2022-07-22", "cuisine": "regional;mediterranean", "name": "Agriturismo \"Torre Spagnola\"", "phone": "+39 0835 339214", "website": "https://www.torrespagnola.it/"}}, {"type": "node", "id": 9904812383, "lat": 40.6691168, "lon": 16.6877947, "tags": {"amenity": "restaurant", "check_date": "2022-07-22", "cuisine": "steak_house", "name": "Braceria \"EL CARNERO\"", "phone": "+39 376 001 8867", "website": "https://el-carnero-braceria.business.site/?utm_source=gmb&utm_medium=referral/"}}, {"type": "node", "id": 9909490943, "lat": 40.6702651, "lon": 16.5824418, "tags": {"amenity": "restaurant", "check_date": "2022-07-25", "cuisine": "pizza", "name": "Peccati di Gola", "phone": "+39 0835 204079"}}, {"type": "node", "id": 9925111110, "lat": 40.6729313, "lon": 16.5816006, "tags": {"amenity": "cafe", "check_date": "2022-08-01", "name": "Caf\u00e9 La Plaza", "phone": "+39 389 833 5503"}}, {"type": "node", "id": 9926391360, "lat": 40.6736095, "lon": 16.578928, "tags": {"amenity": "restaurant", "check_date": "2022-08-02", "name": "Ristorante Ossi di seppia"}}, {"type": "node", "id": 9931870064, "lat": 40.6430053, "lon": 16.6173311, "tags": {"addr:city": "Matera", "addr:street": "Contrada San Francesco", "amenity": "restaurant", "check_date": "2022-11-19", "contact:facebook": "https://www.facebook.com/masseriafortificatasanfrancesco/", "contact:instagram": "https://instagram.com/masseriasanfrancescomatera?igshid=YmMyMTA2M2Y=", "cuisine": "italian", "email": "info@masseriasanfrancesco.com", "image": "https://flic.kr/p/2o18Syz", "name": "Masseria Fortificata San Francesco", "phone": "+39 0835 234534", "website": "https://masseriasanfrancesco.com/"}}, {"type": "node", "id": 9936059500, "lat": 40.6688634, "lon": 16.6022005, "tags": {"amenity": "restaurant", "check_date": "2022-08-06", "cuisine": "pizza", "name": "Capitan Piada", "phone": "+39 0835 334199"}}, {"type": "node", "id": 9942205427, "lat": 40.6318391, "lon": 16.7983994, "tags": {"amenity": "cafe"}}, {"type": "node", "id": 9942205453, "lat": 40.6316608, "lon": 16.7956101, "tags": {"amenity": "cafe"}}, {"type": "node", "id": 9944957817, "lat": 40.6696347, "lon": 16.6093821, "tags": {"amenity": "restaurant", "name": "Baccus"}}, {"type": "node", "id": 9985939881, "lat": 40.8907402, "lon": 16.7716459, "tags": {"amenity": "restaurant", "email": "locandadegliangeli2018@gmail.com", "name": "Locanda degli Angeli", "phone": "+39 0808093774", "website": "https://www.locandadegliangeli.com/"}}, {"type": "node", "id": 9986022833, "lat": 40.6691011, "lon": 16.6095822, "tags": {"addr:city": "Matera", "addr:housenumber": "14", "addr:postcode": "75100", "addr:street": "Via d'Addozio", "amenity": "restaurant", "name": "Gi\u00f9 a Sud Bistrot nei Sassi", "opening_hours": "11:00-15:00,19:00-22:30", "phone": "+39 0835 256630", "phone:mobile": "+39 349 627 9199", "website": "https://giuasudmatera.business.site/"}}, {"type": "node", "id": 10026751201, "lat": 40.7902533, "lon": 16.7520541, "tags": {"addr:city": "Santeramo in Colle", "addr:housenumber": "13", "addr:postcode": "70029", "addr:street": "Via Matera", "alt_name": "Dolce Forno", "amenity": "restaurant", "changing_table": "yes", "changing_table:count": "1", "changing_table:fee": "no", "changing_table:location": "wheelchair_toilet;unisex_toilet", "email": "dolceforno70029@gmail.com", "internet_access": "wlan", "internet_access:fee": "no", "level": "0", "name": "Dolceforno Caff\u00e8", "opening_hours": "Mo-Su 05:00-22:30; PH closed", "phone": "+39 080 302 65 25", "phone:mobile": "+39 335 788 46 77", "takeaway": "yes", "toilets": "yes", "toilets:access": "customers", "toilets:wheelchair": "designated", "wheelchair": "yes"}}, {"type": "node", "id": 10029953198, "lat": 40.888272, "lon": 16.7701885, "tags": {"addr:city": "Cassano delle Murge", "addr:housenumber": "29", "addr:postcode": "70020", "addr:street": "Via Maresciallo d'Italia Luigi Cadorna", "amenity": "restaurant", "cuisine": "pizza", "drive_through": "no", "name": "Vizio Pizza", "operator": "Burdo Antonio", "phone": "+39 342 090 38 77", "takeaway": "yes"}}, {"type": "node", "id": 10029954356, "lat": 40.6696506, "lon": 16.6094518, "tags": {"addr:city": "Matera", "addr:housenumber": "14", "addr:postcode": "75100", "addr:street": "Via d'Addozio", "amenity": "restaurant", "name": "Gi\u00f9 a Sud - Bistrot nei Sassi -", "opening_hours": "Mo-Su 11:00-15:00,19:00-22:30; PH off", "outdoor_seating": "yes", "payment:cash": "yes", "payment:credit_cards": "yes", "phone": "+39 0835 256630", "phone:mobile": "+39 349 627 91 99", "website": "https://giuasudmatera.business.site/"}}, {"type": "node", "id": 10072633199, "lat": 40.6566681, "lon": 16.4740924, "tags": {"amenity": "restaurant", "check_date": "2022-10-03", "name": "DA Cecilia"}}, {"type": "node", "id": 10086906015, "lat": 40.6765553, "lon": 16.5979787, "tags": {"addr:city": "Matera", "addr:housenumber": "4", "addr:street": "Via San Pardo", "amenity": "restaurant", "check_date": "2022-10-09", "name": "L'angolo del Sapore", "opening_hours": "Mo-Sa 12:30-17:00,19:30-23:00; Su 12:30-15:30", "outdoor_seating": "yes", "phone": "0835 197 0465", "toilets": "yes"}}, {"type": "node", "id": 10087088582, "lat": 40.6658528, "lon": 16.6082386, "tags": {"amenity": "restaurant", "check_date": "2024-09-17", "name": "L'ARCO osteria caffetteria"}}, {"type": "node", "id": 10087121160, "lat": 40.6660756, "lon": 16.607484, "tags": {"amenity": "restaurant", "check_date": "2022-10-09", "name": "MoMang Ristorante America Bar"}}, {"type": "node", "id": 10098399097, "lat": 40.6728465, "lon": 16.585435, "tags": {"addr:housenumber": "5/A", "addr:street": "Via La Martella", "air_conditioning": "yes", "amenity": "restaurant", "bar": "yes", "check_date": "2022-11-10", "cuisine": "asian", "name": "SHIBUMI Fusion Experience", "opening_hours": "12:30-15:00,19:30-24:00", "payment:mastercard": "yes", "payment:visa": "yes", "phone": "+39 0835 194 2857", "reservation": "yes", "smoking": "outside", "source": "local knowledge"}}, {"type": "node", "id": 10103685921, "lat": 40.6657221, "lon": 16.6037029, "tags": {"addr:housenumber": "10", "addr:street": "Via Michele Torraca", "amenity": "restaurant", "check_date": "2022-10-15", "name": "Sottofondo Gustoteca", "payment:mastercard": "yes", "payment:visa": "yes", "phone": "+39 0835 405852"}}, {"type": "node", "id": 10148949218, "lat": 40.6622123, "lon": 16.6109145, "tags": {"addr:housenumber": "13", "addr:street": "Via Bruno Buozzi", "amenity": "restaurant", "name": "La Lopa"}}, {"type": "node", "id": 10180125011, "lat": 40.6716176, "lon": 16.6047358, "tags": {"amenity": "cafe"}}, {"type": "node", "id": 10180133718, "lat": 40.6718406, "lon": 16.6058768, "tags": {"amenity": "restaurant", "name": "Ristorante pizzeria da Nuccio"}}, {"type": "node", "id": 10180133727, "lat": 40.6701735, "lon": 16.5971026, "tags": {"amenity": "restaurant", "name": "Break Paradise trattoria pizzeria self service"}}, {"type": "node", "id": 10278745211, "lat": 40.8265205, "lon": 16.5539531, "tags": {"addr:housenumber": "28", "addr:postcode": "70022", "addr:street": "Via San Michele", "amenity": "restaurant", "cuisine": "italian", "indoor_seating": "yes", "name": "Tre Archi", "opening_hours": "Tu-Su 13:00-15:00, 19:30-23:30", "outdoor_seating": "no", "phone": "+39 080 311 5569", "website": "https://www.trearchi.it/"}}, {"type": "node", "id": 10289512515, "lat": 40.6734978, "lon": 16.587001, "tags": {"amenity": "restaurant", "check_date": "2022-12-27", "name": "\"A Barraca\" Bont\u00e0 Brasiliane"}}, {"type": "node", "id": 10576425541, "lat": 40.5052887, "lon": 16.4529283, "tags": {"amenity": "restaurant", "name": "Pizzeria La Fenice"}}, {"type": "node", "id": 10576425641, "lat": 40.5002036, "lon": 16.454931, "tags": {"amenity": "restaurant", "name": "Pizzeria Il Grottino"}}, {"type": "node", "id": 10750657306, "lat": 40.6304996, "lon": 16.7992928, "tags": {"addr:housenumber": "105", "addr:street": "Via Roma", "amenity": "cafe", "name": "105"}}, {"type": "node", "id": 10774062425, "lat": 40.8108433, "lon": 16.4319661, "tags": {"amenity": "restaurant", "cuisine": "pizza", "name": "Pizzeria Sporland"}}, {"type": "node", "id": 10781952861, "lat": 40.8336248, "lon": 16.5553337, "tags": {"addr:city": "Altamura", "addr:housenumber": "38", "addr:postcode": "70022", "addr:street": "Via Bassano", "amenity": "restaurant", "cuisine": "japanese", "name": "Malanghino"}}, {"type": "node", "id": 10781964414, "lat": 40.8370187, "lon": 16.5539955, "tags": {"addr:city": "Altamura", "addr:housenumber": "120", "addr:postcode": "70022", "addr:street": "Via IV Novembre", "amenity": "restaurant", "name": "Degu XXL"}}, {"type": "node", "id": 11092350175, "lat": 40.6706599, "lon": 16.609635, "tags": {"amenity": "cafe", "name": "BARisano"}}, {"type": "node", "id": 11187789137, "lat": 40.8171609, "lon": 16.4151027, "tags": {"amenity": "cafe", "indoor_seating": "yes", "name": "Caff\u00e8 Bella Vista", "outdoor_seating": "yes"}}, {"type": "node", "id": 11187803937, "lat": 40.8206103, "lon": 16.4172198, "tags": {"amenity": "cafe", "name": "Toscaffe' Di Toscaffe\u2019 SRL;Caffetteria Pasticceria Gelateria Rosticceria"}}, {"type": "node", "id": 11215490339, "lat": 40.8189362, "lon": 16.5595949, "tags": {"amenity": "restaurant"}}, {"type": "node", "id": 11246914537, "lat": 40.6665605, "lon": 16.6036892, "tags": {"amenity": "restaurant", "name": "Capatosta"}}, {"type": "node", "id": 11261324137, "lat": 40.4827572, "lon": 16.4953105, "tags": {"amenity": "cafe"}}, {"type": "node", "id": 11293310012, "lat": 40.5118182, "lon": 16.8184851, "tags": {"amenity": "cafe", "name": "Caffetteria Del Donno"}}, {"type": "node", "id": 11395838372, "lat": 40.7954612, "lon": 16.7525368, "tags": {"addr:city": "Santeramo in Colle", "addr:housenumber": "35", "addr:postcode": "70029", "addr:street": "Via Guglielmo Marconi", "amenity": "cafe", "cuisine": "coffee_shop", "name": "Bambusa Coffee Bar"}}, {"type": "node", "id": 11534552175, "lat": 40.6643483, "lon": 16.6117428, "tags": {"amenity": "restaurant", "cuisine": "local", "name": "Francesca"}}, {"type": "node", "id": 11542793269, "lat": 40.6651554, "lon": 16.6079852, "tags": {"addr:housenumber": "7", "addr:street": "Via Rocco Scotellaro", "amenity": "restaurant", "name": "Burro Salato"}}, {"type": "node", "id": 11807469840, "lat": 40.6633015, "lon": 16.609758, "tags": {"amenity": "restaurant", "name": "Aroma Profumi e Sapori"}}, {"type": "node", "id": 11980759069, "lat": 40.6695627, "lon": 16.6093682, "tags": {"amenity": "restaurant", "name": "Baccus Ristorante"}}, {"type": "node", "id": 11985477247, "lat": 40.6717187, "lon": 16.6039575, "tags": {"addr:floor": "G", "air_conditioning": "yes", "amenity": "cafe", "bar": "yes", "changing_table": "no", "check_date": "2024-06-16", "cuisine": "coffee_shop", "level": "0", "name": "Wine & Coffee", "outdoor_seating": "yes", "payment:cash": "yes", "payment:mastercard": "yes", "payment:visa": "yes", "smoking": "outside", "source": "survey", "toilets": "yes", "toilets:menstrual_products": "no", "wheelchair": "no"}}, {"type": "node", "id": 12039009816, "lat": 40.8172897, "lon": 16.4270504, "tags": {"addr:city": "Gravina in Puglia", "addr:postcode": "70024", "addr:street": "Via Concilio Vaticano II", "amenity": "restaurant", "cuisine": "pizza", "name": "SAPORE\u2019 (RISTORANTE-PIZZERIA)"}}, {"type": "node", "id": 12039028032, "lat": 40.8162204, "lon": 16.4256492, "tags": {"addr:city": "Gravina in Puglia", "addr:housenumber": "74", "addr:postcode": "70024", "addr:street": "Via Guardialto", "amenity": "restaurant", "cuisine": "pizza;smoothies;sandwich", "name": "Fabrizio Wellness FOOD"}}, {"type": "node", "id": 12039069336, "lat": 40.8345763, "lon": 16.5608272, "tags": {"amenity": "restaurant", "cuisine": "sushi", "name": "Sushi Tao"}}, {"type": "node", "id": 12039077179, "lat": 40.8212072, "lon": 16.417803, "tags": {"addr:street": "Via Federico Menini", "amenity": "restaurant", "cuisine": "seafood", "name": "Meninni 52", "opening_hours": "Mo,We-Sa 12:00-16:00,19:00-24:00; Tu,Su off", "phone": "+393483166975", "website": "https//:www.mennini52.it"}}, {"type": "node", "id": 12039077192, "lat": 40.8165438, "lon": 16.4135326}, {"type": "node", "id": 12039077193, "lat": 40.8164691, "lon": 16.4136437}, {"type": "node", "id": 12039077194, "lat": 40.8163892, "lon": 16.4134854}, {"type": "node", "id": 12039077195, "lat": 40.8164679, "lon": 16.41342}, {"type": "node", "id": 12039077196, "lat": 40.8165402, "lon": 16.4135273}, {"type": "node", "id": 12039077197, "lat": 40.816581, "lon": 16.4136183, "tags": {"amenity": "restaurant", "name": "Sottofondo Gustoteca"}}, {"type": "node", "id": 12039077198, "lat": 40.816678, "lon": 16.4137329, "tags": {"amenity": "restaurant", "cuisine": "sushi", "name": "Fondo Crudo"}}, {"type": "node", "id": 12090858228, "lat": 40.8184705, "lon": 16.4245434, "tags": {"amenity": "restaurant", "name": "Materia Prima"}}, {"type": "node", "id": 12090977328, "lat": 40.820108, "lon": 16.4328081, "tags": {"amenity": "restaurant", "cuisine": "pizza", "name": "Teranga"}}, {"type": "node", "id": 12090977365, "lat": 40.8227297, "lon": 16.4232771, "tags": {"amenity": "restaurant", "cuisine": "pizza", "name": "Miseria & Nobilt\u00e0"}}, {"type": "node", "id": 12090977369, "lat": 40.8223565, "lon": 16.4224403, "tags": {"amenity": "restaurant", "cuisine": "pizza", "name": "Fa\u2019 9 Pizzeria"}}, {"type": "node", "id": 12112290941, "lat": 40.8930613, "lon": 16.7683141, "tags": {"addr:city": "Cassano delle Murge", "addr:housenumber": "18", "addr:postcode": "70020", "addr:street": "Via Generale Giovanni Magli", "amenity": "restaurant", "cuisine": "pizza", "name": "Cice - Pizzeria Contemporanea"}}, {"type": "node", "id": 12144405283, "lat": 40.6667119, "lon": 16.6095208, "tags": {"amenity": "restaurant", "name": "Pietra Viva"}}, {"type": "node", "id": 12144414343, "lat": 40.6667574, "lon": 16.6096505, "tags": {"amenity": "restaurant", "name": "Pasta e pomodoro"}}, {"type": "node", "id": 12144419591, "lat": 40.6667166, "lon": 16.6071973, "tags": {"amenity": "restaurant", "name": "Nad\u00ec"}}, {"type": "node", "id": 12151880638, "lat": 40.6671539, "lon": 16.6130662, "tags": {"amenity": "restaurant", "name": "Virt\u00f9 Pizza & Cucina"}}, {"type": "node", "id": 12151880686, "lat": 40.6623472, "lon": 16.6120617, "tags": {"addr:housenumber": "311", "addr:street": "Rione Casalnuovo", "amenity": "restaurant", "cuisine": "local", "name": "Stone Age Terrazza"}}, {"type": "node", "id": 12151880689, "lat": 40.6656763, "lon": 16.6128919, "tags": {"amenity": "restaurant", "cuisine": "local", "name": "Dulcis in Fundo"}}, {"type": "node", "id": 12151880690, "lat": 40.6643238, "lon": 16.6115588, "tags": {"addr:housenumber": "184", "addr:street": "Via Bruno Buozzi", "amenity": "restaurant", "cuisine": "local", "name": "Peperoncino"}}, {"type": "node", "id": 12151880691, "lat": 40.6645426, "lon": 16.6118538, "tags": {"amenity": "restaurant", "cuisine": "local", "name": "Keiv Ristorante"}}, {"type": "node", "id": 12151960527, "lat": 40.6689228, "lon": 16.6092554, "tags": {"addr:housenumber": "49", "addr:street": "Vico Santa Cesarea", "amenity": "cafe", "name": "Crial\u00f2ss"}}, {"type": "node", "id": 12182426286, "lat": 40.6676274, "lon": 16.6082548, "tags": {"amenity": "restaurant", "check_date": "2024-09-17", "name": "Nocelleria"}}, {"type": "node", "id": 12190706454, "lat": 40.8276201, "lon": 16.5546356, "tags": {"amenity": "restaurant", "indoor_seating": "yes", "name": "Antica Osteria Santa Chiara La Grotta", "outdoor_seating": "no"}}, {"type": "node", "id": 12204988862, "lat": 40.606487, "lon": 16.5695833, "tags": {"amenity": "cafe", "check_date:opening_hours": "2024-09-19", "indoor_seating": "no", "name": "Grieco", "opening_hours:signed": "no", "outdoor_seating": "yes"}}, {"type": "node", "id": 12324459701, "lat": 40.6622075, "lon": 16.6111994, "tags": {"addr:housenumber": "14", "addr:postcode": "75024", "addr:street": "Via Bruno Buozzi", "amenity": "restaurant", "cuisine": "italian", "email": "info@radinowinebistrot.com", "name": "Francesco Radino", "phone": "+39 3382216683", "website": "https://www.radinowinebistrot.com/contact-us/"}}, {"type": "node", "id": 12459216330, "lat": 40.8515971, "lon": 16.6928927, "tags": {"amenity": "restaurant", "diet:vegan": "yes", "diet:vegetarian": "yes", "name": "Agriturismo Solinio Village", "reservation": "recommended"}}, {"type": "node", "id": 12459255013, "lat": 40.8974377, "lon": 16.7736572, "tags": {"amenity": "cafe", "tobacco": "yes"}}, {"type": "node", "id": 12459255015, "lat": 40.8914946, "lon": 16.770655, "tags": {"addr:street": "Via Vittorio Veneto", "amenity": "cafe", "name": "Ohana"}}, {"type": "node", "id": 12459255018, "lat": 40.8901781, "lon": 16.7691123, "tags": {"addr:street": "Piazza Giuseppe Garibaldi", "amenity": "cafe", "name": "Garibaldi"}}, {"type": "node", "id": 12459255205, "lat": 40.8273983, "lon": 16.5605981, "tags": {"addr:street": "Via Santeramo in Colle", "amenity": "cafe", "contact:facebook": "https://www.facebook.com/baroldmill/", "cuisine": "coffee_shop;ice_cream;pastry;sandwich", "name": "Old Mill"}}, {"type": "node", "id": 12565140066, "lat": 40.6678973, "lon": 16.6082736, "tags": {"addr:city": "Matera", "addr:postcode": "75100", "addr:street": "Via San Biagio", "amenity": "restaurant", "cuisine": "italian;coffee_shop", "name": "Fuoco di Vino", "phone": "+393293910506"}}, {"type": "node", "id": 12565140067, "lat": 40.6677669, "lon": 16.6081262, "tags": {"amenity": "restaurant"}}, {"type": "node", "id": 12734520501, "lat": 40.5544218, "lon": 16.6647581, "tags": {"addr:postcode": "75024", "addr:street": "Via Nicola Andrisani", "amenity": "restaurant", "contact:instagram": "il.trappeto", "cuisine": "italian_pizza;pasta", "name": "Il trappeto ristorante - pizzeria", "opening_hours": "Su-Tu, Th 19:30-00:30; Fr 19:30-01:00; Sa 19:30-02:00", "phone": "3894798903"}}, {"type": "node", "id": 12866003633, "lat": 40.579328, "lon": 16.7593501, "tags": {"amenity": "cafe", "name": "La Cavallerizza", "opening_hours": "6:30-1:00", "phone": "0998244222"}}, {"type": "node", "id": 12873080501, "lat": 40.8169809, "lon": 16.4149592, "tags": {"addr:housenumber": "1", "addr:street": "Via Guglielmo Marconi", "amenity": "restaurant", "name": "Al Ritrovo", "opening_hours": "Mo-Su 11:00-15:00, 18:00-02:00", "phone": "+39 348 905 1576"}}, {"type": "way", "id": 243616424, "nodes": [2510009774, 2510009799, 2510009804, 2510009783, 2510009760, 2510009774], "tags": {"addr:city": "Matera", "addr:housenumber": "2", "addr:street": "Via Castello", "amenity": "cafe", "building": "yes", "name": "Caff\u00e8 Il Boschetto", "opening_hours": "PH,Mo-Su 07:00-23:00", "operator": "Fornaro Antonio", "phone:mobile": "+39 328 2257750", "ref:vatin": "IT00044950772", "source": "http://dati.comune.matera.it/dataset/mappa-matera-con-civici-solo-dei-sassi"}}, {"type": "way", "id": 247259087, "nodes": [2541715626, 2541715630, 2541715648, 2541715658, 2541715655, 2541715688, 2541715693, 2541715643, 2541715579, 2541715518, 2541715439, 2541715430, 2541715337, 2541715326, 2541715243, 2541715234, 2541715229, 2541715239, 2541715263, 2541715258, 2541715433, 2541715432, 2541715436, 2541715523, 2541715588, 2541715697, 2541715713, 2541715721, 2541715814, 2541716013, 2541716036, 2541716021, 2541715998, 2541716005, 2541715858, 2541715782, 2541715617, 2541715622, 2541715614, 2541715567, 2541715501, 2541715505, 2541715570, 2541715583, 2541715220, 2541715224, 2541715469, 2541715466, 2541715626], "tags": {"amenity": "restaurant", "building": "yes", "name": "Agriturismo le Matinelle"}}, {"type": "way", "id": 347103533, "nodes": [3535202284, 3535202282, 3535202281, 3535202283, 3535202284], "tags": {"amenity": "restaurant", "cuisine": "italian", "name": "La Selva di Diana", "phone": "+39 080 3466100", "website": "http://www.laselvadidiana.com"}}, {"type": "way", "id": 886168135, "nodes": [8240099421, 8240099422, 8240099423, 8240099424, 8240099425, 8240099426, 8240099421], "tags": {"addr:city": "Altamura", "addr:postcode": "70022", "addr:street": "Masseria Lama Fetente", "amenity": "restaurant", "building": "yes", "cuisine": "italian;regional;coffee_shop", "name": "Asfodello - Ristorante tipico della Murgia"}}, {"type": "way", "id": 1299673475, "nodes": [12039077192, 12039077193, 12039077194, 12039077195, 12039077196, 12039077192], "tags": {"amenity": "restaurant", "building": "yes"}}]}