{"version": 0.6, "generator": "Overpass API 0.7.62.7 375dc00a", "osm3s": {"timestamp_osm_base": "2025-06-14T13:25:11Z", "copyright": "The data included in this document is from www.openstreetmap.org. The data is made available under ODbL."}, "elements": [{"type": "node", "id": 3201919071, "lat": 35.4388396, "lon": 9.5759841, "tags": {"addr:city": "GP3", "amenity": "restaurant", "name": "\u0627\u0644\u0642\u0644\u0629", "name:ar": "\u0627\u0644\u0642\u0644\u0629", "name:fr": "La Gargoulette"}}, {"type": "node", "id": 9037891143, "lat": 35.4005896, "lon": 9.8122001, "tags": {"amenity": "cafe", "name": "Caf\u00e9 Echaouech"}}, {"type": "node", "id": 9868252409, "lat": 35.3475145, "lon": 9.8385505, "tags": {"amenity": "cafe", "name": "Caf\u00e9 Ennasim"}}, {"type": "node", "id": 9988092240, "lat": 35.5188558, "lon": 9.7254198, "tags": {"amenity": "cafe", "name": "\u0645\u0642\u0647\u0649 \u0627\u0644\u0641\u062a\u062d", "name:ar": "\u0645\u0642\u0647\u0649 \u0627\u0644\u0641\u062a\u062d", "name:fr": "Caf\u00e9 El Fath"}}, {"type": "node", "id": 10006526012, "lat": 35.187691, "lon": 9.820786, "tags": {"amenity": "cafe", "name": "\u0645\u0642\u0647\u0649 \u0634\u064a\u0645\u0627\u0621", "name:ar": "\u0645\u0642\u0647\u0649 \u0634\u064a\u0645\u0627\u0621", "name:fr": "Caf\u00e9 Chaima"}}]}