{"version": 0.6, "generator": "Overpass API 0.7.62.7 375dc00a", "osm3s": {"timestamp_osm_base": "2025-06-14T13:49:28Z", "copyright": "The data included in this document is from www.openstreetmap.org. The data is made available under ODbL."}, "elements": [{"type": "node", "id": 4678894795, "lat": 32.1751584, "lon": 13.0303314, "tags": {"amenity": "cafe"}}, {"type": "node", "id": 4678932189, "lat": 32.1698918, "lon": 13.0166565, "tags": {"amenity": "restaurant", "name": "\u0645\u0637\u0639\u0645 \u0627\u0644\u0627\u0644\u0633\u0643\u0627", "name:ar": "\u0645\u0637\u0639\u0645 \u0627\u0644\u0627\u0644\u0633\u0643\u0627", "name:en": "Restaurant"}}, {"type": "node", "id": 4741039523, "lat": 32.1736595, "lon": 13.0305935, "tags": {"amenity": "cafe", "internet_access": "wlan", "name": "\u0642\u0647\u0648\u0629 \u0627\u0644\u062c\u0644\u0633\u0647", "name:ar": "\u0642\u0647\u0648\u0629 \u0627\u0644\u062c\u0644\u0633\u0647", "name:en": "Jalsa cafee", "opening_hours": "Mo-Su 11:00-21:00"}}, {"type": "node", "id": 5396452328, "lat": 32.174051, "lon": 13.0304, "tags": {"addr:street": "\u062c\u0632\u064a\u0631\u0629 \u0627\u0644\u062c\u0631\u0627\u062a", "amenity": "cafe", "name": "\u0645\u0642\u0647\u0649 \u0627\u0644\u0645\u0648\u0639\u062f", "name:ar": "\u0645\u0642\u0647\u0649 \u0627\u0644\u0645\u0648\u0639\u062f", "name:en": "Caf\u00e8 Appuntamento"}}, {"type": "node", "id": 5840649685, "lat": 32.1661178, "lon": 13.0221105, "tags": {"amenity": "restaurant", "name": "\u0645\u0637\u0639\u0645 \u0645\u0627\u0626\u062f\u0629 \u0627\u0644\u0631\u062d\u0645\u0627\u0646 \u0644\u0644\u0648\u062c\u0628\u0627\u062a \u0627\u0644\u0634\u0639\u0628\u064a\u0629", "name:ar": "\u0645\u0637\u0639\u0645 \u0645\u0627\u0626\u062f\u0629 \u0627\u0644\u0631\u062d\u0645\u0627\u0646 \u0644\u0644\u0648\u062c\u0628\u0627\u062a \u0627\u0644\u0634\u0639\u0628\u064a\u0629", "name:en": "Restaurant Traditional Food", "opening_hours": "Mo-Su 07:30-21:00"}}, {"type": "node", "id": 6367286785, "lat": 32.1993207, "lon": 13.042593, "tags": {"amenity": "cafe", "name": "\u0646\u064a\u0631\u0648 \u0643\u0627\u0641\u064a", "name:ar": "\u0646\u064a\u0631\u0648 \u0643\u0627\u0641\u064a", "name:en": "Nero Caf\u00e8"}}, {"type": "node", "id": 6573482385, "lat": 32.1677188, "lon": 13.0095946, "tags": {"amenity": "cafe", "name": "\u0645\u0642\u0647\u0649", "name:ar": "\u0645\u0642\u0647\u0649", "name:en": "Coffee shop"}}, {"type": "node", "id": 6614270322, "lat": 32.0359739, "lon": 12.8699318, "tags": {"amenity": "cafe", "name": "\u0643\u0627\u0641\u064a \u0643\u0627\u0632\u0627", "name:ar": "\u0643\u0627\u0641\u064a \u0643\u0627\u0632\u0627", "name:en": "Casa Cafe"}}, {"type": "node", "id": 7003788386, "lat": 32.1473431, "lon": 13.0048504, "tags": {"addr:street": "Gherian Highway", "amenity": "restaurant", "name": "\u0645\u0637\u0639\u0645 \u0627\u0644\u0631\u0627\u064a\u0633 \u0644\u0644\u0645\u0634\u0627\u0648\u064a", "name:ar": "\u0645\u0637\u0639\u0645 \u0627\u0644\u0631\u0627\u064a\u0633 \u0644\u0644\u0645\u0634\u0627\u0648\u064a", "name:en": "Arraies for Grill"}}, {"type": "node", "id": 7027484885, "lat": 32.0424782, "lon": 12.8647689, "tags": {"amenity": "cafe", "name": "\u0637\u0631\u064a\u0642 \u0627\u0644\u0633\u0631\u064a\u0639", "name:ar": "\u0637\u0631\u064a\u0642 \u0627\u0644\u0633\u0631\u064a\u0639"}}, {"type": "node", "id": 7330420202, "lat": 32.1587566, "lon": 12.8464921, "tags": {"amenity": "cafe"}}, {"type": "node", "id": 7568617221, "lat": 31.8445705, "lon": 12.9842801, "tags": {"amenity": "cafe"}}, {"type": "node", "id": 8007573687, "lat": 31.9970053, "lon": 12.6358649, "tags": {"amenity": "cafe"}}, {"type": "node", "id": 8014498999, "lat": 32.0551792, "lon": 12.8867752, "tags": {"amenity": "restaurant", "name": "\u0645\u0642\u0647\u064a \u0648\u0645\u0637\u0639\u0645 \u0627\u0644\u0627\u0631\u0636", "name:ar": "\u0645\u0642\u0647\u064a \u0648\u0645\u0637\u0639\u0645 \u0627\u0644\u0627\u0631\u0636", "name:en": "Restaurant"}}, {"type": "node", "id": 8014510786, "lat": 32.041478, "lon": 12.8763624, "tags": {"amenity": "restaurant", "name": "\u0645\u0637\u0639\u0645 \u0627\u0644\u0644\u0628\u0627\u062f", "name:ar": "\u0645\u0637\u0639\u0645 \u0627\u0644\u0644\u0628\u0627\u062f", "name:en": "Restaurant"}}, {"type": "node", "id": 8531960417, "lat": 32.1574833, "lon": 12.8307015, "tags": {"amenity": "cafe", "name": "\u0643\u0627\u0641\u064a \u0631\u0648\u0645\u0627", "name:en": "Cafe"}}, {"type": "node", "id": 8531960418, "lat": 32.159862, "lon": 12.8424528, "tags": {"amenity": "cafe", "name": "\u0643\u0627\u0641\u064a \u0628\u0627\u0631\u064a\u0633", "name:en": "Cafe"}}, {"type": "node", "id": 8549148119, "lat": 32.0475796, "lon": 12.8849168, "tags": {"amenity": "cafe", "name": "\u0643\u0627\u0641\u064a", "name:en": "Cafe"}}, {"type": "node", "id": 8549268517, "lat": 32.0568281, "lon": 12.8877605, "tags": {"amenity": "cafe", "name": "\u0643\u0627\u0641\u064a \u0627\u0644\u062c\u0644\u0633\u0629", "name:en": "Cafe"}}, {"type": "node", "id": 8549522417, "lat": 32.0633604, "lon": 12.9016612, "tags": {"amenity": "cafe", "name": "\u0643\u0627\u0641\u064a \u0627\u0631\u0642\u064a\u0644\u0629", "name:en": "Cafe & Shisha"}}, {"type": "node", "id": 8549564620, "lat": 32.0913378, "lon": 12.9657193, "tags": {"amenity": "cafe", "name": "\u0643\u0627\u0641\u064a \u0628\u0627\u0631\u064a\u0633\u062a\u0627", "name:en": "Cafe"}}, {"type": "node", "id": 9352471417, "lat": 32.0305107, "lon": 12.8614929, "tags": {"amenity": "cafe"}}, {"type": "node", "id": 10138119017, "lat": 32.1695931, "lon": 13.0166437, "tags": {"amenity": "cafe", "name:en": "Caf\u00e8 Esbana"}}, {"type": "node", "id": 10294738767, "lat": 32.0223433, "lon": 12.7078027, "tags": {"amenity": "cafe"}}]}