{"version": 0.6, "generator": "Overpass API 0.7.62.7 375dc00a", "osm3s": {"timestamp_osm_base": "2025-06-14T15:13:00Z", "copyright": "The data included in this document is from www.openstreetmap.org. The data is made available under ODbL."}, "elements": [{"type": "node", "id": 4300160503, "lat": 36.5519862, "lon": 34.2401964, "tags": {"amenity": "restaurant", "name": "Me\u015fhur Kanat\u00e7\u0131 Haydar Usta"}}, {"type": "node", "id": 4349229690, "lat": 36.5290601, "lon": 34.218413, "tags": {"amenity": "restaurant", "name": "Zirve Turistik Dinlenme Tesisleri"}}, {"type": "node", "id": 4351924693, "lat": 36.6136624, "lon": 34.3226493, "tags": {"addr:city": "Mersin", "addr:district": "Erdemli", "addr:neighbourhood": "Alata Mahallesi", "amenity": "restaurant", "name": "Halil \u0130brahim Sofras\u0131"}}, {"type": "node", "id": 4396334329, "lat": 36.4925398, "lon": 34.1810888, "tags": {"amenity": "restaurant", "name": "Erdemler Lokanta", "phone": "+90 546 476 8309"}}, {"type": "node", "id": 4859348221, "lat": 36.6427311, "lon": 34.3553897, "tags": {"amenity": "restaurant", "name": "Kay\u0131k\u00e7\u0131o\u011flu Restaurant", "name:tr": "Kay\u0131k\u00e7\u0131o\u011flu Restaurant"}}, {"type": "node", "id": 6294286038, "lat": 36.6063482, "lon": 34.31193, "tags": {"addr:city": "Mersin", "addr:district": "Erdemli", "addr:neighbourhood": "Merkez Mahallesi", "amenity": "restaurant", "name": "Ci\u011ferci Bahattin"}}, {"type": "node", "id": 7887142730, "lat": 36.6077504, "lon": 34.3137787, "tags": {"amenity": "restaurant", "name": "Kebap\u00e7\u0131 Haydar"}}, {"type": "node", "id": 7887149331, "lat": 36.6075636, "lon": 34.3134529, "tags": {"amenity": "restaurant", "name": "Do\u011fan Tantuni"}}, {"type": "node", "id": 7887150218, "lat": 36.6113126, "lon": 34.30218, "tags": {"amenity": "restaurant", "name": "Kebap\u00e7\u0131 Salih"}}, {"type": "node", "id": 9287432552, "lat": 36.5501621, "lon": 34.241057, "tags": {"amenity": "cafe"}}, {"type": "node", "id": 9311018765, "lat": 36.4636017, "lon": 34.1492306, "tags": {"amenity": "cafe"}}, {"type": "node", "id": 9311018767, "lat": 36.4630106, "lon": 34.1482704, "tags": {"amenity": "cafe"}}, {"type": "node", "id": 10992018405, "lat": 36.6060291, "lon": 34.3200606, "tags": {"amenity": "restaurant", "name": "Mandaline Erdemli"}}, {"type": "node", "id": 12079098131, "lat": 36.6088428, "lon": 34.3173182, "tags": {"addr:city": "Mersin", "addr:district": "Erdemli", "addr:housenumber": "14BC", "addr:neighbourhood": "Alata Mahallesi", "addr:street": "Gen\u00e7lik Caddesi", "amenity": "cafe", "name": "Pamuk Ekmek & D\u00f6ner", "shop": "bakery"}}, {"type": "node", "id": 12618579202, "lat": 36.4816635, "lon": 34.1734453, "tags": {"amenity": "restaurant", "cuisine": "turkish", "name": "Narlibah\u00e7e"}}, {"type": "node", "id": 12726496921, "lat": 36.6088768, "lon": 34.3145301, "tags": {"amenity": "restaurant", "name": "\u015e\u0131rdanc\u0131 \u00c7etin"}}]}