{"version": 0.6, "generator": "Overpass API 0.7.62.7 375dc00a", "osm3s": {"timestamp_osm_base": "2025-06-14T15:13:00Z", "copyright": "The data included in this document is from www.openstreetmap.org. The data is made available under ODbL."}, "elements": [{"type": "node", "id": 1757257289, "lat": 37.9723768, "lon": 34.6786505, "tags": {"addr:city": "Ni\u011fde Merkez", "addr:postcode": "51100", "addr:street": "AYHAN \u015eAHENK CADDES\u0130", "amenity": "restaurant", "name": "Damak Lahmacum"}}, {"type": "node", "id": 3973541503, "lat": 37.9621198, "lon": 34.6462235, "tags": {"addr:city": "Ni\u011fde", "amenity": "restaurant", "name": "K\u00f6rfez D\u00f6ner"}}, {"type": "node", "id": 4069989131, "lat": 38.1750066, "lon": 34.4837993, "tags": {"amenity": "cafe"}}, {"type": "node", "id": 4070004236, "lat": 38.175563, "lon": 34.4837156}, {"type": "node", "id": 4070004237, "lat": 38.175466, "lon": 34.4836834}, {"type": "node", "id": 4070009693, "lat": 38.1754249, "lon": 34.4842768}, {"type": "node", "id": 4070009694, "lat": 38.1753279, "lon": 34.4842554}, {"type": "node", "id": 4070009764, "lat": 38.1755008, "lon": 34.4840158}, {"type": "node", "id": 4070009765, "lat": 38.1753827, "lon": 34.4839514}, {"type": "node", "id": 4071123962, "lat": 38.1752098, "lon": 34.4849833, "tags": {"amenity": "cafe"}}, {"type": "node", "id": 4574149600, "lat": 37.9728598, "lon": 34.6783958, "tags": {"addr:city": "Ni\u011fde Merkez", "addr:postcode": "51100", "addr:street": "AYHAN \u015eAHENK CADDES\u0130", "amenity": "restaurant", "cuisine": "regional", "name": "Oba Dondurma", "opening_hours": "24/7", "smoking": "no", "takeaway": "yes"}}, {"type": "node", "id": 4574225640, "lat": 37.9681206, "lon": 34.6748368, "tags": {"addr:city": "Ni\u011fde Merkez", "addr:postcode": "51100", "addr:street": "AYHAN \u015eAHENK CADDES\u0130", "amenity": "restaurant", "capacity": "70", "cuisine": "regional", "delivery": "yes", "name": "Ar\u0131soylar Restorant", "opening_hours": "7:00-12:00", "smoking": "no", "takeaway": "yes"}}, {"type": "node", "id": 4574229925, "lat": 37.9719432, "lon": 34.6795367, "tags": {"amenity": "restaurant", "name": "\u00e7\u0131nar et"}}, {"type": "node", "id": 4574230123, "lat": 37.9715232, "lon": 34.6796834}, {"type": "node", "id": 4574230124, "lat": 37.9714905, "lon": 34.6798758}, {"type": "node", "id": 4574230125, "lat": 37.9713248, "lon": 34.6798305}, {"type": "node", "id": 4574230126, "lat": 37.9713575, "lon": 34.6796381}, {"type": "node", "id": 4574257921, "lat": 37.9693374, "lon": 34.6786136, "tags": {"addr:city": "Ni\u011fde Merkez", "addr:postcode": "51100", "addr:street": "pa\u015fakap\u0131 caddesi", "amenity": "cafe", "cuisine": "regional", "internet_access": "no", "name": "d\u00fcndaro\u011flu", "opening_hours": "12:00-24:00", "outdoor_seating": "no", "smoking": "no"}}, {"type": "node", "id": 4574265213, "lat": 37.972677, "lon": 34.6783169, "tags": {"addr:city": "Ni\u011fde Merkez", "addr:postcode": "51100", "addr:street": "AYHAN \u015eAHENK CADDES\u0130", "amenity": "restaurant", "capacity": "10", "cuisine": "regional", "delivery": "yes", "name": "Oses \u00e7ig k\u00f6fte", "opening_hours": "24/7", "outdoor_seating": "no", "smoking": "no", "takeaway": "yes"}}, {"type": "node", "id": 4574265277, "lat": 37.9723878, "lon": 34.6785033, "tags": {"addr:city": "Ni\u011fde Merkez", "addr:postcode": "51100", "addr:street": "AYHAN \u015eAHENK CADDES\u0130", "amenity": "restaurant", "capacity": "100", "cuisine": "regional", "delivery": "no", "name": "Burcu Simit Saray\u0131", "opening_hours": "5:00-22:00", "smoking": "no", "takeaway": "yes"}}, {"type": "node", "id": 5168691121, "lat": 38.3725669, "lon": 34.7343415, "tags": {"amenity": "restaurant", "name": "Little Old Lady's Restaurant"}}, {"type": "node", "id": 5188164522, "lat": 38.3434102, "lon": 34.972549, "tags": {"amenity": "restaurant", "changing_table": "no", "cuisine": "turkish", "internet_access": "wlan", "internet_access:fee": "no", "name": "So\u011fanl\u0131 Kapadokya Restaurant", "outdoor_seating": "yes", "takeaway": "no", "tents": "yes", "toilets": "yes", "toilets:access": "customers", "tourism": "camp_site"}}, {"type": "node", "id": 5903166685, "lat": 38.3509795, "lon": 34.9664312, "tags": {"amenity": "restaurant", "cuisine": "turkish", "name": "Ikinci Bakar"}}, {"type": "node", "id": 9272017145, "lat": 38.3732798, "lon": 34.7341849, "tags": {"amenity": "cafe", "name": "Dervi\u015f Bey Cafe"}}, {"type": "node", "id": 9379262918, "lat": 38.3758774, "lon": 34.7335944, "tags": {"addr:housenumber": "NO 28", "addr:street": "Ba\u015f", "amenity": "restaurant", "name": "H\u00fcseyin Gemici", "name:en": "H\u00fcsein Gemici", "phone": "05373802851"}}, {"type": "node", "id": 9557342717, "lat": 38.3763172, "lon": 34.7335031, "tags": {"amenity": "restaurant", "name": "derinkuyu doyum"}}, {"type": "node", "id": 9609300039, "lat": 37.96715, "lon": 34.6733867, "tags": {"amenity": "restaurant", "name": "Tarihi Alaattin"}}, {"type": "node", "id": 9883315196, "lat": 37.9621976, "lon": 34.6508661, "tags": {"amenity": "restaurant", "name": "Beykoz'a"}}, {"type": "node", "id": 10753265100, "lat": 38.3750207, "lon": 34.7330772, "tags": {"amenity": "cafe", "name": "\u00c7ay evi"}}, {"type": "node", "id": 11146010705, "lat": 38.374334, "lon": 34.7340377, "tags": {"amenity": "restaurant", "cuisine": "local;regional;turkish", "diet:vegetarian": "yes", "name": "Keskin restaurant"}}, {"type": "node", "id": 11225312137, "lat": 38.3760076, "lon": 34.7353185, "tags": {"amenity": "restaurant", "cuisine": "turkish", "name": "Doyum Restaurant"}}, {"type": "node", "id": 11428953807, "lat": 37.9660376, "lon": 34.6736782, "tags": {"addr:city": "Saruhan - Sel\u00e7uk mahalle s\u0131n\u0131r\u0131", "addr:district": "Ni\u011fde", "addr:neighbourhood": "Saruhan", "addr:postcode": "51100", "addr:street": "Sel\u00e7uklu Caddesi", "amenity": "cafe", "cuisine": "ice_cream", "name": "Oba Dondurma"}}, {"type": "node", "id": 11429031436, "lat": 37.9635227, "lon": 34.6681146, "tags": {"amenity": "cafe", "name": "Kar\u0131nca Park & Kafe"}}, {"type": "way", "id": 404730543, "nodes": [4070009693, 4070009764, 4070009765, 4070009694, 4070009693], "tags": {"amenity": "restaurant", "building": "yes"}}, {"type": "way", "id": 404730544, "nodes": [4070004236, 4070009764, 4070009765, 4070004237, 4070004236], "tags": {"amenity": "restaurant", "building": "yes"}}, {"type": "way", "id": 461990608, "nodes": [4574230123, 4574230124, 4574230125, 4574230126, 4574230123], "tags": {"addr:city": "Ni\u011fde Merkez", "addr:postcode": "51100", "addr:street": "Pa\u015fakap\u0131 Caddesi", "amenity": "restaurant", "building": "yes", "capacity": "150", "cuisine": "regional", "delivery": "no", "name": "\u00e7orba p\u0131nar\u0131", "opening_hours": "08:00-18:00", "outdoor_seating": "no", "smoking": "no", "takeaway": "no"}}]}