{"version": 0.6, "generator": "Overpass API 0.7.62.7 375dc00a", "osm3s": {"timestamp_osm_base": "2025-06-14T14:39:19Z", "copyright": "The data included in this document is from www.openstreetmap.org. The data is made available under ODbL."}, "elements": [{"type": "node", "id": 2386719236, "lat": 36.4280867, "lon": 22.4861759}, {"type": "node", "id": 2386719240, "lat": 36.4281162, "lon": 22.4860192}, {"type": "node", "id": 2386719242, "lat": 36.4282292, "lon": 22.4862125}, {"type": "node", "id": 2386719244, "lat": 36.4282587, "lon": 22.4860602}, {"type": "node", "id": 3501690174, "lat": 36.403221, "lon": 22.4862369}, {"type": "node", "id": 3501690175, "lat": 36.4032259, "lon": 22.4864265}, {"type": "node", "id": 3501690177, "lat": 36.4032779, "lon": 22.4862346}, {"type": "node", "id": 3501690179, "lat": 36.4032829, "lon": 22.4864243}, {"type": "node", "id": 4217191100, "lat": 36.4249051, "lon": 22.4759073, "tags": {"amenity": "restaurant", "description": "Restaurant & Hotel", "name": "Marmari Paradise"}}, {"type": "node", "id": 4598468013, "lat": 36.4530392, "lon": 22.4677237, "tags": {"amenity": "restaurant", "cuisine": "greek", "name": "Aspalathos"}}, {"type": "node", "id": 5705895968, "lat": 36.4824985, "lon": 22.3993653, "tags": {"amenity": "restaurant", "name": "\u039a\u03b1\u03c4\u03ac\u03b3\u03ba\u03bf\u03c5\u03bd\u03b1\u03c2"}}, {"type": "node", "id": 5705895970, "lat": 36.4819713, "lon": 22.4001952, "tags": {"amenity": "restaurant", "name": "\u038c\u03c1\u03b1\u03bc\u03b1"}}, {"type": "node", "id": 5705895971, "lat": 36.4817949, "lon": 22.4002589, "tags": {"amenity": "restaurant", "name": "\u039c\u03ac\u03bd\u03b7 \u039c\u03ac\u03bd\u03b7"}}, {"type": "node", "id": 7090381392, "lat": 36.4283138, "lon": 22.486379, "tags": {"amenity": "restaurant", "cuisine": "greek", "name": "Porto Taverna", "name:en": "Porto Taverna", "name:fr": "psamathous"}}, {"type": "node", "id": 7862027985, "lat": 36.483789, "lon": 22.4794213}, {"type": "node", "id": 8871290318, "lat": 36.4284487, "lon": 22.4855162, "tags": {"amenity": "restaurant", "name": "Ippocambos"}}, {"type": "node", "id": 9168414676, "lat": 36.4282615, "lon": 22.4862871}, {"type": "node", "id": 9168414677, "lat": 36.4282515, "lon": 22.4863968}, {"type": "node", "id": 9168414678, "lat": 36.4281091, "lon": 22.4863809}, {"type": "node", "id": 9168414679, "lat": 36.4281191, "lon": 22.4862659}, {"type": "node", "id": 9919614417, "lat": 36.4282952, "lon": 22.4857416, "tags": {"air_conditioning": "no", "amenity": "restaurant", "check_date:opening_hours": "2022-10-06", "diet:halal": "no", "diet:kosher": "no", "diet:vegan": "yes", "diet:vegetarian": "yes", "indoor_seating": "yes", "name": "Restaurant Ippocampus", "name:en": "Ippocampos", "name:fr": "Ippocampos", "opening_hours:signed": "no", "outdoor_seating": "yes", "smoking": "outside", "wheelchair": "no"}}, {"type": "node", "id": 11238694676, "lat": 36.4719687, "lon": 22.4518487}, {"type": "node", "id": 11238694677, "lat": 36.4719945, "lon": 22.4520068}, {"type": "node", "id": 11238694678, "lat": 36.4717641, "lon": 22.4520651}, {"type": "node", "id": 11238694679, "lat": 36.4717382, "lon": 22.451907}, {"type": "node", "id": 11241361141, "lat": 36.4837476, "lon": 22.4794194}, {"type": "node", "id": 11241361142, "lat": 36.4837489, "lon": 22.4793531}, {"type": "node", "id": 11241361143, "lat": 36.4836501, "lon": 22.4793499}, {"type": "node", "id": 11241361234, "lat": 36.4837931, "lon": 22.479261}, {"type": "node", "id": 11241361235, "lat": 36.4836519, "lon": 22.4792553}, {"type": "node", "id": 12541995965, "lat": 36.4819562, "lon": 22.400325, "tags": {"amenity": "restaurant", "name": "Veludo", "website": "https://kaseas.com/restaurant/"}}, {"type": "way", "id": 230144459, "nodes": [2386719244, 2386719240, 2386719236, 2386719242, 2386719244], "tags": {"amenity": "restaurant", "name": "Akrotiri", "tourism": "hotel", "website": "https://www.porto-kagio.com/"}}, {"type": "way", "id": 343302706, "nodes": [3501690174, 3501690177, 3501690179, 3501690175, 3501690174], "tags": {"amenity": "restaurant", "building": "yes", "cuisine": "cake;coffee_shop;greek;grill;local", "internet_access": "wlan", "name": "Akron Tainaron"}}, {"type": "way", "id": 992326807, "nodes": [9168414676, 9168414677, 9168414678, 9168414679, 9168414676], "tags": {"amenity": "restaurant", "building": "yes", "cuisine": "greek", "name": "Porto Taverna"}}, {"type": "way", "id": 1213084002, "nodes": [11238694676, 11238694677, 11238694678, 11238694679, 11238694676], "tags": {"addr:city": "Tsikalia", "addr:postcode": "230 71", "air_conditioning": "yes", "amenity": "restaurant", "building": "retail", "cuisine": "greek", "name": "Elea", "name:el": "\u0395\u03bb\u03b1\u03af\u03b1"}}, {"type": "way", "id": 1213326093, "nodes": [7862027985, 11241361141, 11241361142, 11241361143, 11241361235, 11241361234, 7862027985], "tags": {"addr:city": "\u039b\u03b1\u03b3\u03b9\u03b1", "addr:postcode": "23071", "amenity": "restaurant", "building": "retail", "building:levels": "1", "internet_access": "yes", "name": "\u039a\u03bf\u03b9\u03bd\u03bf\u03c4\u03b9\u03ba\u03cc", "name:el": "\u039a\u03bf\u03b9\u03bd\u03bf\u03c4\u03b9\u03ba\u03cc"}}]}