{"version": 0.6, "generator": "Overpass API 0.7.62.7 375dc00a", "osm3s": {"timestamp_osm_base": "2025-06-14T15:16:01Z", "copyright": "The data included in this document is from www.openstreetmap.org. The data is made available under ODbL."}, "elements": [{"type": "node", "id": 347264382, "lat": 32.0798413, "lon": 34.768608, "tags": {"amenity": "restaurant", "name": "\u05e4\u05d5\u05e8\u05dc\u05d9\u05df", "name:en": "Forelin", "name:he": "\u05e4\u05d5\u05e8\u05dc\u05d9\u05df"}}, {"type": "node", "id": 347264416, "lat": 32.0798177, "lon": 34.7682983, "tags": {"addr:housenumber": "106", "addr:street": "\u05d4\u05d9\u05e8\u05e7\u05d5\u05df", "amenity": "restaurant", "cuisine": "italian", "name": "Boccaccio", "name:en": "Boccaccio"}}, {"type": "node", "id": 347264681, "lat": 32.0745025, "lon": 34.7677816, "tags": {"amenity": "cafe", "name": "Mar Caf\u00e9", "name:en": "Mar Cafe"}}, {"type": "node", "id": 352905218, "lat": 32.0894598, "lon": 34.7737398, "tags": {"amenity": "restaurant", "cuisine": "pizza", "name": "\u05e4\u05d9\u05e6\u05d4\u05e4\u05d9\u05e0\u05d5", "name:en": "Pizzafino", "name:he": "\u05e4\u05d9\u05e6\u05d4\u05e4\u05d9\u05e0\u05d5"}}, {"type": "node", "id": 381410923, "lat": 32.1094418, "lon": 34.8407097, "tags": {"addr:housenumber": "26", "addr:street": "\u05d4\u05d1\u05e8\u05d6\u05dc", "amenity": "restaurant", "name": "\u05de\u05d5\u05d6\u05e1", "name:en": "Moses", "name:he": "\u05de\u05d5\u05d6\u05e1", "outdoor_seating": "yes", "toilets": "yes", "wheelchair": "yes"}}, {"type": "node", "id": 384598569, "lat": 32.0619564, "lon": 34.783623, "tags": {"addr:housenumber": "13", "addr:street": "\u05d9\u05d3 \u05d7\u05e8\u05d5\u05e6\u05d9\u05dd", "amenity": "restaurant", "cuisine": "italian", "internet_access": "wlan", "name": "\u05e7\u05d5\u05e4\u05d9 \u05d1\u05e8", "name:ar": "\u0643\u0648\u0641\u064a \u0628\u0627\u0631", "name:en": "Coffee Bar", "name:he": "\u05e7\u05d5\u05e4\u05d9 \u05d1\u05e8", "opening_hours": "Mo-Su 09:00-00:00", "phone": "03-688-9696", "toilets:wheelchair": "yes", "website": "https://www.coffeebar.co.il/", "wheelchair": "yes"}}, {"type": "node", "id": 440854174, "lat": 32.0968367, "lon": 34.7734062, "tags": {"amenity": "restaurant", "name": "Bedulina", "name:en": "Bedulina", "website": "http://www.rest.co.il/sites/Default.asp?txtRestID=5742"}}, {"type": "node", "id": 440854177, "lat": 32.0971034, "lon": 34.7734699, "tags": {"amenity": "restaurant"}}, {"type": "node", "id": 444733381, "lat": 32.0719491, "lon": 34.77378, "tags": {"amenity": "restaurant", "name": "King George", "name:en": "King George"}}, {"type": "node", "id": 450524210, "lat": 32.0816185, "lon": 34.7708627, "tags": {"amenity": "restaurant", "cuisine": "italian", "name": "Ernesto", "name:en": "Ernesto", "opening_hours": "Mo-Su 12:30-23:30", "outdoor_seating": "yes", "wheelchair": "yes"}}, {"type": "node", "id": 454377089, "lat": 32.0816281, "lon": 34.7682687, "tags": {"addr:city:en": "Tel Aviv", "amenity": "restaurant", "name": "Olive Leaf", "name:en": "Olive Leaf"}}, {"type": "node", "id": 454907312, "lat": 32.0847177, "lon": 34.772513, "tags": {"addr:city:en": "Tel Aviv", "addr:housenumber": "128", "addr:street": "\u05d1\u05df \u05d9\u05d4\u05d5\u05d3\u05d4", "amenity": "restaurant", "cuisine": "coffee_shop", "delivery": "yes", "internet_access:fee": "no", "name": "\u05dc\u05d7\u05dd \u05d5\u05e9\u05d5\u05ea", "name:he": "\u05dc\u05d7\u05dd \u05d5\u05e9\u05d5\u05ea", "opening_hours": "Mo-Th,Sa-Su 09:00-21:30; Fr 09:00-17:30", "outdoor_seating": "yes", "self_service": "yes", "stars": "5", "takeaway": "yes", "toilets": "yes"}}, {"type": "node", "id": 458716915, "lat": 32.0826605, "lon": 34.9402263, "tags": {"amenity": "restaurant"}}, {"type": "node", "id": 458716916, "lat": 32.0820787, "lon": 34.9395397, "tags": {"amenity": "restaurant"}}, {"type": "node", "id": 512887205, "lat": 32.1049912, "lon": 34.7927389, "tags": {"amenity": "restaurant", "cuisine": "pizza", "name": "Pizza Hut", "name:en": "Pizza Hut"}}, {"type": "node", "id": 520481389, "lat": 32.0311933, "lon": 34.8566891, "tags": {"amenity": "cafe"}}, {"type": "node", "id": 525733699, "lat": 32.0325857, "lon": 34.8497793, "tags": {"alt_name": "\u05e7\u05e4\u05d4 Joe", "amenity": "cafe", "brand": "\u05e7\u05e4\u05d4 \u05d2'\u05d5", "brand:en": "Cafe Joe", "brand:he": "\u05e7\u05e4\u05d4 \u05d2'\u05d5", "brand:wikidata": "Q6774425", "brand:wikipedia": "he:\u05e7\u05e4\u05d4 \u05d2'\u05d5", "contact:website": "http://www.joe.co.il/", "cuisine": "coffee_shop", "name": "\u05e7\u05e4\u05d4 \u05d2'\u05d5", "name:en": "Cafe Joe", "name:he": "\u05e7\u05e4\u05d4 \u05d2'\u05d5", "operator": "\u05e7\u05e4\u05d4 \u05d2'\u05d5", "operator:en": "Cup 'o' Joe", "operator:he": "\u05e7\u05e4\u05d4 \u05d2'\u05d5", "takeaway": "yes"}}, {"type": "node", "id": 528946268, "lat": 32.0361057, "lon": 34.847166, "tags": {"amenity": "restaurant", "name": "\u05d3\u05d5\u05df \u05d5\u05d9\u05d8\u05d5", "name:en": "Don Vitto", "name:he": "\u05d3\u05d5\u05df \u05d5\u05d9\u05d8\u05d5"}}, {"type": "node", "id": 532054123, "lat": 32.0965944, "lon": 34.7727855, "tags": {"addr:city": "\u05ea\u05dc \u05d0\u05d1\u05d9\u05d1-\u05d9\u05e4\u05d5", "addr:housenumber": "1", "addr:street": "\u05db\"\u05d2 \u05d9\u05d5\u05e8\u05d3\u05d9 \u05d4\u05e1\u05d9\u05e8\u05d4", "amenity": "cafe", "brand": "\u05e7\u05e4\u05d4 \u05e7\u05e4\u05d4", "brand:en": "Cafe Cafe", "brand:he": "\u05e7\u05e4\u05d4 \u05e7\u05e4\u05d4", "brand:wikidata": "Q5017233", "brand:wikipedia": "he:\u05e7\u05e4\u05d4 \u05e7\u05e4\u05d4", "cuisine": "coffee_shop", "name": "\u05e7\u05e4\u05d4 \u05e7\u05e4\u05d4", "name:en": "Cafe Cafe", "name:he": "\u05e7\u05e4\u05d4 \u05e7\u05e4\u05d4", "opening_hours": "Su-We 09:00-00:00; Th 08:00-00:00; Fr 08:00-13:30", "phone": "+972 3-544-0054", "takeaway": "yes", "website": "https://cafecafe.co.il", "wheelchair": "yes"}}, {"type": "node", "id": 533080639, "lat": 32.0867611, "lon": 34.7750391, "tags": {"addr:housenumber": "206", "addr:street": "\u05d3\u05d9\u05d6\u05e0\u05d2\u05d5\u05e3", "amenity": "restaurant", "brand": "Pizza Hut", "brand:wikidata": "Q191615", "cuisine": "pizza", "name": "Pizza Hut", "name:en": "Pizza Hut", "name:he": "\u05e4\u05d9\u05e6\u05d4 \u05d4\u05d0\u05d8"}}, {"type": "node", "id": 553022802, "lat": 32.0707047, "lon": 34.7902994, "tags": {"addr:housenumber": "10\u05d0", "addr:postcode": "67014", "addr:street": "\u05d9\u05d5\u05e1\u05e3 \u05e7\u05d0\u05e8\u05d5", "amenity": "cafe", "contact:phone": "+97235626691", "name": "\u05e7\u05e4\u05d4 \u05e9\u05e8\u05d2\u05d0", "name:en": "Shraga Cafe", "name:he": "\u05e7\u05e4\u05d4 \u05e9\u05e8\u05d2\u05d0"}}, {"type": "node", "id": 558702490, "lat": 32.1003492, "lon": 34.7746207, "tags": {"amenity": "restaurant", "cuisine": "fish", "name": "\u05de\u05d5\u05dc-\u05d9\u05dd", "name:en": "Mul-Yam", "name:he": "\u05de\u05d5\u05dc-\u05d9\u05dd", "wikidata": "Q6933698"}}, {"type": "node", "id": 558793757, "lat": 32.0979194, "lon": 34.773798, "tags": {"amenity": "cafe", "brand": "\u05d0\u05e8\u05d5\u05de\u05d4", "brand:en": "Aroma Espresso Bar", "brand:he": "\u05d0\u05e8\u05d5\u05de\u05d4", "brand:wikidata": "Q2909872", "brand:wikipedia": "en:Aroma Espresso Bar", "cuisine": "coffee_shop", "internet_access": "yes", "name": "\u05d0\u05e8\u05d5\u05de\u05d4", "name:en": "Aroma Espresso Bar", "name:en1": "Aroma Espresso Bar", "name:he": "\u05d0\u05e8\u05d5\u05de\u05d4", "phone": "035447047", "takeaway": "yes", "wheelchair": "yes"}}, {"type": "node", "id": 603032202, "lat": 32.0727428, "lon": 34.7820436, "tags": {"addr:city": "\u05ea\u05dc \u05d0\u05d1\u05d9\u05d1", "addr:housenumber": "14", "addr:street": "\u05d0\u05d1\u05df \u05d2\u05d1\u05d9\u05e8\u05d5\u05dc", "amenity": "restaurant", "name": "\u05e7\u05d0\u05e8\u05e0\u05e1", "name:en": "CARNES Argentinian BBQ & Smoked meat", "name:he": "\u05e7\u05d0\u05e8\u05e0\u05e1 - \u05de\u05e1\u05e2\u05d3\u05ea \u05d1\u05e9\u05e8\u05d9\u05dd", "phone": "+972 50 4451330"}}, {"type": "node", "id": 606974128, "lat": 32.0949264, "lon": 34.7765482, "tags": {"addr:housenumber": "308", "addr:street": "\u05d3\u05d9\u05d6\u05e0\u05d2\u05d5\u05e3", "amenity": "cafe", "name": "\u05de\u05d5\u05d1\u05d9\u05e0\u05d2", "name:en": "Movieing", "name:he": "\u05de\u05d5\u05d1\u05d9\u05e0\u05d2"}}, {"type": "node", "id": 611110126, "lat": 32.1122713, "lon": 34.8046343, "tags": {"amenity": "cafe", "cuisine": "israeli", "internet_access": "wlan", "internet_access:fee": "no", "name": "\u05e7\u05e4\u05d4 \u05e0\u05d8\u05d5", "name:en": "Cafe Netto", "name:he": "\u05e7\u05e4\u05d4 \u05e0\u05d8\u05d5", "outdoor_seating": "yes", "smoking": "no"}}, {"type": "node", "id": 635130301, "lat": 32.0723768, "lon": 34.7821062, "tags": {"addr:housenumber": "12", "addr:street": "\u05d0\u05d1\u05df \u05d2\u05d1\u05d9\u05e8\u05d5\u05dc", "amenity": "cafe", "name": "\u05de\u05e9\u05d5\u05d2\u05e2\u05ea", "name:en": "Meshugaat", "name:he": "\u05de\u05e9\u05d5\u05d2\u05e2\u05ea"}}, {"type": "node", "id": 636907331, "lat": 32.0740824, "lon": 34.7820021, "tags": {"addr:housenumber": "22", "addr:street": "\u05d0\u05d1\u05df \u05d2\u05d1\u05d9\u05e8\u05d5\u05dc", "amenity": "restaurant", "name": "\u05dc\u05de\u05d5\u05df \u05d2\u05e8\u05d0\u05e1", "name:en": "Lemon Grass", "name:he": "\u05dc\u05de\u05d5\u05df \u05d2\u05e8\u05d0\u05e1"}}, {"type": "node", "id": 636947192, "lat": 32.0899506, "lon": 34.7802331, "tags": {"addr:housenumber": "14", "addr:street": "\u05d0\u05e9\u05ea\u05d5\u05e8\u05d9 \u05d4\u05e4\u05e8\u05d7\u05d9", "amenity": "restaurant", "name": "\u05d3\u05d9\u05d5\u05d5\u05d9\u05e0\u05d4", "name:en": "Divinna", "name:he": "\u05d3\u05d9\u05d5\u05d5\u05d9\u05e0\u05d4"}}, {"type": "node", "id": 639265226, "lat": 32.0795431, "lon": 34.7770975, "tags": {"addr:housenumber": "38", "addr:street": "\u05e9\u05dc\u05de\u05d4 \u05d4\u05de\u05dc\u05da", "amenity": "cafe", "check_date": "2023-09-17", "name": "\u05e9\u05d9\u05d9\u05df 38", "name:en": "Shine 38", "name:he": "\u05e9\u05d9\u05d9\u05df 38"}}, {"type": "node", "id": 648154772, "lat": 32.0832269, "lon": 34.7816004, "tags": {"addr:housenumber": "98", "addr:street": "\u05d0\u05d1\u05df \u05d2\u05d1\u05d9\u05e8\u05d5\u05dc", "amenity": "cafe", "cuisine": "ice_cream", "name": "\u05d5\u05e0\u05d9\u05dc\u05d9\u05d4", "name:en": "Vaniglia", "name:he": "\u05d5\u05e0\u05d9\u05dc\u05d9\u05d4"}}, {"type": "node", "id": 651304178, "lat": 32.0909139, "lon": 34.7800214, "tags": {"addr:housenumber": "5", "addr:street": "\u05d0\u05dc\u05e7\u05dc\u05e2\u05d9", "amenity": "cafe", "name": "Lulu \u05e7\u05e4\u05d4", "name:en": "Cafe Lulu", "name:he": "Lulu \u05e7\u05e4\u05d4", "phone": "+972-3-602-0805"}}, {"type": "node", "id": 668898189, "lat": 32.0269502, "lon": 34.8518546, "tags": {"amenity": "restaurant", "name": "\u05de\u05e1\u05e2\u05d3\u05ea \u05e4\u05d0\u05e8\u05d5\u05e7", "name:en": "Faruk", "name:he": "\u05de\u05e1\u05e2\u05d3\u05ea \u05e4\u05d0\u05e8\u05d5\u05e7"}}, {"type": "node", "id": 669838665, "lat": 32.0678696, "lon": 34.8454892, "tags": {"amenity": "cafe", "cuisine": "coffee_shop", "internet_access": "yes", "name": "\u05e7\u05e4\u05d4 \u05d0\u05e8\u05d5\u05de\u05d4", "name:en": "Cafe Aroma", "name:he": "\u05e7\u05e4\u05d4 \u05d0\u05e8\u05d5\u05de\u05d4", "name:it": "Aroma"}}, {"type": "node", "id": 672126879, "lat": 32.1302767, "lon": 34.7921419, "tags": {"addr:housenumber": "25", "addr:street": "\u05d0\u05d5\u05e8\u05d9 \u05e6\u05d1\u05d9 \u05d2\u05e8\u05d9\u05e0\u05d1\u05e8\u05d2", "amenity": "cafe", "cuisine": "coffee_shop", "name": "\u05d0\u05e0\u05d2'\u05d5\u05d9", "name:en": "Njoy", "name:he": "\u05d0\u05e0\u05d2'\u05d5\u05d9", "opening_hours": "Mo-Su 07:00-23:30;Fr 07:00-17:00;Sa 08:00-23:30", "website": "http://www.rest.co.il/RecordPage.aspx?RestID=5422"}}, {"type": "node", "id": 672150097, "lat": 32.0902921, "lon": 34.7694239, "tags": {"addr:street": "\u05d7\u05d5\u05e3 \u05d4\u05d9\u05dc\u05d8\u05d5\u05df", "amenity": "restaurant", "name": "\u05d8\u05d5\u05e4 \u05e9\u05d9\u05d0", "name:en": "Top See", "name:he": "\u05d8\u05d5\u05e4 \u05e9\u05d9\u05d0"}}, {"type": "node", "id": 681222415, "lat": 32.0211265, "lon": 34.9419008}, {"type": "node", "id": 681317089, "lat": 32.0743704, "lon": 34.7749665, "tags": {"addr:city": "\u05ea\u05dc \u05d0\u05d1\u05d9\u05d1-\u05d9\u05e4\u05d5", "addr:housenumber": "87", "addr:street": "\u05d1\u05d5\u05d2\u05e8\u05e9\u05d5\u05d1", "amenity": "restaurant", "contact:facebook": "matteo.tlv", "contact:instagram": "matteo.tlv", "cuisine": "italian", "delivery": "yes", "diet:gluten_free": "yes", "diet:kosher": "no", "diet:vegan": "yes", "diet:vegetarian": "yes", "email": "matteo.tlv@gmail.com", "name": "Matteo", "name:en": "Matteo", "name:he": "\u05de\u05ea\u05d0\u05d5", "opening_hours": "Su-Th 12:00-23:00; Th-Sa 10:00-00:00", "phone": "+972 3 938 3433", "reservation": "yes", "reservation:website": "https://ontopo.com/en/il/page/83133618", "website": "https://matteo.co.il/en/matteo/", "wheelchair": "limited"}}, {"type": "node", "id": 682358025, "lat": 32.056546, "lon": 34.8663039, "tags": {"amenity": "cafe", "cuisine": "coffee_shop", "name": "\u05e7\u05e4\u05d4 \u05e7\u05e4\u05d4", "name:en": "Cafe Cafe", "name:he": "\u05e7\u05e4\u05d4 \u05e7\u05e4\u05d4", "wheelchair": "yes"}}, {"type": "node", "id": 683387957, "lat": 32.0639619, "lon": 34.7738712, "tags": {"addr:housenumber": "37", "addr:street": "\u05e9\u05d3\u05e8\u05d5\u05ea \u05e8\u05d5\u05d8\u05e9\u05d9\u05dc\u05d3", "amenity": "cafe", "cuisine": "coffee_shop", "name": "\u05e7\u05e7\u05d0\u05d5", "name:en": "Cacao", "name:he": "\u05e7\u05e7\u05d0\u05d5"}}, {"type": "node", "id": 683388711, "lat": 32.0639026, "lon": 34.7735574, "tags": {"addr:housenumber": "39", "addr:street": "\u05e9\u05d3\u05e8\u05d5\u05ea \u05e8\u05d5\u05d8\u05e9\u05d9\u05dc\u05d3", "amenity": "restaurant", "brand": "Moses", "brand:en": "Moses", "brand:he": "\u05de\u05d5\u05d6\u05e1", "brand:wikidata": "Q64760150", "cuisine": "burger", "name": "Moses", "name:en": "Moses", "name:he": "\u05de\u05d5\u05d6\u05e1"}}, {"type": "node", "id": 685973437, "lat": 31.9118751, "lon": 34.8045777, "tags": {"amenity": "restaurant", "name": "Cezar", "name:en": "Cezar"}}, {"type": "node", "id": 685973438, "lat": 31.9121902, "lon": 34.8044252, "tags": {"amenity": "cafe", "name": "\u05d0\u05e8\u05e7\u05e4\u05d4", "name:en": "Arcaffe", "name:he": "\u05d0\u05e8\u05e7\u05e4\u05d4"}}, {"type": "node", "id": 690089336, "lat": 32.0947442, "lon": 34.7765829, "tags": {"addr:housenumber": "306", "addr:street": "\u05d3\u05d9\u05d6\u05d9\u05e0\u05d2\u05d5\u05e3", "amenity": "cafe", "name": "\u05d2'\u05e8\u05de\u05d9\u05d4", "name:en": "Jeremiah", "name:he": "\u05d2'\u05e8\u05de\u05d9\u05d4"}}, {"type": "node", "id": 700455987, "lat": 31.9223646, "lon": 34.7911838, "tags": {"amenity": "cafe", "brand": "\u05d0\u05e8\u05d5\u05de\u05d4", "brand:en": "Aroma Espresso Bar", "brand:he": "\u05d0\u05e8\u05d5\u05de\u05d4", "brand:wikidata": "Q2909872", "brand:wikipedia": "en:Aroma Espresso Bar", "cuisine": "coffee_shop", "internet_access": "yes", "name": "\u05d0\u05e8\u05d5\u05de\u05d4", "name:en": "Aroma", "name:en1": "Aroma Espresso Bar", "name:he": "\u05d0\u05e8\u05d5\u05de\u05d4", "takeaway": "yes"}}, {"type": "node", "id": 704317802, "lat": 32.1136942, "lon": 34.8017054, "tags": {"amenity": "restaurant", "name": "\u05e7\u05d9\u05e0\u05d2 \u05d2'\u05d5\u05e8\u05d2'", "name:en": "King George", "name:he": "\u05e7\u05d9\u05e0\u05d2 \u05d2'\u05d5\u05e8\u05d2'"}}, {"type": "node", "id": 704446925, "lat": 32.083998, "lon": 34.8146341, "tags": {"amenity": "restaurant", "name": "\u05d4\u05d1\u05dc\u05d9\u05e0\u05e6'\u05e1 \u05e9\u05dc \u05e9\u05d5\u05e9\u05e0\u05d4", "name:en": "Ha'Blinches shel Shoshana", "name:he": "\u05d4\u05d1\u05dc\u05d9\u05e0\u05e6'\u05e1 \u05e9\u05dc \u05e9\u05d5\u05e9\u05e0\u05d4"}}, {"type": "node", "id": 705556743, "lat": 32.0939729, "lon": 34.7717028, "tags": {"amenity": "restaurant", "name": "\u05de\u05e6\u05d9\u05e6\u05d9\u05dd", "name:en": "Metzitzim", "name:he": "\u05de\u05e6\u05d9\u05e6\u05d9\u05dd", "wheelchair": "yes"}}, {"type": "node", "id": 711326192, "lat": 32.0970966, "lon": 34.7757539, "tags": {"addr:housenumber": "293", "addr:street": "\u05d3\u05d9\u05d6\u05d9\u05e0\u05d2\u05d5\u05e3", "amenity": "restaurant", "name": "\u05de\u05d5\u05d6\u05e1 \u05e1\u05d8\u05d9\u05d9\u05e9\u05df", "name:en": "Moses Station", "name:he": "\u05de\u05d5\u05d6\u05e1 \u05e1\u05d8\u05d9\u05d9\u05e9\u05df"}}, {"type": "node", "id": 715207449, "lat": 32.0833388, "lon": 34.802559, "tags": {"amenity": "cafe", "brand": "\u05d0\u05e8\u05d5\u05de\u05d4", "brand:en": "Aroma Espresso Bar", "brand:he": "\u05d0\u05e8\u05d5\u05de\u05d4", "brand:wikidata": "Q2909872", "brand:wikipedia": "en:Aroma Espresso Bar", "cuisine": "coffee_shop", "name": "\u05d0\u05e8\u05d5\u05de\u05d4", "name:en": "Aroma Espresso Bar", "name:en1": "Aroma Espresso Bar", "name:he": "\u05d0\u05e8\u05d5\u05de\u05d4", "takeaway": "yes"}}, {"type": "node", "id": 715207462, "lat": 32.0838448, "lon": 34.803023, "tags": {"amenity": "cafe", "brand": "Arcaffe", "brand:en": "Arcaffe", "brand:he": "\u05d0\u05e8\u05e7\u05e4\u05d4", "brand:wikidata": "Q2897147", "cuisine": "coffee_shop", "name": "Arcaffe", "name:en": "Arcaffe", "name:he": "\u05d0\u05e8\u05e7\u05e4\u05d4", "takeaway": "yes"}}, {"type": "node", "id": 715207463, "lat": 32.0837563, "lon": 34.8018699, "tags": {"amenity": "restaurant"}}, {"type": "node", "id": 720940493, "lat": 32.0704641, "lon": 34.7868466, "tags": {"addr:city": "\u05ea\u05dc \u05d0\u05d1\u05d9\u05d1-\u05d9\u05e4\u05d5", "addr:housenumber": "19", "addr:street": "\u05d4\u05d0\u05e8\u05d1\u05e2\u05d4", "amenity": "restaurant", "name": "\u05de\u05d0\u05e1\u05d4", "name:en": "Messa", "name:he": "\u05de\u05d0\u05e1\u05d4"}}, {"type": "node", "id": 720955813, "lat": 32.0805999, "lon": 34.7815429, "tags": {"addr:city": "Tel Aviv-Yafo", "addr:housenumber": "70", "addr:street": "\u05d0\u05d1\u05df \u05d2\u05d1\u05d9\u05e8\u05d5\u05dc", "amenity": "restaurant", "capacity": "130", "cuisine": "french", "delivery": "yes", "internet_access": "wlan", "name": "\u05d1\u05e8\u05d0\u05e1\u05e8\u05d9", "name:ar": "\u0628\u0631\u0627\u0633\u064a\u0631\u064a", "name:en": "Brassery", "name:he": "\u05d1\u05e8\u05d0\u05e1\u05e8\u05d9", "opening_hours": "24/7", "phone": "03-696-7111", "smoking": "outside", "takeaway": "yes", "website": "https://brasserie.co.il/", "wheelchair": "no"}}, {"type": "node", "id": 720999416, "lat": 32.0632619, "lon": 34.7711996, "tags": {"addr:city": "\u05ea\u05dc \u05d0\u05d1\u05d9\u05d1-\u05d9\u05e4\u05d5", "addr:housenumber": "15", "addr:street": "\u05e8\u05d5\u05d8\u05e9\u05d9\u05dc\u05d3", "amenity": "restaurant", "contact:facebook": "rusticoitaly", "contact:instagram": "rusticotlv", "cuisine": "italian", "name": "\u05e8\u05d5\u05e1\u05d8\u05d9\u05e7\u05d5", "name:en": "Rustico", "name:he": "\u05e8\u05d5\u05e1\u05d8\u05d9\u05e7\u05d5", "opening_hours": "Su 18:00-22:30; Mo-Th 18:00-23:00; Fr 12:30-23:00; Sa 12:30-22:30", "phone": "+972 3 510 0039", "reservation": "yes", "reservation:website": "https://ontopo.com/he/il/page/57585571", "website": "https://www.rustico.co.il/"}}, {"type": "node", "id": 721908107, "lat": 32.0636238, "lon": 34.7727479, "tags": {"addr:city": "\u05ea\u05dc \u05d0\u05d1\u05d9\u05d1-\u05d9\u05e4\u05d5", "addr:housenumber": "29", "addr:street": "\u05e8\u05d5\u05d8\u05e9\u05d9\u05dc\u05d3", "amenity": "cafe", "contact:facebook": "Benedict.IL", "contact:instagram": "benedictbreakfast", "cuisine": "coffee_shop", "description": "Wi-Fi Password:10203040", "internet_access": "wlan", "internet_access:fee": "customers", "name": "\u05d1\u05e0\u05d3\u05d9\u05e7\u05d8 \u05e8\u05d5\u05d8\u05e9\u05d9\u05dc\u05d3", "name:en": "Benedict", "name:he": "\u05d1\u05e0\u05d3\u05d9\u05e7\u05d8 \u05e8\u05d5\u05d8\u05e9\u05d9\u05dc\u05d3", "opening_hours": "Mo-Su 08:00-22:00", "phone": "+972 3 686 8657", "reservation": "yes", "reservation:website": "https://tabitisrael.co.il/online-reservations/create-reservation?step=search&orgId=5a7ad5743ec45a24001b83e6&locale=he-IL", "website": "https://www.benedict.co.il/pages/%D7%91%D7%A0%D7%93%D7%99%D7%A7%D7%98-%D7%A8%D7%95%D7%98%D7%A9%D7%99%D7%9C%D7%93"}}, {"type": "node", "id": 723220062, "lat": 32.0897143, "lon": 34.7737934, "tags": {"addr:housenumber": "171", "addr:street": "\u05d1\u05df \u05d9\u05d4\u05d5\u05d3\u05d4", "amenity": "restaurant", "name": "\u05d1\u05e0\u05d3\u05d9\u05e7\u05d8", "name:en": "Benedict", "name:he": "\u05d1\u05e0\u05d3\u05d9\u05e7\u05d8"}}, {"type": "node", "id": 735827228, "lat": 32.0613325, "lon": 34.7599052, "tags": {"amenity": "restaurant", "name": "Manta Ray", "name:en": "Manta Ray", "wheelchair": "yes"}}, {"type": "node", "id": 735841918, "lat": 32.075906, "lon": 34.7661399, "tags": {"addr:housenumber": "78", "amenity": "restaurant", "name": "\u05d9\u05d8\u05d1\u05ea\u05d4 \u05d1\u05e2\u05d9\u05e8", "name:en": "Yotvata", "name:he": "\u05d9\u05d8\u05d1\u05ea\u05d4 \u05d1\u05e2\u05d9\u05e8"}}, {"type": "node", "id": 746735332, "lat": 32.0900778, "lon": 34.7802545, "tags": {"addr:housenumber": "20", "addr:street": "\u05d0\u05e9\u05ea\u05d5\u05e8\u05d9 \u05e4\u05e8\u05d7\u05d9", "amenity": "restaurant", "name": "\u05e1\u05d5\u05e9\u05d9 \u05d1\u05d6\u05dc", "name:en": "Sushi Basel", "name:he": "\u05e1\u05d5\u05e9\u05d9 \u05d1\u05d6\u05dc"}}, {"type": "node", "id": 759498364, "lat": 32.0946481, "lon": 34.7754439, "tags": {"addr:housenumber": "252", "addr:street": "\u05d1\u05df \u05d9\u05d4\u05d5\u05d3\u05d4", "amenity": "cafe", "name": "\u05d0\u05d9\u05d3\u05dc\u05e1\u05d5\u05df", "name:en": "Idelson", "name:he": "\u05d0\u05d9\u05d3\u05dc\u05e1\u05d5\u05df"}}, {"type": "node", "id": 769268166, "lat": 32.0726991, "lon": 34.7724869, "tags": {"amenity": "cafe", "brand": "\u05e7\u05e4\u05d4 \u05dc\u05e0\u05d3\u05d5\u05d5\u05e8", "brand:en": "Landwer Coffee", "brand:he": "\u05e7\u05e4\u05d4 \u05dc\u05e0\u05d3\u05d5\u05d5\u05e8", "brand:wikidata": "Q6485288", "cuisine": "coffee_shop", "name": "\u05dc\u05e0\u05d3\u05d5\u05d5\u05e8", "name:en": "Landwer", "name:he": "\u05dc\u05e0\u05d3\u05d5\u05d5\u05e8", "takeaway": "yes"}}, {"type": "node", "id": 777399534, "lat": 32.079381, "lon": 34.7802019, "tags": {"amenity": "cafe"}}, {"type": "node", "id": 777400969, "lat": 32.0805105, "lon": 34.7815729, "tags": {"amenity": "cafe", "brand": "\u05e7\u05e4\u05d4 \u05dc\u05e0\u05d3\u05d5\u05d5\u05e8", "brand:en": "Landwer Coffee", "brand:he": "\u05e7\u05e4\u05d4 \u05dc\u05e0\u05d3\u05d5\u05d5\u05e8", "brand:wikidata": "Q6485288", "cuisine": "coffee_shop", "name": "\u05dc\u05e0\u05d3\u05d5\u05d5\u05e8", "name:en": "Landwer", "name:he": "\u05dc\u05e0\u05d3\u05d5\u05d5\u05e8", "takeaway": "yes"}}, {"type": "node", "id": 777400974, "lat": 32.0791936, "lon": 34.7801891, "tags": {"addr:city": "\u05ea\u05dc \u05d0\u05d1\u05d9\u05d1-\u05d9\u05e4\u05d5", "addr:housenumber": "52", "addr:street": "\u05e9\u05d3\u05e8\u05d5\u05ea \u05d7\"\u05df", "amenity": "restaurant", "contact:facebook": "TheMeatBar", "contact:instagram": "meatbar", "diet:kosher": "no", "name": "Meat Bar", "name:en": "Meat Bar", "opening_hours": "Fr-We 12:00-23:30; Th 12:00-00:00", "operator": "Meat Bar", "phone": "+972 3 695 6276", "reservation": "yes", "reservation:website": "https://tabitisrael.co.il/online-reservations/create-reservation?step=search&orgId=599ac32e5eb82a2200ba84e9&locale=he-IL", "website": "https://meatbar.co.il/%D7%9E%D7%99%D7%98%D7%91%D7%A8-%D7%AA%D7%9C-%D7%90%D7%91%D7%99%D7%91/"}}, {"type": "node", "id": 777400975, "lat": 32.0793622, "lon": 34.7797523, "tags": {"addr:housenumber": "90", "addr:street": "\u05e4\u05e8\u05d9\u05e9\u05de\u05df", "amenity": "restaurant", "cuisine": "italian", "name": "\u05d2\u05d5\u05e1\u05d8\u05d5", "name:en": "Gusto", "name:he": "\u05d2\u05d5\u05e1\u05d8\u05d5"}}, {"type": "node", "id": 777401729, "lat": 32.0788443, "lon": 34.7791079, "tags": {"amenity": "cafe", "name": "\u05ea\u05d5\u05e6\u05e8\u05ea \u05d4\u05d0\u05e8\u05e5", "name:en": "Totzeret Ha'aretz", "name:he": "\u05ea\u05d5\u05e6\u05e8\u05ea \u05d4\u05d0\u05e8\u05e5"}}, {"type": "node", "id": 883472074, "lat": 32.0301454, "lon": 34.7413865, "tags": {"amenity": "cafe"}}, {"type": "node", "id": 886140345, "lat": 32.0377527, "lon": 34.747165, "tags": {"addr:housenumber": "130", "addr:street": "\u05e7\u05d3\u05dd", "amenity": "restaurant", "cuisine": "regional", "name": "\u05d0\u05d1\u05d5 \u05e0\u05e1\u05d0\u05e8-\u05d7\u05d9\u05e0\u05d0\u05d5\u05d5\u05d9", "name:en": "Abu Nassar-Hinnawi", "name:he": "\u05d0\u05d1\u05d5 \u05e0\u05e1\u05d0\u05e8-\u05d7\u05d9\u05e0\u05d0\u05d5\u05d5\u05d9", "opening_hours": "Mo-Su 12:00-24:00", "website": "http://www.rest.co.il/sites/Default.asp?txtRestID=1295"}}, {"type": "node", "id": 890443590, "lat": 32.0477701, "lon": 34.8661678, "tags": {"amenity": "restaurant", "cuisine": "pizza", "name": "\u05e4\u05d9\u05e6\u05d4 \u05e8\u05d9\u05de\u05d5\u05df", "name:en": "Pizza Rimon", "name:he": "\u05e4\u05d9\u05e6\u05d4 \u05e8\u05d9\u05de\u05d5\u05df", "name:it": "Rimon"}}, {"type": "node", "id": 894111732, "lat": 31.8893654, "lon": 34.964389, "tags": {"air_conditioning": "yes", "amenity": "cafe", "brand": "\u05e8\u05d5\u05dc\u05d3\u05d9\u05df", "brand:en": "Roladin", "brand:he": "\u05e8\u05d5\u05dc\u05d3\u05d9\u05df", "brand:wikidata": "Q18390972", "brand:wikipedia": "he:\u05e8\u05d5\u05dc\u05d3\u05d9\u05df", "cuisine": "coffee_shop", "name": "\u05e8\u05d5\u05dc\u05d3\u05d9\u05df", "name:en": "Roladin", "name:he": "\u05e8\u05d5\u05dc\u05d3\u05d9\u05df", "takeaway": "yes", "wheelchair": "yes"}}, {"type": "node", "id": 902593829, "lat": 32.0703017, "lon": 34.7634029, "tags": {"amenity": "restaurant"}}, {"type": "node", "id": 902619087, "lat": 32.069314, "lon": 34.7647525, "tags": {"addr:housenumber": "12", "addr:street": "\u05d4\u05d9\u05e8\u05e7\u05d5\u05df", "amenity": "restaurant", "cuisine": "seafood;russian", "delivery": "yes", "name": "\u05d1\u05d0\u05d1\u05d0 \u05d9\u05d0\u05d2\u05d4", "name:en": "Baba Yaga", "name:he": "\u05d1\u05d0\u05d1\u05d0 \u05d9\u05d0\u05d2\u05d4", "name:ru": "\u0411\u0430\u0431\u0430 \u042f\u0433\u0430", "phone": "035175379", "website": "https://www.babayaga.co.il/"}}, {"type": "node", "id": 904502523, "lat": 32.0978007, "lon": 34.7736746, "tags": {"amenity": "cafe", "name": "Y Yogurt Bar", "name:en": "Y Yogurt Bar"}}, {"type": "node", "id": 904508209, "lat": 32.0971841, "lon": 34.7734926, "tags": {"addr:city": "\u05ea\u05dc \u05d0\u05d1\u05d9\u05d1-\u05d9\u05e4\u05d5", "addr:housenumber": "1", "addr:street": "\u05db\"\u05d2 \u05d9\u05d5\u05e8\u05d3\u05d9 \u05d4\u05e1\u05d9\u05e8\u05d4", "amenity": "cafe", "brand": "\u05e7\u05e4\u05d4 \u05e0\u05de\u05e8\u05d5\u05d3", "brand:en": "Cafe Nimrod", "brand:he": "\u05e7\u05e4\u05d4 \u05e0\u05de\u05e8\u05d5\u05d3", "brand:website": "https://www.cafenimrod.com", "brand:wikidata": "Q64606192", "cuisine": "coffee_shop", "name": "\u05e7\u05e4\u05d4 \u05e0\u05de\u05e8\u05d5\u05d3", "name:en": "Cafe Nimrod", "name:he": "\u05e7\u05e4\u05d4 \u05e0\u05de\u05e8\u05d5\u05d3", "opening_hours": "Su-Sa 08:00-01:30", "phone": "+972 77-213-3007", "takeaway": "yes", "website": "https://cafenimrod.com"}}, {"type": "node", "id": 904508667, "lat": 32.0969526, "lon": 34.7734332, "tags": {"amenity": "restaurant", "cuisine": "fish_and_chips;fish", "name": "\u05d1\u05e0\u05d9 \u05d4\u05d3\u05d9\u05d9\u05d2", "name:en": "Benny the Fisherman (Beni Hadayag)", "name:he": "\u05d1\u05e0\u05d9 \u05d4\u05d3\u05d9\u05d9\u05d2"}}, {"type": "node", "id": 904510030, "lat": 32.0965733, "lon": 34.7729058, "tags": {"amenity": "restaurant", "name": "\u05d4\u05e1\u05d5\u05db\u05d4 \u05d4\u05dc\u05d1\u05e0\u05d4", "name:en": "White Pergola", "name:he": "\u05d4\u05e1\u05d5\u05db\u05d4 \u05d4\u05dc\u05d1\u05e0\u05d4"}}, {"type": "node", "id": 904511192, "lat": 32.0966156, "lon": 34.7726648, "tags": {"amenity": "restaurant", "name": "HaLigah", "name:en": "HaLigah", "wheelchair": "yes"}}, {"type": "node", "id": 904521171, "lat": 32.0955411, "lon": 34.7724715, "tags": {"amenity": "restaurant", "cuisine": "mediterranean", "name": "Yulia", "name:en": "Yulia", "wheelchair": "yes"}}, {"type": "node", "id": 904541068, "lat": 32.0989379, "lon": 34.7739145, "tags": {"addr:housenumber": "Hangar 12", "addr:street": "\u05dc\u05d9\u05e4\u05e7\u05d9\u05df-\u05e9\u05d7\u05e7", "amenity": "restaurant", "fixme": "name, name:en mismatch. Flagged by SafwatHalaby_bot-nameCopy. name, name:en mismatch. Flagged by SafwatHalaby_bot-nameCopy", "name": "Kitchen market", "name:en": "Marinero", "name:ru": "\u0420\u042b\u041d\u041e\u041a \u0432 \u041f\u043e\u0440\u0442\u0443"}}, {"type": "node", "id": 904544177, "lat": 32.0998628, "lon": 34.7744966, "tags": {"amenity": "restaurant", "cuisine": "italian", "name": "Porto", "name:en": "Porto"}}, {"type": "node", "id": 904548242, "lat": 32.1006329, "lon": 34.7747419, "tags": {"amenity": "restaurant", "name": "Come Il Faut", "name:en": "Come Il Faut"}}, {"type": "node", "id": 905252043, "lat": 32.0545719, "lon": 34.7554475, "tags": {"amenity": "restaurant", "name": "Kuka", "name:en": "Kuka"}}, {"type": "node", "id": 905254097, "lat": 32.0545538, "lon": 34.7556138, "tags": {"amenity": "restaurant", "name": "hazan grill", "name:en": "hazan grill"}}, {"type": "node", "id": 905260200, "lat": 32.0544446, "lon": 34.7556782, "tags": {"amenity": "restaurant", "name": "avilaphit", "name:en": "avilaphit"}}, {"type": "node", "id": 905278565, "lat": 32.0535353, "lon": 34.7540742, "tags": {"amenity": "restaurant", "name": "Cordelia", "name:en": "Cordelia", "phone": "+972 03 5184668", "website": "http://www.cordelia.co.il/", "wheelchair": "yes"}}, {"type": "node", "id": 905545300, "lat": 32.0509753, "lon": 34.7532053, "tags": {"amenity": "cafe", "name": "Victory", "name:en": "Victory", "wheelchair": "yes"}}, {"type": "node", "id": 940680945, "lat": 32.0640883, "lon": 34.7714836, "tags": {"amenity": "restaurant", "name": "\u05db\u05ea\u05d9\u05ea", "name:en": "Catit", "name:he": "\u05db\u05ea\u05d9\u05ea", "website": "https://www.catit.co.il/"}}, {"type": "node", "id": 947438231, "lat": 32.0949193, "lon": 34.7780784, "tags": {"amenity": "restaurant", "name": "\u05e2\u05d3\u05e0\u05d4", "name:en": "Edna", "name:he": "\u05e2\u05d3\u05e0\u05d4"}}, {"type": "node", "id": 950284108, "lat": 32.0951621, "lon": 34.7756508, "tags": {"amenity": "restaurant", "name": "\u05e9\u05e6'\u05d5\u05e4\u05e7", "name:en": "Shchupak", "name:he": "\u05e9\u05e6'\u05d5\u05e4\u05e7"}}, {"type": "node", "id": 965950120, "lat": 32.0960143, "lon": 34.821406, "tags": {"amenity": "cafe", "brand": "\u05e7\u05e4\u05d4 \u05e7\u05e4\u05d4", "brand:en": "Cafe Cafe", "brand:he": "\u05e7\u05e4\u05d4 \u05e7\u05e4\u05d4", "brand:wikidata": "Q5017233", "cuisine": "coffee_shop", "name": "\u05e7\u05e4\u05d4 \u05e7\u05e4\u05d4", "name:en": "Cafe Cafe", "name:he": "\u05e7\u05e4\u05d4 \u05e7\u05e4\u05d4", "operator": "\u05e7\u05e4\u05d4 \u05e7\u05e4\u05d4", "operator:en": "Cafe Cafe", "operator:he": "\u05e7\u05e4\u05d4 \u05e7\u05e4\u05d4", "takeaway": "yes"}}, {"type": "node", "id": 965950123, "lat": 32.0961916, "lon": 34.8219636, "tags": {"amenity": "cafe", "brand": "\u05d0\u05e8\u05d5\u05de\u05d4", "brand:en": "Aroma Espresso Bar", "brand:he": "\u05d0\u05e8\u05d5\u05de\u05d4", "brand:wikidata": "Q2909872", "cuisine": "coffee_shop", "internet_access": "wlan", "name": "\u05d0\u05e8\u05d5\u05de\u05d4", "name:en": "Aroma Espresso Bar", "name:he": "\u05d0\u05e8\u05d5\u05de\u05d4", "takeaway": "yes"}}, {"type": "node", "id": 972616162, "lat": 32.0658649, "lon": 34.7770312, "tags": {"addr:housenumber": "73", "addr:street": "\u05e9\u05d3\u05e8\u05d5\u05ea \u05e8\u05d5\u05d8\u05e9\u05d9\u05dc\u05d3", "amenity": "restaurant", "name": "\u05d4\u05e9\u05d5\u05dc\u05d7\u05df", "name:en": "HaShulhan", "name:he": "\u05d4\u05e9\u05d5\u05dc\u05d7\u05df"}}, {"type": "node", "id": 976471770, "lat": 32.001088, "lon": 34.8715411, "tags": {"amenity": "cafe", "brand": "Arcaffe", "brand:en": "Arcaffe", "brand:he": "\u05d0\u05e8\u05e7\u05e4\u05d4", "brand:wikidata": "Q2897147", "cuisine": "coffee_shop", "name": "Arcaffe", "name:en": "Arcaffe", "name:he": "\u05d0\u05e8\u05e7\u05e4\u05d4", "opening_hours": "24/7", "takeaway": "yes"}}, {"type": "node", "id": 976471774, "lat": 32.0013757, "lon": 34.8703915, "tags": {"amenity": "restaurant", "brand": "Pizza Hut", "brand:wikidata": "Q191615", "brand:wikipedia": "en:Pizza Hut", "cuisine": "pizza", "name": "Pizza Hut", "name:en": "Pizza Hut", "opening_hours": "24/7", "operator": "Pizza Hut"}}, {"type": "node", "id": 977473276, "lat": 31.7611548, "lon": 34.7855323, "tags": {"amenity": "restaurant", "name": "\u05e9\u05d9\u05e4\u05d5\u05d3\u05d9 \u05d4\u05d0\u05d5\u05d5\u05d6", "name:en": "Shipudei Ha'Avaz", "name:he": "\u05e9\u05d9\u05e4\u05d5\u05d3\u05d9 \u05d4\u05d0\u05d5\u05d5\u05d6", "phone": "+97288502907"}}, {"type": "node", "id": 977478368, "lat": 31.7272019, "lon": 34.7548848, "tags": {"alt_name": "\u05e7\u05e4\u05d4 Joe", "amenity": "cafe", "brand": "\u05e7\u05e4\u05d4 \u05d2\u05e8\u05d2", "brand:en": "Greg Cafe", "brand:he": "\u05e7\u05e4\u05d4 \u05d2\u05e8\u05d2", "brand:wikidata": "Q43295499", "brand:wikipedia": "he:\u05e7\u05e4\u05d4 \u05d2\u05e8\u05d2", "contact:website": "http://www.joe.co.il/", "cuisine": "coffee_shop", "name": "\u05e7\u05e4\u05d4 \u05d2\u05e8\u05d2", "name:en": "Greg Cafe", "name:he": "\u05e7\u05e4\u05d4 \u05d2\u05e8\u05d2", "opening_hours": "Su - Th 8:00-23:00; Fr 7:30-15:00", "operator": "\u05e7\u05e4\u05d4 \u05d2'\u05d5", "operator:en": "Cup 'o' Joe", "operator:he": "\u05e7\u05e4\u05d4 \u05d2'\u05d5", "takeaway": "yes"}}, {"type": "node", "id": 977478377, "lat": 31.7288311, "lon": 34.7553214, "tags": {"amenity": "cafe", "brand": "\u05d0\u05e8\u05d5\u05de\u05d4", "brand:en": "Aroma Espresso Bar", "brand:he": "\u05d0\u05e8\u05d5\u05de\u05d4", "brand:wikidata": "Q2909872", "cuisine": "coffee_shop", "internet_access": "yes", "name": "\u05d0\u05e8\u05d5\u05de\u05d4", "name:en": "Aroma Espresso Bar", "name:he": "\u05d0\u05e8\u05d5\u05de\u05d4", "operator": "\u05d0\u05e8\u05d5\u05de\u05d4", "operator:en": "Aroma", "takeaway": "yes"}}, {"type": "node", "id": 979277408, "lat": 32.088356, "lon": 34.8603756, "tags": {"amenity": "cafe", "name": "Cacao Cafe", "name:en": "Cacao Cafe"}}, {"type": "node", "id": 984578657, "lat": 32.0583103, "lon": 34.8185877, "tags": {"amenity": "cafe", "name": "\u05e9\u05e7\u05d3", "name:en": "Shaked", "name:he": "\u05e9\u05e7\u05d3", "opening_hours": "Su-Th 07:30-24:00, Fr 07:30-14:30, Sa 18:00-24:00"}}, {"type": "node", "id": 993520909, "lat": 31.8373047, "lon": 34.9767642, "tags": {"amenity": "cafe"}}, {"type": "node", "id": 1010276235, "lat": 32.0695689, "lon": 34.7941612, "tags": {"amenity": "restaurant"}}, {"type": "node", "id": 1052384884, "lat": 32.0272175, "lon": 34.8949816, "tags": {"amenity": "restaurant", "name": "\u05d8\u05d0\u05d8\u05d9", "name:en": "Tatti", "name:he": "\u05d8\u05d0\u05d8\u05d9", "payment:cibus": "yes"}}, {"type": "node", "id": 1059808342, "lat": 32.0257028, "lon": 34.8015678, "tags": {"amenity": "restaurant", "atm": "yes", "name": "\u05e2\u05d6\u05e8\u05d0 \u05d5\u05d1\u05e0\u05d9\u05d5", "name:en": "Ezra and Sons", "name:he": "\u05e2\u05d6\u05e8\u05d0 \u05d5\u05d1\u05e0\u05d9\u05d5", "payment:cash": "yes", "payment:credit_cards": "no", "wikidata": "Q127687380"}}, {"type": "node", "id": 1059901175, "lat": 32.0245189, "lon": 34.8030063, "tags": {"amenity": "restaurant", "name": "\u05d0\u05dc\u05d1\u05e8\u05d8", "name:en": "Albert", "name:he": "\u05d0\u05dc\u05d1\u05e8\u05d8"}}, {"type": "node", "id": 1064535572, "lat": 32.1209142, "lon": 34.7823144}, {"type": "node", "id": 1064535583, "lat": 32.1210517, "lon": 34.7823871}, {"type": "node", "id": 1064535589, "lat": 32.1209783, "lon": 34.7821452}, {"type": "node", "id": 1064535599, "lat": 32.1211539, "lon": 34.7821948}, {"type": "node", "id": 1070441439, "lat": 31.8939201, "lon": 34.80774, "tags": {"amenity": "cafe"}}, {"type": "node", "id": 1077311490, "lat": 32.081666, "lon": 34.773943, "tags": {"alt_name": "\u05e7\u05e4\u05d4 Joe", "amenity": "cafe", "brand": "\u05e7\u05e4\u05d4 \u05d2'\u05d5", "brand:en": "Cafe Joe", "brand:he": "\u05e7\u05e4\u05d4 \u05d2'\u05d5", "brand:wikidata": "Q6774425", "contact:website": "http://www.joe.co.il/", "cuisine": "coffee_shop", "name": "\u05e7\u05e4\u05d4 \u05d2'\u05d5", "name:en": "Cafe Joe", "name:he": "\u05e7\u05e4\u05d4 \u05d2'\u05d5", "operator": "\u05e7\u05e4\u05d4 \u05d2'\u05d5", "operator:en": "Cup 'o' Joe", "operator:he": "\u05e7\u05e4\u05d4 \u05d2'\u05d5", "takeaway": "yes"}}, {"type": "node", "id": 1077311494, "lat": 32.0818943, "lon": 34.7739489, "tags": {"amenity": "cafe", "brand": "\u05d0\u05e8\u05d5\u05de\u05d4", "brand:en": "Aroma Espresso Bar", "brand:he": "\u05d0\u05e8\u05d5\u05de\u05d4", "brand:wikidata": "Q2909872", "cuisine": "coffee_shop", "name": "\u05d0\u05e8\u05d5\u05de\u05d4", "name:en": "Aroma Espresso Bar", "name:en1": "Aroma Espresso Bar", "name:he": "\u05d0\u05e8\u05d5\u05de\u05d4", "takeaway": "yes"}}, {"type": "node", "id": 1102234655, "lat": 32.1229021, "lon": 34.8166164, "tags": {"amenity": "cafe", "brand": "\u05d0\u05e8\u05d5\u05de\u05d4", "brand:en": "Aroma Espresso Bar", "brand:he": "\u05d0\u05e8\u05d5\u05de\u05d4", "brand:wikidata": "Q2909872", "brand:wikipedia": "en:Aroma Espresso Bar", "cuisine": "coffee_shop", "internet_access": "wlan", "name": "\u05d0\u05e8\u05d5\u05de\u05d4", "name:en": "Aroma", "name:en1": "Aroma Espresso Bar", "name:he": "\u05d0\u05e8\u05d5\u05de\u05d4", "survey:date": "2024-08-01", "takeaway": "yes"}}, {"type": "node", "id": 1102324016, "lat": 32.1200543, "lon": 34.8204195, "tags": {"alt_name": "\u05e7\u05e4\u05d4 Joe", "amenity": "cafe", "brand": "\u05e7\u05e4\u05d4 \u05d2'\u05d5", "brand:en": "Cafe Joe", "brand:he": "\u05e7\u05e4\u05d4 \u05d2'\u05d5", "brand:wikidata": "Q6774425", "brand:wikipedia": "he:\u05e7\u05e4\u05d4 \u05d2'\u05d5", "contact:website": "http://www.joe.co.il/", "cuisine": "coffee_shop", "name": "\u05e7\u05e4\u05d4 \u05d2'\u05d5", "name:en": "Cafe Joe", "name:he": "\u05e7\u05e4\u05d4 \u05d2'\u05d5", "operator": "\u05e7\u05e4\u05d4 \u05d2'\u05d5", "operator:en": "Cup 'o' Joe", "operator:he": "\u05e7\u05e4\u05d4 \u05d2'\u05d5", "takeaway": "yes"}}, {"type": "node", "id": 1110695720, "lat": 32.0034949, "lon": 34.8754064, "tags": {"alt_name": "\u05e7\u05e4\u05d4 Joe", "amenity": "cafe", "brand": "\u05e7\u05e4\u05d4 \u05d2'\u05d5", "brand:en": "Cafe Joe", "brand:he": "\u05e7\u05e4\u05d4 \u05d2'\u05d5", "brand:wikidata": "Q6774425", "brand:wikipedia": "he:\u05e7\u05e4\u05d4 \u05d2'\u05d5", "cuisine": "coffee_shop", "name": "\u05e7\u05e4\u05d4 \u05d2'\u05d5", "name:en": "Cafe Joe", "name:he": "\u05e7\u05e4\u05d4 \u05d2'\u05d5", "takeaway": "yes"}}, {"type": "node", "id": 1110697111, "lat": 32.0054646, "lon": 34.8744944, "tags": {"amenity": "cafe", "brand": "Segafredo", "brand:wikidata": "Q21282762", "cuisine": "coffee_shop", "name": "Segafredo", "name:en": "Segafredo", "operator": "Segafredo", "takeaway": "yes"}}, {"type": "node", "id": 1110698321, "lat": 32.0056737, "lon": 34.8718736, "tags": {"amenity": "cafe", "cuisine": "coffee_shop", "name": "Segafredo", "name:en": "Segafredo"}}, {"type": "node", "id": 1110713513, "lat": 32.0041249, "lon": 34.8730839, "tags": {"amenity": "restaurant", "brand": "Pizza Hut", "brand:wikidata": "Q191615", "brand:wikipedia": "en:Pizza Hut", "cuisine": "pizza", "name": "Pizza Hut", "name:en": "Pizza Hut", "operator": "Pizza Hut"}}, {"type": "node", "id": 1110730166, "lat": 32.0035969, "lon": 34.8731997, "tags": {"amenity": "cafe", "description": "The alternative caf\u00e9", "name": "\u05d0\u05d9\u05dc\u05e0'\u05e1", "name:en": "Ilan's", "name:he": "\u05d0\u05d9\u05dc\u05e0'\u05e1"}}, {"type": "node", "id": 1110730168, "lat": 32.0038881, "lon": 34.8727892, "tags": {"amenity": "cafe", "brand": "Segafredo", "brand:wikidata": "Q21282762", "cuisine": "coffee_shop", "name": "Segafredo", "name:en": "Segafredo", "takeaway": "yes"}}, {"type": "node", "id": 1119277181, "lat": 32.1006022, "lon": 34.8013572, "tags": {"amenity": "restaurant"}}, {"type": "node", "id": 1129177497, "lat": 32.108575, "lon": 34.8386075}, {"type": "node", "id": 1129177498, "lat": 32.1086568, "lon": 34.8387577}, {"type": "node", "id": 1129177499, "lat": 32.108575, "lon": 34.838763}, {"type": "node", "id": 1129177500, "lat": 32.1085387, "lon": 34.8386933}, {"type": "node", "id": 1131360228, "lat": 32.1432653, "lon": 34.7931973, "tags": {"amenity": "cafe"}}, {"type": "node", "id": 1137245914, "lat": 32.1031986, "lon": 34.7960694, "tags": {"amenity": "cafe", "name": "\u05d0\u05e0\u05d9\u05e0\u05d4", "name:en": "Anina", "name:he": "\u05d0\u05e0\u05d9\u05e0\u05d4", "website": "https://artsi.co.il/"}}, {"type": "node", "id": 1152595900, "lat": 32.1111322, "lon": 34.8159891, "tags": {"amenity": "cafe", "brand": "Arcaffe", "brand:en": "Arcaffe", "brand:he": "\u05d0\u05e8\u05e7\u05e4\u05d4", "brand:wikidata": "Q2897147", "cuisine": "coffee_shop", "name": "Arcaffe", "name:en": "Arcaffe", "name:he": "\u05d0\u05e8\u05e7\u05e4\u05d4", "takeaway": "yes"}}, {"type": "node", "id": 1166180088, "lat": 32.1093009, "lon": 34.8184309, "tags": {"amenity": "cafe"}}, {"type": "node", "id": 1168974238, "lat": 32.1206913, "lon": 34.8287405, "tags": {"amenity": "restaurant", "cuisine": "pizza", "name": "\u05e4\u05d9\u05e6\u05d4 \u05d4\u05d0\u05d8", "name:en": "Pizza Hut", "name:he": "\u05e4\u05d9\u05e6\u05d4 \u05d4\u05d0\u05d8", "operator": "Pizza Hut"}}, {"type": "node", "id": 1171857553, "lat": 32.1217218, "lon": 34.8350351, "tags": {"amenity": "cafe", "name": "Cafe Beta"}}, {"type": "node", "id": 1174935820, "lat": 31.8429129, "lon": 34.9685132, "tags": {"amenity": "cafe"}}, {"type": "node", "id": 1177264748, "lat": 32.1243446, "lon": 34.8250467, "tags": {"amenity": "restaurant", "cuisine": "seafood", "name": "\u05d3\u05d2\u05d9\u05dd 206", "name:en": "Dagim 206", "name:he": "\u05d3\u05d2\u05d9\u05dd 206", "survey:date": "2024-08-02"}}, {"type": "node", "id": 1185083178, "lat": 32.0735343, "lon": 34.7663345, "tags": {"amenity": "restaurant", "cuisine": "french"}}, {"type": "node", "id": 1185083191, "lat": 32.0734011, "lon": 34.7667813, "tags": {"addr:housenumber": "13", "amenity": "restaurant", "cuisine": "chinese", "name": "\u05de\u05e1\u05e2\u05d3\u05ea \u05dc\u05d5\u05e0\u05d2 \u05e1\u05e0\u05d2", "name:en": "Long Sang", "name:he": "\u05de\u05e1\u05e2\u05d3\u05ea \u05dc\u05d5\u05e0\u05d2 \u05e1\u05e0\u05d2"}}, {"type": "node", "id": 1185083224, "lat": 32.0734505, "lon": 34.7665796, "tags": {"amenity": "restaurant", "cuisine": "ethiopian", "name": "Ethiopian Restaurant", "name:en": "Ethiopian Restaurant"}}, {"type": "node", "id": 1193566025, "lat": 31.8821894, "lon": 34.8787439, "tags": {"amenity": "cafe"}}, {"type": "node", "id": 1193566028, "lat": 31.8819958, "lon": 34.87946, "tags": {"amenity": "cafe"}}, {"type": "node", "id": 1198051830, "lat": 32.0550357, "lon": 34.7528024}, {"type": "node", "id": 1198051835, "lat": 32.0549948, "lon": 34.7527219}, {"type": "node", "id": 1198051915, "lat": 32.0551357, "lon": 34.7527434}, {"type": "node", "id": 1201454394, "lat": 32.1126966, "lon": 34.8063272, "tags": {"amenity": "cafe", "name": "\u05e1\u05e9\u05e7", "name:en": "Seshek", "name:he": "\u05e1\u05e9\u05e7"}}, {"type": "node", "id": 1201454397, "lat": 32.1169126, "lon": 34.8045324, "tags": {"amenity": "cafe"}}, {"type": "node", "id": 1201454399, "lat": 32.1167036, "lon": 34.8056751, "tags": {"amenity": "cafe"}}, {"type": "node", "id": 1201454401, "lat": 32.1118603, "lon": 34.8037764, "tags": {"amenity": "cafe", "check_date": "2025-02-11", "cuisine": "coffee;salad;sandwich", "name": "Coffee Star", "name:en": "Coffee Star", "name:he": "\u05e7\u05d5\u05e4\u05d9 \u05e1\u05d8\u05d0\u05e8", "wheelchair": "limited"}}, {"type": "node", "id": 1201454405, "lat": 32.1127279, "lon": 34.8006325, "tags": {"amenity": "cafe"}}, {"type": "node", "id": 1201454411, "lat": 32.1087315, "lon": 34.804697, "tags": {"amenity": "cafe", "name": "\u05e2\u05dc\u05d9\u05ea", "name:en": "Elite", "name:he": "\u05e2\u05dc\u05d9\u05ea"}}, {"type": "node", "id": 1207157419, "lat": 32.07748, "lon": 34.789076, "tags": {"amenity": "cafe", "name": "Uno", "name:en": "Uno"}}, {"type": "node", "id": 1207157736, "lat": 32.0774314, "lon": 34.7894711, "tags": {"addr:city": "\u05ea\u05dc \u05d0\u05d1\u05d9\u05d1-\u05d9\u05e4\u05d5", "amenity": "restaurant", "contact:facebook": "https://www.facebook.com/people/%D7%A4%D7%99%D7%A9-%D7%9E%D7%A8%D7%A7%D7%98-Fish-Market-By-Meatos/100054427723170/", "contact:instagram": "fishmarket_tlv", "cuisine": "seafood;greek", "name": "Fish Market by Meatos", "name:en": "Fish Market by Meatos", "name:he": "\u05e4\u05d9\u05e9 \u05de\u05e8\u05e7\u05d8 \u05de\u05d1\u05d9\u05ea \u05de\u05d9\u05d8\u05d5\u05e1", "phone": "+97236932002", "website": "https://fishmarket-tlv.co.il/"}}, {"type": "node", "id": 1207157824, "lat": 32.0776754, "lon": 34.7888727, "tags": {"amenity": "restaurant", "name": "Greg", "name:en": "Greg"}}, {"type": "node", "id": 1207693345, "lat": 32.0982678, "lon": 34.8088539}, {"type": "node", "id": 1207693362, "lat": 32.0982504, "lon": 34.8088505}, {"type": "node", "id": 1207693364, "lat": 32.1007811, "lon": 34.8092139}, {"type": "node", "id": 1207693395, "lat": 32.0982408, "lon": 34.8089781}, {"type": "node", "id": 1207693422, "lat": 32.1008167, "lon": 34.8091086}, {"type": "node", "id": 1207693443, "lat": 32.1006649, "lon": 34.8091592}, {"type": "node", "id": 1207693487, "lat": 32.0982236, "lon": 34.8089708}, {"type": "node", "id": 1207693496, "lat": 32.1006881, "lon": 34.8090481}, {"type": "node", "id": 1240986470, "lat": 31.9102925, "lon": 34.8073212}, {"type": "node", "id": 1240986501, "lat": 31.9103758, "lon": 34.8073686}, {"type": "node", "id": 1240986502, "lat": 31.9094805, "lon": 34.8068268}, {"type": "node", "id": 1240986518, "lat": 31.9105462, "lon": 34.807543}, {"type": "node", "id": 1240986537, "lat": 31.9099339, "lon": 34.8077634}, {"type": "node", "id": 1240986544, "lat": 31.91052, "lon": 34.8073638}, {"type": "node", "id": 1246615716, "lat": 32.0877381, "lon": 34.7907899, "tags": {"addr:city": "\u05ea\u05dc \u05d0\u05d1\u05d9\u05d1-\u05d9\u05e4\u05d5", "addr:city:en": "Tel Aviv", "addr:housenumber": "48", "addr:street": "\u05d4' \u05d1\u05d0\u05d9\u05d9\u05e8", "amenity": "cafe", "cuisine": "cake", "internet_access": "wlan", "internet_access:fee": "no"}}, {"type": "node", "id": 1251428224, "lat": 32.0178446, "lon": 34.7388698, "tags": {"amenity": "restaurant", "cuisine": "italian", "name": "\u05e7\u05d0\u05e8\u05d0\u05e1", "name:en": "Karas", "name:he": "\u05e7\u05d0\u05e8\u05d0\u05e1"}}, {"type": "node", "id": 1251428230, "lat": 32.0172714, "lon": 34.7384395, "tags": {"amenity": "cafe", "name": "\u05d8\u05d5\u05d1\u05d2\u05d5", "name:en": "Tobago", "name:he": "\u05d8\u05d5\u05d1\u05d2\u05d5"}}, {"type": "node", "id": 1251428252, "lat": 32.0240951, "lon": 34.7404239, "tags": {"addr:city": "\u05d1\u05ea \u05d9\u05dd", "addr:housenumber": "61", "addr:street": "\u05d1\u05df \u05d2\u05d5\u05e8\u05d9\u05d5\u05df", "amenity": "restaurant", "brand": "Deda", "cuisine": "georgian", "name": "Deda", "name:en": "Deda", "name:he": "\u05d3\u05d3\u05d4", "name:ru": "\u0414\u0435\u0434\u0430", "phone": "1-700-700-165", "website": "https://www.deda.co.il/"}}, {"type": "node", "id": 1251428340, "lat": 32.0216085, "lon": 34.7395289, "tags": {"alt_name": "\u05e7\u05e4\u05d4 Joe", "amenity": "cafe", "brand": "\u05e7\u05e4\u05d4 \u05d2'\u05d5", "brand:en": "Cafe Joe", "brand:he": "\u05e7\u05e4\u05d4 \u05d2'\u05d5", "brand:wikidata": "Q6774425", "contact:website": "http://www.joe.co.il/", "cuisine": "coffee_shop", "name": "\u05e7\u05e4\u05d4 \u05d2'\u05d5", "name:en": "Cafe Joe", "name:he": "\u05e7\u05e4\u05d4 \u05d2'\u05d5", "operator": "\u05e7\u05e4\u05d4 \u05d2'\u05d5", "operator:en": "Cup 'o' Joe", "operator:he": "\u05e7\u05e4\u05d4 \u05d2'\u05d5", "takeaway": "yes"}}, {"type": "node", "id": 1251428353, "lat": 32.0168721, "lon": 34.7386884, "tags": {"amenity": "cafe", "name": "\u05e7\u05e7\u05d0\u05d5", "name:en": "Cacao", "name:he": "\u05e7\u05e7\u05d0\u05d5"}}, {"type": "node", "id": 1251428362, "lat": 32.0204646, "lon": 34.7393396, "tags": {"amenity": "restaurant", "cuisine": "japanese", "name": "\u05d2\u05e4\u05e0\u05d9\u05e7\u05d4", "name:en": "Japanika", "name:he": "\u05d2\u05e4\u05e0\u05d9\u05e7\u05d4"}}, {"type": "node", "id": 1251428367, "lat": 32.0165183, "lon": 34.7387082, "tags": {"amenity": "restaurant", "cuisine": "burger", "name": "\u05d0\u05dc \u05d2\u05d0\u05d5\u05e6'\u05d5", "name:en": "El Gaucho", "name:he": "\u05d0\u05dc \u05d2\u05d0\u05d5\u05e6'\u05d5"}}, {"type": "node", "id": 1251428368, "lat": 32.0194962, "lon": 34.7391805, "tags": {"amenity": "cafe", "name": "\u05d2\u05d5\u05e8\u05d9\u05dc\u05d4", "name:en": "Gorilla", "name:he": "\u05d2\u05d5\u05e8\u05d9\u05dc\u05d4"}}, {"type": "node", "id": 1251428376, "lat": 32.0202346, "lon": 34.7392928, "tags": {"amenity": "cafe", "branch": "\u05d0\u05e1\u05e4\u05e8\u05e1\u05d5 \u05d1\u05e8", "brand": "\u05d0\u05e8\u05d5\u05de\u05d4", "brand:en": "Aroma Espresso Bar", "brand:he": "\u05d0\u05e8\u05d5\u05de\u05d4", "brand:wikidata": "Q2909872", "cuisine": "coffee_shop", "internet_access": "yes", "name": "\u05d0\u05e8\u05d5\u05de\u05d4", "name:en": "Aroma Espresso Bar", "name:he": "\u05d0\u05e8\u05d5\u05de\u05d4", "takeaway": "yes"}}, {"type": "node", "id": 1258399122, "lat": 32.0239433, "lon": 34.7403245, "tags": {"addr:city": "\u05d1\u05ea \u05d9\u05dd", "addr:housenumber": "61", "addr:street": "\u05d1\u05df \u05d2\u05d5\u05e8\u05d9\u05d5\u05df", "amenity": "restaurant", "name": "\u05d1\u05e8\u05d9\u05e1\u05d8\u05d5\u05dc", "name:en": "Bristol", "name:he": "\u05d1\u05e8\u05d9\u05e1\u05d8\u05d5\u05dc", "opening_hours": "Su-Sa 12:00-22:00", "phone": "+972 3-506-6338"}}, {"type": "node", "id": 1258399135, "lat": 32.0242034, "lon": 34.7404828, "tags": {"amenity": "restaurant", "name": "Keg resto pub", "name:en": "Keg resto pub"}}, {"type": "node", "id": 1258399163, "lat": 32.025581, "lon": 34.7409919, "tags": {"amenity": "restaurant", "name": "Nika", "name:en": "Nika"}}, {"type": "node", "id": 1258399165, "lat": 32.0238515, "lon": 34.7402824, "tags": {"amenity": "restaurant", "name": "Prestige", "name:en": "Prestige"}}, {"type": "node", "id": 1283965136, "lat": 32.0345834, "lon": 34.7454961, "tags": {"amenity": "restaurant", "name": "Baku", "name:en": "Baku"}}, {"type": "node", "id": 1295303499, "lat": 32.022494, "lon": 34.7745864, "tags": {"amenity": "cafe", "brand": "\u05e7\u05e4\u05d4 \u05e7\u05e4\u05d4", "brand:en": "Cafe Cafe", "brand:he": "\u05e7\u05e4\u05d4 \u05e7\u05e4\u05d4", "brand:wikidata": "Q5017233", "brand:wikipedia": "he:\u05e7\u05e4\u05d4 \u05e7\u05e4\u05d4", "cuisine": "coffee_shop", "name": "\u05e7\u05e4\u05d4 \u05e7\u05e4\u05d4", "name:en": "Cafe Cafe", "name:he": "\u05e7\u05e4\u05d4 \u05e7\u05e4\u05d4", "takeaway": "yes"}}, {"type": "node", "id": 1308752064, "lat": 32.0736757, "lon": 34.7958306, "tags": {"amenity": "restaurant", "delivery": "yes", "name": "\u05e4\u05d9\u05dc\u05d3\u05dc\u05e4\u05d9\u05d4", "name:en": "Philadelphia", "name:he": "\u05e4\u05d9\u05dc\u05d3\u05dc\u05e4\u05d9\u05d4", "outdoor_seating": "yes", "phone": "+972 36930606", "takeaway": "yes"}}, {"type": "node", "id": 1308842241, "lat": 32.0693913, "lon": 34.7949387, "tags": {"amenity": "restaurant", "name": "\u05d1\u05d5\u05dc\u05e0\u05d6'\u05e8\u05d9 96", "name:he": "\u05d1\u05d5\u05dc\u05e0\u05d6'\u05e8\u05d9 96"}}, {"type": "node", "id": 1308842248, "lat": 32.0693608, "lon": 34.7947619, "tags": {"amenity": "restaurant"}}, {"type": "node", "id": 1309308421, "lat": 32.0964948, "lon": 34.7944336, "tags": {"amenity": "restaurant", "name": "\u05de\u05e4\u05d2\u05e9 \u05d4\u05d9\u05e8\u05e7\u05d5\u05df", "name:en": "Mifgash HaYarkon", "name:he": "\u05de\u05e4\u05d2\u05e9 \u05d4\u05d9\u05e8\u05e7\u05d5\u05df"}}, {"type": "node", "id": 1309308443, "lat": 32.0950657, "lon": 34.7981111, "tags": {"amenity": "cafe"}}, {"type": "node", "id": 1309308446, "lat": 32.088969, "lon": 34.7972018, "tags": {"amenity": "cafe", "name": "restaurant poisson Ada", "name:he": "restaurant poisson Ada"}}, {"type": "node", "id": 1310662759, "lat": 32.0747343, "lon": 34.8093916, "tags": {"amenity": "restaurant", "name": "\u05e7\u05e4\u05d4 \u05d6\u05dc\u05d9\u05e7", "name:en": "Cafe Zelik", "name:he": "\u05e7\u05e4\u05d4 \u05d6\u05dc\u05d9\u05e7"}}, {"type": "node", "id": 1310732009, "lat": 32.0752958, "lon": 34.8050162, "tags": {"amenity": "cafe", "check_date": "2023-06-27", "name": "\u05e0\u05dc\u05e1\u05d5\u05df 33", "name:en": "Nelson 33", "name:he": "\u05e0\u05dc\u05e1\u05d5\u05df 33"}}, {"type": "node", "id": 1319999667, "lat": 32.0613817, "lon": 34.7636401, "tags": {"amenity": "cafe", "name": "\u05e1\u05d5\u05d6\u05e0\u05d4", "name:en": "Suzana", "name:he": "\u05e1\u05d5\u05d6\u05e0\u05d4"}}, {"type": "node", "id": 1340846227, "lat": 32.0664414, "lon": 34.7940997, "tags": {"amenity": "restaurant", "name": "Cafe Italia", "name:ar": "\u0642\u0647\u0648\u0629 \u0625\u064a\u0637\u0627\u0644\u064a\u0627", "name:en": "Cafe Italia", "phone": "035612888", "website": "https://www.cafe-italia.co.il/", "wheelchair": "yes"}}, {"type": "node", "id": 1386293498, "lat": 32.0889396, "lon": 34.8038711, "tags": {"amenity": "cafe", "cuisine": "coffee_shop", "name": "\u05e7\u05e4\u05d4 \u05d0\u05e0\u05d4", "name:en": "Anna Coffee", "name:he": "\u05e7\u05e4\u05d4 \u05d0\u05e0\u05d4"}}, {"type": "node", "id": 1386787886, "lat": 32.0875618, "lon": 34.8039019, "tags": {"addr:housenumber": "9", "addr:street": "\u05ea\u05d5\u05d1\u05dc \u05e8\u05de\u05ea \u05d2\u05df", "amenity": "restaurant", "cuisine": "shawarma", "description": "\u05e1\u05e0\u05d9\u05e3 \u05e9\u05dc \u05e9\u05d5\u05d5\u05d0\u05e8\u05de\u05d4 \u05e9\u05de\u05e9.", "name": "\u05e9\u05de\u05e9", "name:en": "sun", "name:he": "\u05e9\u05de\u05e9", "opening_hours": "Mo-Th, Su 11:00-00:00", "phone": "03-612-1888", "website": "https://shemesh-rg.co.il/"}}, {"type": "node", "id": 1400686572, "lat": 32.090499, "lon": 34.822307, "tags": {"amenity": "restaurant", "cuisine": "steak_house", "name": "\u05d0\u05dc \u05d2\u05d0\u05d5\u05e6'\u05d5", "name:en": "El Gaucho", "name:es": "El Gaucho", "name:he": "\u05d0\u05dc \u05d2\u05d0\u05d5\u05e6'\u05d5", "operator": "\u05d0\u05dc \u05d2\u05d0\u05d5\u05e6'\u05d5", "operator:en": "El Gaucho", "operator:es": "El Gaucho", "operator:he": "\u05d0\u05dc \u05d2\u05d0\u05d5\u05e6'\u05d5"}}, {"type": "node", "id": 1400687793, "lat": 32.0833389, "lon": 34.8026554, "tags": {"amenity": "restaurant", "branch": "Bar 'n' Burger", "brand": "Black Bar Burger", "brand:en": "Black Bar Burger", "brand:he": "\u05d1\u05dc\u05d0\u05e7 \u05d1\u05d5\u05e8\u05d2\u05e8", "brand:wikidata": "Q64760158", "contact:website": "http://www.blackbarburger.co.il", "cuisine": "burger", "name": "Black", "name:en": "Black", "name:he": "\u05d1\u05dc\u05d0\u05e7", "operator": "Black", "smoking": "no"}}, {"type": "node", "id": 1419068446, "lat": 32.07048, "lon": 34.7863811, "tags": {"addr:housename": "\u05de\u05d2\u05d3\u05dc \u05d4\u05de\u05d9\u05dc\u05d9\u05e0\u05d9\u05d5\u05dd", "addr:housenumber": "17", "addr:postcode": "64739", "addr:street": "\u05d4\u05d0\u05e8\u05d1\u05e2\u05d4", "amenity": "cafe", "brand": "Arcaffe", "brand:en": "Arcaffe", "brand:he": "\u05d0\u05e8\u05e7\u05e4\u05d4", "brand:wikidata": "Q2897147", "cuisine": "coffee_shop", "internet_access": "wlan", "internet_access:fee": "no", "name": "Arcaffe", "name:en": "Arcaffe", "name:he": "\u05d0\u05e8\u05e7\u05e4\u05d4", "takeaway": "yes", "website": "https://www.arcaffe.co.il/"}}, {"type": "node", "id": 1419074173, "lat": 32.0702921, "lon": 34.7853047, "tags": {"addr:city": "\u05ea\u05dc \u05d0\u05d1\u05d9\u05d1-\u05d9\u05e4\u05d5", "addr:housenumber": "18", "addr:street": "\u05d4\u05d0\u05e8\u05d1\u05e2\u05d4", "amenity": "restaurant", "contact:facebook": "https://www.facebook.com/hamisadda/", "contact:instagram": "https://www.instagram.com/hamisadda/", "cuisine": "meat", "name": "\u05d4\u05de\u05e1\u05e2\u05d3\u05d4", "name:en": "Hamisada", "name:he": "\u05d4\u05de\u05e1\u05e2\u05d3\u05d4", "opening_hours": "Su-Sa 12:00-23:00", "outdoor_seating": "no", "phone": "+972 3 639 9199", "toilets": "yes", "website": "https://hamisada.com/"}}, {"type": "node", "id": 1432492607, "lat": 32.1092406, "lon": 34.8335767, "tags": {"amenity": "restaurant", "int_name": "Cafe Louise", "name": "\u05e7\u05e4\u05d4 \u05dc\u05d5\u05d0\u05d9\u05d6", "name:en": "Cafe Louise", "name:he": "\u05e7\u05e4\u05d4 \u05dc\u05d5\u05d0\u05d9\u05d6"}}, {"type": "node", "id": 1437321464, "lat": 32.066981, "lon": 34.8030049, "tags": {"addr:housenumber": "53", "addr:street": "\u05d4\u05e9\u05dc\u05d5\u05dd", "amenity": "cafe", "check_date": "2022-11-08", "name": "\u05d8\u05d0\u05d8\u05d9", "name:en": "Tatti", "name:he": "\u05d8\u05d0\u05d8\u05d9"}}, {"type": "node", "id": 1438109988, "lat": 32.0744453, "lon": 34.7820029, "tags": {"amenity": "restaurant", "name": "\u05d4\u05d0\u05d7\u05d9\u05dd", "name:en": "HaAchim", "name:he": "\u05d4\u05d0\u05d7\u05d9\u05dd", "wikidata": "Q123477404"}}, {"type": "node", "id": 1438109990, "lat": 32.0742049, "lon": 34.7820009, "tags": {"amenity": "cafe", "brand": "\u05e8\u05d5\u05dc\u05d3\u05d9\u05df", "brand:en": "Roladin", "brand:he": "\u05e8\u05d5\u05dc\u05d3\u05d9\u05df", "brand:wikidata": "Q18390972", "brand:wikipedia": "he:\u05e8\u05d5\u05dc\u05d3\u05d9\u05df", "check_date": "2023-06-01", "cuisine": "coffee_shop", "name": "\u05e8\u05d5\u05dc\u05d3\u05d9\u05df", "name:en": "Roladin", "name:he": "\u05e8\u05d5\u05dc\u05d3\u05d9\u05df", "takeaway": "yes"}}, {"type": "node", "id": 1449351652, "lat": 32.0685694, "lon": 34.7951171, "tags": {"addr:city": "\u05ea\u05dc \u05d0\u05d1\u05d9\u05d1", "addr:housenumber": "10", "addr:street": "\u05d3\"\u05e8 \u05d5\u05dc\u05d8\u05e8 \u05de\u05d5\u05d6\u05e1", "amenity": "cafe", "cuisine": "coffee_shop", "internet_access": "yes", "internet_access:fee": "no", "name": "Cafetish coffee", "outdoor_seating": "yes", "phone": "0502671717"}}, {"type": "node", "id": 1449354099, "lat": 32.0699744, "lon": 34.7896482, "tags": {"amenity": "restaurant"}}, {"type": "node", "id": 1450724665, "lat": 32.0663714, "lon": 34.7843621, "tags": {"amenity": "cafe", "name": "\u05de\u05d8\u05e8\u05d5", "name:en": "Metro", "name:he": "\u05de\u05d8\u05e8\u05d5", "wheelchair": "yes"}}, {"type": "node", "id": 1458198588, "lat": 32.0762629, "lon": 34.8142187, "tags": {"addr:housenumber": "49", "addr:street": "\u05e9\u05d9\u05d9\u05e0\u05e7\u05d9\u05df", "amenity": "cafe", "brand": "\u05e8\u05d5\u05dc\u05d3\u05d9\u05df", "brand:en": "Roladin", "brand:he": "\u05e8\u05d5\u05dc\u05d3\u05d9\u05df", "brand:wikidata": "Q18390972", "cuisine": "coffee_shop", "internet_access": "wlan", "name": "\u05e8\u05d5\u05dc\u05d3\u05d9\u05df", "name:en": "Roladin", "name:he": "\u05e8\u05d5\u05dc\u05d3\u05d9\u05df", "opening_hours": "Mo-Su 08:00-24:00; Fr 08:00-17:00; Sa 17:00-24:00", "outdoor_seating": "yes", "takeaway": "yes"}}, {"type": "node", "id": 1477010458, "lat": 31.9899041, "lon": 34.7649452, "tags": {"amenity": "restaurant", "cuisine": "burger", "name": "\u05d0\u05d5\u05d5\u05d6\u05d9", "name:en": "Avazi", "name:he": "\u05d0\u05d5\u05d5\u05d6\u05d9"}}, {"type": "node", "id": 1477010459, "lat": 31.9905503, "lon": 34.7655468, "tags": {"amenity": "cafe", "brand": "Cofix", "brand:en": "Cofix", "brand:he": "\u05e7\u05e4\u05d5\u05d9\u05e7\u05e1", "brand:wikidata": "Q16132717", "brand:wikipedia": "he:\u05e7\u05d5\u05e4\u05d9\u05e7\u05e1", "cuisine": "coffee_shop", "diet:kosher": "yes", "level": "0", "name": "Cofix", "name:en": "Cofix", "name:he": "\u05e7\u05d5\u05e4\u05d9\u05e7\u05e1", "operator": "Cofix", "takeaway": "yes"}}, {"type": "node", "id": 1500189713, "lat": 32.1251119, "lon": 34.8031848, "tags": {"amenity": "cafe"}}, {"type": "node", "id": 1500191403, "lat": 32.1251801, "lon": 34.8023292, "tags": {"addr:city": "Tel Aviv", "addr:housenumber": "19", "addr:street": "\u05d0\u05d1\u05d0 \u05d0\u05d7\u05d9\u05de\u05d0\u05d9\u05e8", "amenity": "cafe", "brand": "\u05e7\u05e4\u05d4 \u05dc\u05e0\u05d3\u05d5\u05d5\u05e8", "brand:en": "Landwer Coffee", "brand:he": "\u05e7\u05e4\u05d4 \u05dc\u05e0\u05d3\u05d5\u05d5\u05e8", "brand:wikidata": "Q6485288", "cuisine": "coffee_shop", "diet:kosher": "no", "name": "\u05dc\u05e0\u05d3\u05d5\u05d5\u05e8", "name:en": "Landwer", "name:he": "\u05dc\u05e0\u05d3\u05d5\u05d5\u05e8", "opening_hours": "Su-Th 08:00-20:00; Fr 07:30-15:00; Sa 08:00-20:00", "outdoor_seating": "yes", "phone": "+972 3 642 4317", "takeaway": "yes", "website": "https://www.landwercafe.co.il/branch/%d7%a9%d7%95%d7%a1%d7%98%d7%a8/", "wheelchair": "yes"}}, {"type": "node", "id": 1516814773, "lat": 31.9853316, "lon": 34.7676952, "tags": {"amenity": "cafe", "brand": "\u05e8\u05d5\u05dc\u05d3\u05d9\u05df", "brand:en": "Roladin", "brand:he": "\u05e8\u05d5\u05dc\u05d3\u05d9\u05df", "brand:wikidata": "Q18390972", "brand:wikipedia": "he:\u05e8\u05d5\u05dc\u05d3\u05d9\u05df", "cuisine": "coffee_shop", "level": "0", "name": "\u05e8\u05d5\u05dc\u05d3\u05d9\u05df", "name:en": "Roladin", "name:he": "\u05e8\u05d5\u05dc\u05d3\u05d9\u05df", "outdoor_seating": "yes", "takeaway": "yes"}}, {"type": "node", "id": 1517893547, "lat": 31.9091744, "lon": 34.8055697, "tags": {"amenity": "restaurant", "name": "\u05dc\u05e0\u05d3\u05d5\u05d5\u05e8", "name:en": "Landwer", "name:he": "\u05dc\u05e0\u05d3\u05d5\u05d5\u05e8", "operator": "\u05e7\u05e4\u05d4 \u05dc\u05e0\u05d3\u05d5\u05d5\u05e8"}}, {"type": "node", "id": 1546447298, "lat": 32.1301064, "lon": 34.7923498, "tags": {"addr:housenumber": "25", "addr:street": "\u05d0\u05d5\u05e8\u05d9 \u05e6\u05d1\u05d9 \u05d2\u05e8\u05d9\u05e0\u05d1\u05e8\u05d2", "amenity": "cafe", "brand": "\u05e8\u05d5\u05dc\u05d3\u05d9\u05df", "brand:en": "Roladin", "brand:he": "\u05e8\u05d5\u05dc\u05d3\u05d9\u05df", "brand:wikidata": "Q18390972", "cuisine": "coffee_shop", "name": "\u05e8\u05d5\u05dc\u05d3\u05d9\u05df", "name:en": "Roladin", "name:he": "\u05e8\u05d5\u05dc\u05d3\u05d9\u05df", "takeaway": "yes"}}, {"type": "node", "id": 1546447299, "lat": 32.1300287, "lon": 34.7924983, "tags": {"addr:housenumber": "25", "addr:street": "\u05d0\u05d5\u05e8\u05d9 \u05e6\u05d1\u05d9 \u05d2\u05e8\u05d9\u05e0\u05d1\u05e8\u05d2", "amenity": "restaurant", "cuisine": "burger", "fixme": "name, name:en mismatch. Flagged by SafwatHalaby_bot-nameCopy", "name": "Greenberg", "name:en": "Greenberg Bistro", "name:he": "\u05d2\u05e8\u05d9\u05e0\u05d1\u05e8\u05d2", "name:ru": "\u0413\u0440\u0438\u043d\u0431\u0435\u0440\u0433 \u0411\u0438\u0441\u0442\u0440\u043e", "opening_hours": "Mo-Su 12:00-24:00", "outdoor_seating": "yes", "website": "http://www.rest.co.il/sites/Default.asp?txtRestID=1518"}}, {"type": "node", "id": 1576931591, "lat": 32.0302282, "lon": 34.7954358, "tags": {"amenity": "cafe", "name": "\u05d1\u05d5\u05e8\u05e7\u05e1 \u05ea\u05d5\u05e8\u05db\u05d9", "name:en": "Burekas Turki", "name:he": "\u05d1\u05d5\u05e8\u05e7\u05e1 \u05ea\u05d5\u05e8\u05db\u05d9"}}, {"type": "node", "id": 1585379892, "lat": 32.0701863, "lon": 34.7940294, "tags": {"amenity": "restaurant", "name": "\u05d9\u05e4\u05d5-\u05ea\u05dc \u05d0\u05d1\u05d9\u05d1", "name:ar": "\u064a\u0627\u0641\u0627- \u062a\u0644 \u0627\u0628\u064a\u0628", "name:en": "Yaffo-Tel Aviv", "name:en1": "Yaffo Tel Aviv", "name:he": "\u05d9\u05e4\u05d5-\u05ea\u05dc \u05d0\u05d1\u05d9\u05d1", "name:he1": "\u05d9\u05e4\u05d5 \u05ea\u05dc \u05d0\u05d1\u05d9\u05d1", "opening_hours": "12:00-23:30", "outdoor_seating": "no", "phone": "+97236249249", "wheelchair": "yes"}}, {"type": "node", "id": 1588349381, "lat": 32.0243287, "lon": 34.8032276, "tags": {"amenity": "cafe", "name": "\u05d0\u05e8\u05d5\u05de\u05d4 \u05d0\u05e1\u05e4\u05e8\u05e1\u05d5 \u05d1\u05e8", "name:en": "Aroma Espresso Bar", "name:he": "\u05d0\u05e8\u05d5\u05de\u05d4 \u05d0\u05e1\u05e4\u05e8\u05e1\u05d5 \u05d1\u05e8", "operator": "\u05d0\u05e8\u05d5\u05de\u05d4", "operator:en": "Aroma"}}, {"type": "node", "id": 1588365067, "lat": 32.0108788, "lon": 34.8086273, "tags": {"amenity": "restaurant", "name": "\u05e9\u05d9\u05e4\u05d5\u05d3\u05d9 \u05d4\u05de\u05e8\u05db\u05d1\u05d4", "name:en": "Shipudey Ha'Merkava", "name:he": "\u05e9\u05d9\u05e4\u05d5\u05d3\u05d9 \u05d4\u05de\u05e8\u05db\u05d1\u05d4"}}, {"type": "node", "id": 1622777324, "lat": 32.0919753, "lon": 34.7765532}, {"type": "node", "id": 1622777356, "lat": 32.0920115, "lon": 34.7763065}, {"type": "node", "id": 1622777402, "lat": 32.0920488, "lon": 34.7765682}, {"type": "node", "id": 1622777427, "lat": 32.092085, "lon": 34.7763215}, {"type": "node", "id": 1623712695, "lat": 32.0833983, "lon": 34.7816392}, {"type": "node", "id": 1623712698, "lat": 32.0834101, "lon": 34.7815499}, {"type": "node", "id": 1623712786, "lat": 32.083479, "lon": 34.7818089}, {"type": "node", "id": 1623712789, "lat": 32.0835422, "lon": 34.7815743}, {"type": "node", "id": 1626824915, "lat": 32.0871319, "lon": 34.773355, "tags": {"addr:city:en": "Tel Aviv", "addr:housenumber": "172", "addr:street": "\u05d1\u05df \u05d9\u05d4\u05d5\u05d3\u05d4", "amenity": "cafe", "brand": "\u05e7\u05e4\u05d4 \u05e7\u05e4\u05d4", "brand:en": "Cafe Cafe", "brand:he": "\u05e7\u05e4\u05d4 \u05e7\u05e4\u05d4", "brand:wikidata": "Q5017233", "building": "yes", "cuisine": "coffee_shop", "name": "\u05e7\u05e4\u05d4 \u05e7\u05e4\u05d4", "name:en": "Cafe Cafe", "name:he": "\u05e7\u05e4\u05d4 \u05e7\u05e4\u05d4", "takeaway": "yes"}}, {"type": "node", "id": 1626825015, "lat": 32.0856483, "lon": 34.7748002, "tags": {"addr:housenumber": "190", "addr:street": "\u05d3\u05d9\u05d6\u05e0\u05d2\u05d5\u05e3", "amenity": "cafe", "building": "yes", "name": "\u05d0\u05ea\u05e0\u05d7\u05ea\u05d4", "name:en": "Atnachta", "name:he": "\u05d0\u05ea\u05e0\u05d7\u05ea\u05d4"}}, {"type": "node", "id": 1629034294, "lat": 32.0688805, "lon": 34.7655639, "tags": {"addr:housenumber": "48", "addr:street": "\u05d4\u05db\u05d5\u05d1\u05e9\u05d9\u05dd", "amenity": "cafe", "name:en": "HaKovshim"}}, {"type": "node", "id": 1638321201, "lat": 32.004318, "lon": 34.8184321, "tags": {"amenity": "restaurant", "name": "\u05e4\u05d5\u05e0\u05d3\u05e7 \u05d0\u05e1\u05d0", "name:en": "Pundak Asa", "name:he": "\u05e4\u05d5\u05e0\u05d3\u05e7 \u05d0\u05e1\u05d0", "note": "\u05e1\u05d8\u05e7\u05d9\u05d4"}}, {"type": "node", "id": 1643304613, "lat": 32.0761065, "lon": 34.7769321, "tags": {"addr:city": "\u05ea\u05dc \u05d0\u05d1\u05d9\u05d1-\u05d9\u05e4\u05d5", "addr:housenumber": "70", "addr:street": "\u05d4\u05de\u05dc\u05da \u05d2'\u05d5\u05e8\u05d2'", "amenity": "cafe", "contact:facebook": "TheStreets.co.il", "contact:instagram": "thestreetscafe", "delivery": "yes", "diet:gluten_free": "yes", "diet:kosher": "no", "diet:vegan": "yes", "diet:vegetarian": "yes", "email": "contactus@thestreets.co.il", "internet_access": "wlan", "internet_access:fee": "customers", "name": "The Streets", "name:en": "The Streets", "opening_hours": "Su-Sa 07:00-23:00", "outdoor_seating": "yes", "phone": "+972 3 620 1070", "toilets": "yes", "website": "http://thestreets.co.il", "wheelchair": "yes"}}, {"type": "node", "id": 1643304646, "lat": 32.078883, "lon": 34.7790224, "tags": {"amenity": "cafe", "name": "\u05e7\u05e4\u05d4 \u05de\u05e1\u05e8\u05d9\u05e7", "name:en": "Cafe Masaryk", "name:he": "\u05e7\u05e4\u05d4 \u05de\u05e1\u05e8\u05d9\u05e7"}}, {"type": "node", "id": 1643374535, "lat": 32.1207415, "lon": 34.7927492, "tags": {"amenity": "cafe", "name": "\u05de\u05d9\u05e0\u05d9\u05e7\u05df", "name:en": "Miniken", "name:he": "\u05de\u05d9\u05e0\u05d9\u05e7\u05df"}}, {"type": "node", "id": 1643378204, "lat": 32.02593, "lon": 34.8982102, "tags": {"addr:city": "\u05d9\u05d4\u05d5\u05d3 \u05de\u05d5\u05e0\u05d5\u05e1\u05d5\u05df", "addr:housenumber": "1", "addr:street": "\u05d0\u05dc\u05d8\u05dc\u05e3", "amenity": "cafe", "cuisine": "coffee_shop", "internet_access": "wlan", "name": "\u05d1\u05e0\u05d3\u05d9\u05e7\u05d8 \u05d9\u05d4\u05d5\u05d3", "name:en": "Benedict Yehud", "name:he": "\u05d1\u05e0\u05d3\u05d9\u05e7\u05d8 \u05d9\u05d4\u05d5\u05d3", "phone": "+972 3 7575070", "website": "https://www.benedict.co.il/", "wheelchair": "yes"}}, {"type": "node", "id": 1673048858, "lat": 32.1071313, "lon": 34.8344244, "tags": {"amenity": "restaurant", "name": "Frame", "name:en": "Frame"}}, {"type": "node", "id": 1675753858, "lat": 32.0841772, "lon": 34.8191292, "tags": {"addr:housenumber": "29", "addr:street": "\u05d4\u05e8\u05d0\"\u05d4", "amenity": "cafe", "contact:phone": "+972542547232", "diet:kosher": "yes", "name": "\u05e7\u05e4\u05d4 - \u05e7\u05d5\u05e0\u05d3\u05d9\u05d8\u05d5\u05e8\u05d9\u05d4 \u05d4\u05e8\u05d5\u05d0\"\u05d4", "name:en": "Kafe \"Haroe\"", "name:he": "\u05e7\u05e4\u05d4 - \u05e7\u05d5\u05e0\u05d3\u05d9\u05d8\u05d5\u05e8\u05d9\u05d4 \u05d4\u05e8\u05d5\u05d0\"\u05d4", "note": "tel:+972542547232"}}, {"type": "node", "id": 1678723642, "lat": 31.8825788, "lon": 34.8167387, "tags": {"amenity": "restaurant", "name": "Fresko", "name:en": "Fresko"}}, {"type": "node", "id": 1678725924, "lat": 31.8800218, "lon": 34.8125786, "tags": {"amenity": "restaurant"}}, {"type": "node", "id": 1678726460, "lat": 31.8800059, "lon": 34.8122245, "tags": {"amenity": "cafe"}}, {"type": "node", "id": 1683224100, "lat": 32.0153806, "lon": 34.7566427, "tags": {"amenity": "cafe", "contact:phone": "+97235517884", "contact:website": "http://www.aroma.co.il/", "diet:kosher": "no", "name": "\u05d0\u05e8\u05d5\u05de\u05d4 \u05e7\u05e0\u05d9\u05d5\u05df \u05d1\u05ea \u05d9\u05dd", "name:en": "Aroma Bat-Yam Mall", "name:he": "\u05d0\u05e8\u05d5\u05de\u05d4 \u05e7\u05e0\u05d9\u05d5\u05df \u05d1\u05ea \u05d9\u05dd", "opening_hours": "Mo-Su 08:00-22:00; Fr 08:30-16:00; Sa 19:30-23:00", "operator": "\u05d0\u05e8\u05d5\u05de\u05d4", "operator:en": "Aroma", "operator:he": "\u05d0\u05e8\u05d5\u05de\u05d4"}}, {"type": "node", "id": 1688171048, "lat": 32.0625674, "lon": 34.7903624, "tags": {"amenity": "restaurant", "name": "\u05e1\u05d9\u05e8\u05d9\u05dd", "name:ar": "\u0633\u064a\u0631\u064a\u0645", "name:en": "Sirim", "name:he": "\u05e1\u05d9\u05e8\u05d9\u05dd"}}, {"type": "node", "id": 1688194306, "lat": 32.0614809, "lon": 34.7911462, "tags": {"amenity": "cafe", "name": "yogood", "name:en": "yogood"}}, {"type": "node", "id": 1688194375, "lat": 32.0612354, "lon": 34.7910067, "tags": {"amenity": "cafe", "brand": "\u05d0\u05e8\u05d5\u05de\u05d4", "brand:en": "Aroma Espresso Bar", "brand:he": "\u05d0\u05e8\u05d5\u05de\u05d4", "brand:wikidata": "Q2909872", "brand:wikipedia": "en:Aroma Espresso Bar", "cuisine": "coffee_shop", "name": "\u05d0\u05e8\u05d5\u05de\u05d4", "name:ar": "\u0627\u0631\u0648\u0645\u0627", "name:en": "Aroma Espresso Bar", "name:en1": "Aroma Espresso Bar", "name:he": "\u05d0\u05e8\u05d5\u05de\u05d4", "takeaway": "yes", "wheelchair": "yes"}}, {"type": "node", "id": 1696878515, "lat": 32.0746743, "lon": 34.8124556, "tags": {"addr:housenumber": "33", "addr:street": "\u05e9\u05d9\u05d9\u05e0\u05e7\u05d9\u05df", "amenity": "cafe", "name:en": "Cafe Alma", "name:he": "\u05e7\u05e4\u05d4 \u05e2\u05dc\u05de\u05d4"}}, {"type": "node", "id": 1696894810, "lat": 32.0702115, "lon": 34.8067016, "tags": {"addr:city": "\u05d2\u05d1\u05e2\u05ea\u05d9\u05d9\u05dd", "addr:housenumber": "1", "addr:street": "\u05d0\u05d9\u05dc\u05ea", "amenity": "cafe", "cuisine": "coffee_shop", "name": "Baker", "name:he": "\u05d1\u05d9\u05d9\u05e7\u05e8", "outdoor_seating": "yes", "phone": "+97237321463"}}, {"type": "node", "id": 1709219223, "lat": 32.0576642, "lon": 34.8116186, "tags": {"amenity": "cafe", "name": "Neighbours", "name:en": "Neighbours"}}, {"type": "node", "id": 1717768353, "lat": 32.0937119, "lon": 34.7850833, "tags": {"addr:city": "\u05ea\u05dc \u05d0\u05d1\u05d9\u05d1-\u05d9\u05e4\u05d5", "addr:city:en": "Tel Aviv", "addr:housenumber": "4", "addr:street": "\u05d9\u05d4\u05d5\u05d3\u05d4 \u05d4\u05de\u05db\u05d1\u05d9", "amenity": "cafe", "name": "\u05d6\u05d5\u05e8\u05d9\u05e7", "name:en": "Zorik", "name:he": "\u05d6\u05d5\u05e8\u05d9\u05e7", "opening_hours": "06:00-01:30", "outdoor_seating": "yes", "website": "https://www.cafezorik.co.il/"}}, {"type": "node", "id": 1717768356, "lat": 32.0942105, "lon": 34.7833009, "tags": {"addr:city": "\u05ea\u05dc \u05d0\u05d1\u05d9\u05d1-\u05d9\u05e4\u05d5", "addr:city:en": "Tel Aviv", "addr:housenumber": "187", "addr:street": "\u05d0\u05d1\u05df \u05d2\u05d1\u05d9\u05e8\u05d5\u05dc", "alt_name:en": "Horkanos Cafe", "amenity": "cafe", "name": "\u05e7\u05e4\u05d4 \u05d8\u05d9\u05de\u05d5\u05ea\u05d9", "name:en": "Timothy Cafe", "name:he": "\u05e7\u05e4\u05d4 \u05d8\u05d9\u05de\u05d5\u05ea\u05d9", "opening_hours": "07:15-23:00", "outdoor_seating": "yes", "phone": "+972 3 546 7869", "smoking": "outside", "website": "https://www.facebook.com/timothycafetlv/"}}, {"type": "node", "id": 1718632804, "lat": 32.0400673, "lon": 34.7459238, "tags": {"amenity": "restaurant", "cuisine": "fish", "name": "\u05d1\u05d0\u05d1\u05d0\u05d9", "name:en": "Babai", "name:he": "\u05d1\u05d0\u05d1\u05d0\u05d9"}}, {"type": "node", "id": 1718632809, "lat": 32.0524885, "lon": 34.7499682, "tags": {"amenity": "cafe", "name": "Loveat", "name:en": "Loveat", "website": "http://www.loveat.co.il/"}}, {"type": "node", "id": 1718632812, "lat": 32.0528204, "lon": 34.7498314, "tags": {"amenity": "restaurant", "name": "\u05d4\u05d6\u05e7\u05df \u05d5\u05d4\u05d9\u05dd", "name:en": "The Old Man & The Sea", "name:he": "\u05d4\u05d6\u05e7\u05df \u05d5\u05d4\u05d9\u05dd", "name:ru": "\u0421\u0442\u0430\u0440\u0438\u043a \u0438 \u041c\u043e\u0440\u0435", "website": "http://www.rest.co.il/sites/Default.asp?txtRestID=5831"}}, {"type": "node", "id": 1724608444, "lat": 32.0552111, "lon": 34.7516364, "tags": {"amenity": "cafe", "name": "\u05e7\u05d0\u05e1\u05d9\u05d8\u05d4", "name:en": "Cafe Vista", "name:he": "\u05e7\u05d0\u05e1\u05d9\u05d8\u05d4"}}, {"type": "node", "id": 1724608487, "lat": 32.0569318, "lon": 34.7567126, "tags": {"amenity": "restaurant", "name": "Honey Beach", "name:en": "Honey Beach"}}, {"type": "node", "id": 1734928159, "lat": 32.0530001, "lon": 34.74984, "tags": {"amenity": "restaurant", "fixme": "not sure about position", "name": "\u05e7\u05dc\u05d9\u05de\u05e8\u05d4", "name:en": "Kalimera", "name:he": "\u05e7\u05dc\u05d9\u05de\u05e8\u05d4", "opening_hours": "Mo-Sa 12:00+", "website": "http://kalimera.co/"}}, {"type": "node", "id": 1740901013, "lat": 32.017332, "lon": 34.770399, "tags": {"addr:city": "\u05d7\u05d5\u05dc\u05d5\u05df", "addr:housenumber": "58", "addr:street": "\u05d7\u05d9\u05d9\u05dd \u05d5\u05d9\u05e6\u05de\u05df", "amenity": "cafe", "contact:phone": "+972 54-736-6635", "contact:website": "https://www.facebook.com/bakeriaholon", "cuisine": "italian;fish", "internet_access": "wlan", "name": "\u05d4\u05d1\u05d9\u05d9\u05e7\u05e8\u05d9\u05d4", "name:en": "HaBakeriya", "name:he": "\u05d4\u05d1\u05d9\u05d9\u05e7\u05e8\u05d9\u05d4", "opening_hours": "Su-Th 08:00-23:30, Fr 08:00-16:30, Sa 20:30-00:00", "operator": "\u05e7\u05e7\u05d0\u05d5", "operator:en": "Kakao", "operator:he": "\u05e7\u05e7\u05d0\u05d5", "outdoor_seating": "yes", "wheelchair": "yes"}}, {"type": "node", "id": 1740901019, "lat": 32.0134077, "lon": 34.7697729, "tags": {"amenity": "restaurant", "contact:phone": "1-700-506-070", "cuisine": "pizza", "name": "Pizza Hut", "name:en": "Pizza Hut", "operator": "Pizza Hut", "website": "https://pizzahut.co.il/"}}, {"type": "node", "id": 1740901153, "lat": 32.0223139, "lon": 34.7749425, "tags": {"amenity": "cafe", "cuisine": "coffee_shop", "name": "\u05d1\u05dc\u05d9\u05df", "name:en": "Balin", "name:he": "\u05d1\u05dc\u05d9\u05df"}}, {"type": "node", "id": 1741956254, "lat": 31.994836, "lon": 34.7678459, "tags": {"addr:housenumber": "22", "addr:street": "\u05d9\u05d5\u05e1\u05e3 \u05dc\u05d9\u05e9\u05e0\u05e1\u05e7\u05d9", "amenity": "restaurant", "contact:email": "mm0505404048@gmail.com", "contact:phone": "+972579441387", "cuisine": "middle_eastern", "internet_access": "wlan", "name": "\u05d1\u05d9\u05d9\u05e8\u05d5\u05ea \u05de\u05e1\u05e2\u05d3\u05d4 \u05dc\u05d1\u05e0\u05d5\u05e0\u05d9\u05ea", "name:en": "Bairut", "name:he": "\u05d1\u05d9\u05d9\u05e8\u05d5\u05ea \u05de\u05e1\u05e2\u05d3\u05d4 \u05dc\u05d1\u05e0\u05d5\u05e0\u05d9\u05ea", "opening_hours": "Mo-Su 12:00-24:00", "website": "http://www.rest.co.il/sites/Default.asp?txtRestID=9216"}}, {"type": "node", "id": 1741956261, "lat": 31.9927304, "lon": 34.7679491, "tags": {"addr:housenumber": "20", "addr:street": "\u05d9\u05d5\u05e1\u05e3 \u05dc\u05d9\u05e9\u05e0\u05e1\u05e7\u05d9", "amenity": "restaurant", "contact:phone": "+97239565757", "cuisine": "burger", "diet:kosher": "yes", "name": "\u05dc\u05d4\u05d1\u05d5\u05ea", "name:en": "Lehavot", "name:he": "\u05dc\u05d4\u05d1\u05d5\u05ea", "opening_hours": "Mo-Su 12:00-24:00; Fr off; Sa 19:00-24:00", "website": "http://www.lehavot.biz/"}}, {"type": "node", "id": 1743698918, "lat": 31.995607, "lon": 34.7666568, "tags": {"amenity": "restaurant", "contact:phone": "+97239618425", "contact:website": "http://www.nafis.co.il/", "name": "\u05e0\u05d0\u05e4\u05d9\u05e1", "name:en": "Nafis", "name:he": "\u05e0\u05d0\u05e4\u05d9\u05e1"}}, {"type": "node", "id": 1757673286, "lat": 32.1459723, "lon": 34.8044804, "tags": {"amenity": "restaurant", "brand": "Black Bar Burger", "brand:en": "Black Bar Burger", "brand:he": "\u05d1\u05dc\u05d0\u05e7 \u05d1\u05d5\u05e8\u05d2\u05e8", "brand:wikidata": "Q64760158", "contact:website": "http://www.blackbarburger.co.il", "cuisine": "burger", "diet:kosher": "no", "internet_access": "wlan", "internet_access:ssid": "blackfree", "name": "Black", "name:en": "Black", "name:he": "\u05d1\u05dc\u05d0\u05e7", "opening_hours": "Mo-Su 12:00+", "operator": "Black", "smoking": "no"}}, {"type": "node", "id": 1758265855, "lat": 32.0654131, "lon": 34.7765181, "tags": {"addr:housenumber": "65", "addr:street": "\u05e9\u05d3\u05e8\u05d5\u05ea \u05e8\u05d5\u05d8\u05e9\u05d9\u05dc\u05d3", "amenity": "cafe", "name": "Hotel & Cafe 65", "outdoor_seating": "yes"}}, {"type": "node", "id": 1758265856, "lat": 32.0622854, "lon": 34.7736857, "tags": {"amenity": "restaurant", "cuisine": "regional", "name": "\u05e1\u05dc\u05d8\u05d9 \u05d4\u05e9\u05e3", "name:en": "Chef Salad", "name:he": "\u05e1\u05dc\u05d8\u05d9 \u05d4\u05e9\u05e3"}}, {"type": "node", "id": 1783432953, "lat": 31.990758, "lon": 34.7750027, "tags": {"amenity": "cafe", "brand": "Arcaffe", "brand:en": "Arcaffe", "brand:he": "\u05d0\u05e8\u05e7\u05e4\u05d4", "brand:wikidata": "Q2897147", "contact:website": "http://www.arcaffe.co.il/", "cuisine": "coffee_shop", "level": "0", "name": "Arcaffe", "name:en": "Arcaffe", "name:he": "\u05d0\u05e8\u05e7\u05e4\u05d4", "operator": "Arcaffe", "takeaway": "yes"}}, {"type": "node", "id": 1791247874, "lat": 32.0898877, "lon": 34.8593182, "tags": {"amenity": "restaurant", "cuisine": "italian", "name": "\u05d8\u05e8\u05d9\u05d5\u05dc\u05d4", "name:en": "Triola", "name:he": "\u05d8\u05e8\u05d9\u05d5\u05dc\u05d4"}}, {"type": "node", "id": 1801306714, "lat": 32.0328892, "lon": 34.8789624, "tags": {"amenity": "cafe", "cuisine": "coffee_shop", "name": "\u05dc\u05d7\u05dd \u05d9\u05d9\u05df", "name:en": "Lechem Yain", "name:he": "\u05dc\u05d7\u05dd \u05d9\u05d9\u05df"}}, {"type": "node", "id": 1815012966, "lat": 31.8990307, "lon": 34.8112315}, {"type": "node", "id": 1815012987, "lat": 31.8991279, "lon": 34.8112019}, {"type": "node", "id": 1815012993, "lat": 31.8991502, "lon": 34.8113035, "tags": {"addr:housenumber": "6", "addr:street": "\u05d7\u05d9\u05d9\u05dd \u05d5\u05d9\u05e6\u05de\u05df"}}, {"type": "node", "id": 1815013006, "lat": 31.899171, "lon": 34.8113982}, {"type": "node", "id": 1815013018, "lat": 31.8989755, "lon": 34.8113266}, {"type": "node", "id": 1815013028, "lat": 31.8990025, "lon": 34.8114495}, {"type": "node", "id": 1815013033, "lat": 31.8990468, "lon": 34.8113049}, {"type": "node", "id": 1842241564, "lat": 31.7872584, "lon": 34.6444136, "tags": {"addr:city": "\u05d0\u05e9\u05d3\u05d5\u05d3", "addr:housenumber": "13", "addr:street": "\u05d4\u05e6\u05d9\u05d5\u05e0\u05d5\u05ea", "air_conditioning": "yes", "amenity": "restaurant", "contact:website": "http://www.rest.co.il/sites/Default.asp?txtRestID=11758", "cuisine": "sushi", "delivery": "yes", "drive_through": "no", "ele": "0", "fixme": "name, name:en mismatch. Flagged by SafwatHalaby_bot-nameCopy", "name": "One", "name:en": "Sushi One", "name:he": "\u05e1\u05d5\u05e9\u05d9 \u05d5\u05d5\u05df", "name:ru": "\u0421\u0443\u0448\u0438 \u0423\u0430\u043d", "opening_hours": "Su-Th 12:00-23:00 Sa 13:23", "outdoor_seating": "yes", "phone": "+972-8-648-9237", "smoking": "outside", "takeaway": "yes", "website": "https://onesushibarashdod.rest.co.il/"}}, {"type": "node", "id": 1842619817, "lat": 31.910214, "lon": 34.8071583}, {"type": "node", "id": 1842619818, "lat": 31.9102381, "lon": 34.8081304}, {"type": "node", "id": 1842619819, "lat": 31.9101593, "lon": 34.8076414}, {"type": "node", "id": 1842619820, "lat": 31.9103465, "lon": 34.8073182}, {"type": "node", "id": 1842950873, "lat": 31.910167, "lon": 34.808173}, {"type": "node", "id": 1851266184, "lat": 32.073976, "lon": 34.7654929, "tags": {"amenity": "cafe", "branch": "\u05de\u05d2\u05d3\u05dc \u05d4\u05d0\u05d5\u05e4\u05e8\u05d4", "brand": "\u05d0\u05e8\u05d5\u05de\u05d4", "brand:en": "Aroma Espresso Bar", "brand:he": "\u05d0\u05e8\u05d5\u05de\u05d4", "brand:wikidata": "Q2909872", "contact:website": "http://www.aroma.co.il/", "cuisine": "coffee_shop", "internet_access": "yes", "name": "\u05d0\u05e8\u05d5\u05de\u05d4", "name:en": "Aroma", "name:en1": "Aroma Espresso Bar", "name:he": "\u05d0\u05e8\u05d5\u05de\u05d4", "operator": "\u05d0\u05e8\u05d5\u05de\u05d4", "operator:en": "Aroma", "operator:he": "\u05d0\u05e8\u05d5\u05de\u05d4", "takeaway": "yes", "wheelchair": "yes"}}, {"type": "node", "id": 1851266185, "lat": 32.074124, "lon": 34.7654993, "tags": {"amenity": "cafe", "cuisine": "coffee_shop", "name": "Juice N' Roots", "name:en": "Juice N' Roots"}}, {"type": "node", "id": 1855396197, "lat": 32.1306386, "lon": 34.7921488, "tags": {"amenity": "cafe", "contact:phone": "+972772342059", "cuisine": "coffee_shop", "name": "\u05e7\u05e0\u05d3\u05d9 \u05d1\u05e8 \u05e7\u05e4\u05d4", "name:en": "Candy Bar Cafe", "name:he": "\u05e7\u05e0\u05d3\u05d9 \u05d1\u05e8 \u05e7\u05e4\u05d4", "opening_hours": "Mo-Su 07:00-23:00;Fr 07:00-18:00;Sa 09:00-22:00"}}, {"type": "node", "id": 1876603614, "lat": 31.9831133, "lon": 34.8104238, "tags": {"addr:housenumber": "56", "addr:postcode": "75389", "addr:street": "\u05d4\u05de\u05db\u05d1\u05d9\u05dd", "amenity": "restaurant", "contact:email": "augustin.rest@gmail.com", "contact:phone": "+97239442768", "contact:website": "http://www.augustin.co.il/", "name": "Augustin", "name:en": "Augustin"}}, {"type": "node", "id": 1912876727, "lat": 31.9105143, "lon": 34.8058033, "tags": {"alt_name": "\u05e7\u05e4\u05d4 Joe", "amenity": "cafe", "brand": "\u05e7\u05e4\u05d4 \u05d2'\u05d5", "brand:en": "Cafe Joe", "brand:he": "\u05e7\u05e4\u05d4 \u05d2'\u05d5", "brand:wikidata": "Q6774425", "brand:wikipedia": "he:\u05e7\u05e4\u05d4 \u05d2'\u05d5", "cuisine": "coffee_shop", "name": "\u05e7\u05e4\u05d4 \u05d2'\u05d5", "name:en": "Cafe Joe", "name:he": "\u05e7\u05e4\u05d4 \u05d2'\u05d5", "takeaway": "yes"}}, {"type": "node", "id": 1924036648, "lat": 31.8152012, "lon": 34.7705913, "tags": {"amenity": "restaurant", "name": "\u05e9\u05d5\u05d5\u05d0\u05e8\u05de\u05d4 \u05e9\u05de\u05e2\u05d5\u05e0\u05d9", "name:he": "\u05e9\u05d5\u05d5\u05d0\u05e8\u05de\u05d4 \u05e9\u05de\u05e2\u05d5\u05e0\u05d9"}}, {"type": "node", "id": 1933334746, "lat": 32.0742975, "lon": 34.8699107, "tags": {"amenity": "cafe", "brand": "\u05e8\u05d5\u05dc\u05d3\u05d9\u05df", "brand:en": "Roladin", "brand:he": "\u05e8\u05d5\u05dc\u05d3\u05d9\u05df", "brand:wikidata": "Q18390972", "brand:wikipedia": "he:\u05e8\u05d5\u05dc\u05d3\u05d9\u05df", "cuisine": "coffee_shop", "name": "\u05e8\u05d5\u05dc\u05d3\u05d9\u05df", "name:en": "Roladin", "name:he": "\u05e8\u05d5\u05dc\u05d3\u05d9\u05df", "takeaway": "yes"}}, {"type": "node", "id": 1937276710, "lat": 32.0224984, "lon": 34.7388936, "tags": {"amenity": "cafe", "name": "Moby Dick", "name:en": "Moby Dick"}}, {"type": "node", "id": 1938812730, "lat": 32.0177242, "lon": 34.7384014, "tags": {"addr:housenumber": "96", "addr:street": "\u05d1\u05df \u05d2\u05d5\u05e8\u05d9\u05d5\u05df", "amenity": "restaurant", "contact:website": "http://www.rol.co.il/sites/tobego-beach/", "name": "\u05d7\u05d5\u05e3 \u05d8\u05d5\u05d1\u05d2\u05d5", "name:en": "Tobego Beach", "name:he": "\u05d7\u05d5\u05e3 \u05d8\u05d5\u05d1\u05d2\u05d5", "opening_hours": "24/7"}}, {"type": "node", "id": 1938812806, "lat": 32.0220008, "lon": 34.7387703, "tags": {"amenity": "cafe", "name": "\u05d7\u05d5\u05e3 \u05d4\u05ea\u05d5\u05ea\u05d9\u05dd", "name:en": "Tutim beach", "name:he": "\u05d7\u05d5\u05e3 \u05d4\u05ea\u05d5\u05ea\u05d9\u05dd"}}, {"type": "node", "id": 1950416337, "lat": 32.0593249, "lon": 34.7617078, "tags": {"amenity": "restaurant"}}, {"type": "node", "id": 1950416514, "lat": 32.0588271, "lon": 34.7620752, "tags": {"addr:housenumber": "11\u05d0", "addr:postcode": "6811834", "addr:street": "\u05d0\u05e9\u05e7\u05dc\u05d5\u05df", "amenity": "restaurant", "cuisine": "italian;italian_pizza", "email": "info@italiantlv.co.il", "internet_access": "wlan", "name": "\u05d0\u05d9\u05d8\u05dc\u05e7\u05d9\u05d4 \u05d1\u05ea\u05d7\u05e0\u05d4", "name:en": "Italkia be Tahana", "name:he": "\u05d0\u05d9\u05d8\u05dc\u05e7\u05d9\u05d4 \u05d1\u05ea\u05d7\u05e0\u05d4", "name:ru": "\u0418\u0442\u0430\u043b\u044c\u043a\u0438\u044f \u0431\u0435\u0422\u0430\u0445\u0430\u043d\u0430", "opening_hours": "Mo-Su 12:00-23:00", "phone": "+972723945751", "website": "https://italiantlv.co.il/"}}, {"type": "node", "id": 1951619671, "lat": 32.0014961, "lon": 34.8436185, "tags": {"amenity": "cafe", "cuisine": "coffee_shop", "name": "Caf\u00e8 Joe"}}, {"type": "node", "id": 1965350286, "lat": 32.0119032, "lon": 34.7775217, "tags": {"addr:housenumber": "6", "addr:street": "\u05d2\u05d5\u05dc\u05d3\u05d4 \u05de\u05d0\u05d9\u05e8", "amenity": "restaurant", "bar": "yes", "cuisine": "asian;sushi", "delivery": "yes", "diet:meat": "yes", "diet:vegetarian": "yes", "name": "\u05e1\u05d5\u05de\u05d5", "name:en": "SUMO", "name:he": "\u05e1\u05d5\u05de\u05d5", "name:ja": "\u76f8\u64b2", "name:ru": "\u0421\u0423\u041c\u041e", "opening_hours": "Su-Th 12:00-00:00, Fr-Sa 12:00-01:00", "outdoor_seating": "yes", "payment:cash": "yes", "payment:credit_cards": "yes", "phone": "+972 77-806-6300"}}, {"type": "node", "id": 1975875693, "lat": 32.0959869, "lon": 34.776255, "tags": {"amenity": "restaurant", "cuisine": "chinese", "name": "The Red Chinese", "name:en": "The Red Chinese", "name:he": "\u05d4\u05e1\u05d9\u05e0\u05d9\u05ea \u05d4\u05d0\u05d3\u05d5\u05de\u05d4"}}, {"type": "node", "id": 1989338377, "lat": 32.0654558, "lon": 34.7768784, "tags": {"amenity": "cafe", "name:signed": "no"}}, {"type": "node", "id": 1989338453, "lat": 32.064492, "lon": 34.776063, "tags": {"amenity": "restaurant", "name": "allora", "name:en": "allora"}}, {"type": "node", "id": 1989338503, "lat": 32.0642556, "lon": 34.774797, "tags": {"amenity": "cafe"}}, {"type": "node", "id": 1989338521, "lat": 32.0637366, "lon": 34.7732262, "tags": {"amenity": "cafe", "brand": "Arcaffe", "brand:en": "Arcaffe", "brand:he": "\u05d0\u05e8\u05e7\u05e4\u05d4", "brand:wikidata": "Q2897147", "cuisine": "coffee_shop", "name": "Arcaffe", "name:en": "Arcaffe", "name:he": "\u05d0\u05e8\u05e7\u05e4\u05d4", "takeaway": "yes"}}, {"type": "node", "id": 1989338568, "lat": 32.0622685, "lon": 34.7719877, "tags": {"addr:city": "\u05ea\u05dc \u05d0\u05d1\u05d9\u05d1", "addr:housenumber": "40", "addr:street": "\u05dc\u05d9\u05dc\u05d9\u05e0\u05d1\u05dc\u05d5\u05dd", "amenity": "restaurant", "brand": "\u05d5\u05d9\u05d8\u05e8\u05d9\u05e0\u05d4", "brand:en": "Vitrina", "brand:he": "\u05d5\u05d9\u05d8\u05e8\u05d9\u05e0\u05d4", "brand:wikidata": "Q64767389", "contact:instagram": "vitrinush", "cuisine": "burger", "name": "\u05d5\u05d9\u05d8\u05e8\u05d9\u05e0\u05d4", "name:en": "Vitrina Lili", "name:he": "\u05d5\u05d9\u05d8\u05e8\u05d9\u05e0\u05d4", "outdoor_seating": "yes", "phone": "+972 3 616 4118", "takeaway": "yes", "toilets": "yes", "wheelchair": "no"}}, {"type": "node", "id": 2004091138, "lat": 32.0379996, "lon": 34.7455849}, {"type": "node", "id": 2004091146, "lat": 32.0381483, "lon": 34.7456985}, {"type": "node", "id": 2004091151, "lat": 32.0381476, "lon": 34.7455927}, {"type": "node", "id": 2004091152, "lat": 32.0379925, "lon": 34.7456908}, {"type": "node", "id": 2051085614, "lat": 32.0791073, "lon": 34.8146679, "tags": {"amenity": "cafe", "name": "Cafe Jack", "name:en": "Cafe Jack"}}, {"type": "node", "id": 2055189672, "lat": 32.0520645, "lon": 34.7571983, "tags": {"alt_name": "\u05e1\u05e4\u05d9\u05d1\u05e8\u05e1", "alt_name:en": "Speevers", "amenity": "cafe", "name": "\u05d2'\u05d2\u05dc\u05d9\u05e0\u05d2 \u05e7\u05e4\u05d4", "name:en": "Juggling Caf\u00e9", "name:he": "\u05d2'\u05d2\u05dc\u05d9\u05e0\u05d2 \u05e7\u05e4\u05d4", "source": "Bing"}}, {"type": "node", "id": 2078901095, "lat": 32.0277617, "lon": 34.8849763, "tags": {"addr:housenumber": "8", "amenity": "restaurant", "name": "\u05d0\u05e1\u05ea\u05e8", "name:en": "Esther", "name:he": "\u05d0\u05e1\u05ea\u05e8", "note": "+972 3-632-5852", "website": "https://ester-rest.co.il/"}}, {"type": "node", "id": 2078966845, "lat": 32.053201, "lon": 34.756044, "tags": {"addr:housenumber": "1", "addr:street": "Nahman", "amenity": "cafe", "cuisine": "local", "name:en": "Dana", "opening_hours": "Tu-We 08:00-23:00; Su,Th,Mo 08:00-18:00; Fr-Sa 08:00-15:00", "source": "Tel Aviv municipality"}}, {"type": "node", "id": 2078969784, "lat": 32.0671, "lon": 34.786167, "tags": {"addr:housenumber": "10", "addr:street": "\u05d4\u05ea\u05e2\u05e9\u05d9\u05d4", "amenity": "restaurant", "diet:kosher": "only", "name": "Meat Kitchen", "name:en": "Deca", "source": "Tel Aviv municipality"}}, {"type": "node", "id": 2078979700, "lat": 32.058535, "lon": 34.76194, "tags": {"addr:housenumber": "12", "addr:street": "\u05d4\u05ea\u05d7\u05e0\u05d4 \u05de\u05e0\u05e9\u05d9\u05d4 ", "amenity": "restaurant", "name:ru": "\u0420\u0435\u0433\u0438\u043d\u0430", "source": "Tel Aviv municipality"}}, {"type": "node", "id": 2078982519, "lat": 32.09871, "lon": 34.774068, "tags": {"addr:housenumber": "12", "addr:street": "\u05e9\u05d8\u05d7 \u05e0\u05de\u05dc \u05ea\"\u05d0 ", "amenity": "restaurant", "name:en": "Kitchen Market", "source": "Tel Aviv municipality"}}, {"type": "node", "id": 2078990448, "lat": 32.070226, "lon": 34.782799, "tags": {"addr:housenumber": "14", "addr:street": "\u05e7\u05e8\u05dc\u05d9\u05d1\u05da", "amenity": "restaurant", "contact:facebook": "getbodega", "cuisine": "american", "diet:kosher": "only", "name": "Bodega \u05de\u05d8\u05d1\u05d7 \u05d0\u05de\u05e8\u05d9\u05e7\u05d0\u05d9", "name:en": "Bodega American Diner", "name:he": "Bodega \u05de\u05d8\u05d1\u05d7 \u05d0\u05de\u05e8\u05d9\u05e7\u05d0\u05d9", "source": "Tel Aviv municipality"}}, {"type": "node", "id": 2078990926, "lat": 32.055768, "lon": 34.760377, "tags": {"addr:housenumber": "14", "addr:street": "\u05ea\u05e8\u05e6\u05d4", "amenity": "restaurant", "indoor_seating": "yes", "name:ru": "\u0413\u0435\u043c\u043c\u0430", "outdoor_seating": "yes", "source": "Tel Aviv municipality"}}, {"type": "node", "id": 2078991187, "lat": 32.08599, "lon": 34.772941, "tags": {"addr:housenumber": "148", "addr:street": "\u05d1\u05df \u05d9\u05d4\u05d5\u05d3\u05d4", "amenity": "restaurant", "bar": "yes", "cuisine": "regional;czech", "description": "Czech cuisine restaurant and bar.", "name": "Little Prague Restaurant", "opening_hours": "Mo-Su 12:00-23:00", "source": "local knowledge"}}, {"type": "node", "id": 2078994157, "lat": 32.051619, "lon": 34.778988, "tags": {"addr:housenumber": "15\u05d0", "addr:street": "\u05e8\u05dc\u05d1\"\u05d2", "amenity": "cafe", "internet_access": "wlan", "internet_access:fee": "no", "name": "Cafe Shapira", "name:en": "Cafe Shapira", "name:he": "\u05e7\u05e4\u05d4 \u05e9\u05e4\u05d9\u05e8\u05d0", "outdoor_seating": "yes"}}, {"type": "node", "id": 2078996725, "lat": 32.094863, "lon": 34.775886, "tags": {"addr:housenumber": "17", "addr:street": "\u05d9\u05e8\u05de\u05d9\u05d4\u05d5", "amenity": "restaurant", "contact:facebook": "https://www.facebook.com/J17vegan", "cuisine": "mediterranean;barbecue;moroccan;international", "diet:vegan": "yes", "internet_access": "wlan", "name": "J17", "name:en": "J17", "opening_hours": "Su-Th 09:00-21:00; Fr 09:00-16:00", "source": "Tel Aviv municipality"}}, {"type": "node", "id": 2078999387, "lat": 32.067338, "lon": 34.77456, "tags": {"addr:housenumber": "18", "addr:street": "\u05d1\u05dc\u05e4\u05d5\u05e8", "amenity": "cafe", "name": "\u05dc\u05d5\u05e1\u05d9\u05d4", "name:he": "\u05dc\u05d5\u05e1\u05d9\u05d4", "source": "Tel Aviv municipality"}}, {"type": "node", "id": 2079003726, "lat": 32.088771, "lon": 34.773785, "tags": {"addr:housenumber": "188", "addr:street": "\u05d1\u05df \u05d9\u05d4\u05d5\u05d3\u05d4", "amenity": "restaurant", "name": "DosaBar", "name:en": "DosaBar", "opening_hours": "Su-Th 12:00-23:00; Fr 11:00-16:00", "source": "Tel Aviv municipality"}}, {"type": "node", "id": 2079006787, "lat": 32.07829, "lon": 34.788954, "tags": {"addr:city": "\u05ea\u05dc \u05d0\u05d1\u05d9\u05d1-\u05d9\u05e4\u05d5", "addr:housenumber": "2", "addr:street": "\u05d3\u05e4\u05e0\u05d4", "amenity": "restaurant", "diet:kosher": "only", "name": "\u05de\u05dc\u05db\u05d4", "name:en": "Malka", "name:he": "\u05de\u05dc\u05db\u05d4", "opening_hours": "Su-Th 12:00-16:00,18:00-00:00", "phone": "+97236091331", "source": "Tel Aviv municipality", "website": "https://ontopo.co.il/malka"}}, {"type": "node", "id": 2079006815, "lat": 32.0721873, "lon": 34.7785488, "tags": {"addr:city": "Tel Aviv", "addr:housenumber": "2", "addr:street": "\u05d4\u05d1\u05d9\u05de\u05d4", "alt_name": "\u05d1\u05d5\u05e8\u05d2\u05e8 300", "alt_name:en": "Burger 300", "alt_name:he": "\u05d1\u05d5\u05e8\u05d2\u05e8 300", "amenity": "cafe", "contact:facebook": "nechamavahetzi", "contact:instagram": "nechamavahetzi", "cuisine": "coffee_shop", "delivery": "yes", "diet:gluten_free": "yes", "diet:kosher": "no", "diet:vegan": "yes", "diet:vegetarian": "yes", "internet_access": "wlan", "name": "\u05e0\u05d7\u05de\u05d4 \u05d5\u05d7\u05e6\u05d9", "name:en": "Nehama VaHetsi", "name:he": "\u05e0\u05d7\u05de\u05d4 \u05d5\u05d7\u05e6\u05d9", "outdoor_seating": "yes", "phone": "+972 3 685 2326", "source": "Tel Aviv municipality"}}, {"type": "node", "id": 2079007395, "lat": 32.064412, "lon": 34.771751, "tags": {"addr:housenumber": "2", "addr:street": "\u05d4\u05e8 \u05e1\u05d9\u05e0\u05d9", "amenity": "restaurant", "name:en": "Santa", "source": "Tel Aviv municipality"}}, {"type": "node", "id": 2079008750, "lat": 32.052304, "lon": 34.755706, "tags": {"addr:housenumber": "2", "addr:street": "\u05e8\u05d1\u05d9 \u05d0\u05d3\u05d0", "amenity": "cafe", "name": "Ada Hanina Cafe", "source": "Tel Aviv municipality"}}, {"type": "node", "id": 2079011102, "lat": 32.090187, "lon": 34.774205, "tags": {"addr:housenumber": "202", "addr:street": "\u05d1\u05df \u05d9\u05d4\u05d5\u05d3\u05d4", "amenity": "cafe", "name:en": "under the tree", "source": "Tel Aviv municipality"}}, {"type": "node", "id": 2079011985, "lat": 32.0635477, "lon": 34.7794789, "tags": {"addr:city": "\u05ea\u05dc \u05d0\u05d1\u05d9\u05d1-\u05d9\u05e4\u05d5", "addr:housenumber": "21", "addr:street": "\u05de\u05e0\u05d7\u05dd \u05d1\u05d2\u05d9\u05df", "air_conditioning": "yes", "amenity": "restaurant", "cuisine": "italian;cake;dessert", "delivery": "yes", "internet_access": "wlan", "internet_access:fee": "no", "name": "Magazzino", "name:en": "Magazzino", "opening_hours": "Su-Sa 12:00-00:00", "phone": "+97237570535", "source": "Tel Aviv municipality", "takeaway": "yes", "website": "https://www.magazzino.co.il", "wheelchair": "yes"}}, {"type": "node", "id": 2079015732, "lat": 32.070591, "lon": 34.765087, "tags": {"addr:housenumber": "22", "addr:street": "\u05d4\u05d9\u05e8\u05e7\u05d5\u05df", "amenity": "restaurant", "name": "Bezzo Pizza", "name:en": "Bezzo Pizza", "source": "Tel Aviv municipality"}}, {"type": "node", "id": 2079016353, "lat": 32.05234, "lon": 34.757362, "tags": {"addr:housenumber": "22", "addr:street": "\u05e2\u05d5\u05dc\u05d9 \u05e6\u05d9\u05d5\u05df", "amenity": "restaurant", "name:en": "Yokozuna", "source": "Tel Aviv municipality"}}, {"type": "node", "id": 2079017100, "lat": 32.0701135, "lon": 34.7859855, "tags": {"addr:housenumber": "23", "addr:street": "\u05d4\u05d0\u05e8\u05d1\u05e2\u05d4", "amenity": "restaurant", "name:en": "claro;", "source": "Tel Aviv municipality"}}, {"type": "node", "id": 2079027451, "lat": 32.057082, "lon": 34.774898, "tags": {"addr:housenumber": "27", "addr:street": "\u05e6'\u05dc\u05e0\u05d5\u05d1", "amenity": "restaurant", "cuisine": "ethiopian", "name": "Tenat", "name:en": "Tenat", "opening_hours": "Su-Th 12:00-23:00; Fr 11:00-16:00", "source": "Tel Aviv municipality", "wheelchair": "no"}}, {"type": "node", "id": 2079034257, "lat": 32.061928, "lon": 34.767329, "tags": {"addr:housenumber": "3", "addr:street": "\u05dc\u05d9\u05dc\u05d9\u05e0\u05d1\u05dc\u05d5\u05dd", "amenity": "cafe", "name": "Neroli", "name:en": "Neroli", "opening_hours": "Su-Th 08:30-20:00; Fr 08:30-16:00", "source": "Tel Aviv municipality", "wheelchair": "yes"}}, {"type": "node", "id": 2079035760, "lat": 32.059711, "lon": 34.771428, "tags": {"addr:housenumber": "30", "addr:street": "levinsky 30", "amenity": "restaurant", "name": "Garger HaZahav", "name:en": "Garger HaZahav", "opening_hours": "Su 00:00-24:00; Mo-Th 10:00-20:00; Fr 09:00-15:00", "phone": "+97236777456", "source": "Tel Aviv municipality"}}, {"type": "node", "id": 2079039190, "lat": 32.065745, "lon": 34.773229, "tags": {"addr:housenumber": "33", "addr:street": "\u05de\u05d5\u05e0\u05d8\u05d9\u05e4\u05d9\u05d5\u05e8\u05d9", "amenity": "restaurant", "name": "\u05d9\u05d1\u05e0\u05d4 \u05de\u05d5\u05e0\u05d8\u05d9\u05e4\u05d9\u05d5\u05e8\u05d9", "name:en": "Yavne Montefiore", "name:he": "\u05d9\u05d1\u05e0\u05d4 \u05de\u05d5\u05e0\u05d8\u05d9\u05e4\u05d9\u05d5\u05e8\u05d9"}}, {"type": "node", "id": 2079041793, "lat": 32.065142, "lon": 34.777509, "tags": {"addr:housenumber": "36", "addr:street": "\u05e0\u05d7\u05de\u05e0\u05d9", "amenity": "restaurant", "diet:vegan": "yes", "name": "BANA", "name:en": "BANA", "opening_hours": "Mo-Su 11:00-23:00", "phone": "+972 3-619-2192", "source": "Tel Aviv municipality", "website": "https://banatlv.co.il/"}}, {"type": "node", "id": 2079042219, "lat": 32.089902, "lon": 34.780465, "tags": {"addr:housenumber": "37", "addr:street": "\u05d1\u05d6\u05dc", "amenity": "cafe", "name": "Hamanya cafe", "name:en": "Hamanya cafe", "opening_hours": "Su-Th 07:00-22:00; Fr 07:00-15:00", "source": "Tel Aviv municipality"}}, {"type": "node", "id": 2079069904, "lat": 32.0784825, "lon": 34.787, "tags": {"addr:city": "\u05ea\u05dc \u05d0\u05d1\u05d9\u05d1-\u05d9\u05e4\u05d5", "addr:housenumber": "4", "addr:street": "\u05d1\u05e8\u05e7\u05d5\u05d1\u05d9\u05e5", "amenity": "restaurant", "name:en": "Toto", "name:ru": "\u0422\u043e\u0442\u043e", "source": "Tel Aviv municipality"}}, {"type": "node", "id": 2079181976, "lat": 32.089704, "lon": 34.77993, "tags": {"addr:housenumber": "42", "addr:street": "\u05d1\u05d6\u05dc", "amenity": "restaurant", "name": "\u05e8\u05d5\u05e1\u05d8\u05d9\u05e7\u05d5", "name:en": "Rustico", "name:he": "\u05e8\u05d5\u05e1\u05d8\u05d9\u05e7\u05d5", "source": "Tel Aviv municipality"}}, {"type": "node", "id": 2079185037, "lat": 32.059756, "lon": 34.772345, "tags": {"addr:housenumber": "47", "addr:street": "\u05dc\u05d5\u05d9\u05e0\u05e1\u05e7\u05d9", "amenity": "restaurant", "name:en": "Gourmet Sabzi", "source": "Tel Aviv municipality"}}, {"type": "node", "id": 2079185866, "lat": 32.051251, "lon": 34.776864, "tags": {"addr:housenumber": "48", "addr:street": "\u05de\u05e1\u05d9\u05dc\u05ea \u05d9\u05e9\u05e8\u05d9\u05dd", "amenity": "cafe", "name": "Getzel", "name:en": "Getzel", "name:he": "\u05d2\u05e6\u05dc", "source": "Tel Aviv municipality"}},