{"version": 0.6, "generator": "Overpass API 0.7.62.7 375dc00a", "osm3s": {"timestamp_osm_base": "2025-06-14T14:33:06Z", "copyright": "The data included in this document is from www.openstreetmap.org. The data is made available under ODbL."}, "elements": [{"type": "node", "id": 1395879611, "lat": 40.5663404, "lon": 19.7705719, "tags": {"amenity": "restaurant"}}, {"type": "node", "id": 1809013653, "lat": 40.704669, "lon": 19.9483936}, {"type": "node", "id": 1809013655, "lat": 40.7046896, "lon": 19.9483122}, {"type": "node", "id": 1809013657, "lat": 40.7046959, "lon": 19.948356}, {"type": "node", "id": 1809013679, "lat": 40.7047133, "lon": 19.9484978}, {"type": "node", "id": 1809013682, "lat": 40.7047465, "lon": 19.9483081}, {"type": "node", "id": 1809013684, "lat": 40.7047875, "lon": 19.948454}, {"type": "node", "id": 2076414047, "lat": 40.7045492, "lon": 19.9497759, "tags": {"addr:street": "Rruga Antipatrea Lagjja Mangalem", "amenity": "restaurant", "cuisine": "international", "email": "wildorbar@gmail.com", "name": "WilDor Bar Restaurant", "name:en": "wildor\u2019s bar"}}, {"type": "node", "id": 2460779684, "lat": 40.8882381, "lon": 19.7694225, "tags": {"amenity": "restaurant", "name": "Palma", "source": "survey"}}, {"type": "node", "id": 2460779689, "lat": 40.8811048, "lon": 19.7774619, "tags": {"amenity": "restaurant", "source": "survey", "tourism": "hotel"}}, {"type": "node", "id": 2462015630, "lat": 40.6919424, "lon": 20.0007151, "tags": {"amenity": "restaurant", "name": "Osumi", "source": "survey"}}, {"type": "node", "id": 2463014758, "lat": 40.6366765, "lon": 20.0519654, "tags": {"amenity": "restaurant", "name": "Flori"}}, {"type": "node", "id": 2464086162, "lat": 40.5708279, "lon": 20.1472627, "tags": {"amenity": "restaurant", "name": "Celo", "source": "survey"}}, {"type": "node", "id": 2917112693, "lat": 40.7036157, "lon": 19.9435934}, {"type": "node", "id": 2917112694, "lat": 40.7037685, "lon": 19.9436196}, {"type": "node", "id": 2917112695, "lat": 40.7037467, "lon": 19.9438405}, {"type": "node", "id": 2917112696, "lat": 40.7035939, "lon": 19.9438143}, {"type": "node", "id": 2917112719, "lat": 40.7029359, "lon": 19.9499967, "tags": {"amenity": "restaurant", "name": "Taverna Ajka"}}, {"type": "node", "id": 2917112721, "lat": 40.7047862, "lon": 19.9542266, "tags": {"amenity": "restaurant", "name": "Berati"}}, {"type": "node", "id": 3419894422, "lat": 40.978148, "lon": 19.8891494}, {"type": "node", "id": 3419894423, "lat": 40.9780164, "lon": 19.8891538}, {"type": "node", "id": 3419894424, "lat": 40.9780117, "lon": 19.8889044}, {"type": "node", "id": 3419894425, "lat": 40.9781432, "lon": 19.8889}, {"type": "node", "id": 4073859281, "lat": 40.7219674, "lon": 19.9447605}, {"type": "node", "id": 4073859282, "lat": 40.7219728, "lon": 19.9446182}, {"type": "node", "id": 4073859283, "lat": 40.7223676, "lon": 19.9447871}, {"type": "node", "id": 4073859284, "lat": 40.722373, "lon": 19.9446447}, {"type": "node", "id": 4257203300, "lat": 40.7033716, "lon": 19.9492606, "tags": {"amenity": "restaurant", "check_date": "2023-10-10", "name": "Antigoni"}}, {"type": "node", "id": 4326860997, "lat": 40.7049347, "lon": 19.9488602, "tags": {"addr:postcode": "5001", "addr:street": "Rruga Llambi Guxhumani", "amenity": "restaurant", "check_date": "2024-03-26", "cuisine": "local;regional", "internet_access": "wlan", "name": "Lili's Home-Made Food", "name:de": "Lili's Hausmannskost - Traditionelle K\u00fcche", "name:sq": "Lili's Home-Made Food Cucina Di Casa Traditional", "opening_hours": "Mo-Su 17:30-22:30", "website": "https://www.happycow.net/reviews/lili-homemade-food-berat-144751", "wheelchair": "no"}}, {"type": "node", "id": 4332708189, "lat": 40.7097504, "lon": 19.9456284, "tags": {"amenity": "restaurant", "check_date": "2025-02-18", "cuisine": "local", "internet_access": "wlan", "name": "Onufri", "phone": "03230661", "wheelchair": "limited"}}, {"type": "node", "id": 4334028421, "lat": 40.7081533, "lon": 19.9455346, "tags": {"amenity": "cafe", "name": "Bar", "name:sq": "Kafe"}}, {"type": "node", "id": 4344534095, "lat": 40.7018797, "lon": 19.9575808, "tags": {"amenity": "restaurant", "cuisine": "barbecue", "internet_access": "wlan", "name": "Zgara Kor\u00e7are"}}, {"type": "node", "id": 4344588490, "lat": 40.7045759, "lon": 19.9498771, "tags": {"amenity": "restaurant", "internet_access": "wlan", "name": "Heaven's Kitchen", "name:en": "Heaven's Kitchen"}}, {"type": "node", "id": 4344588491, "lat": 40.7044631, "lon": 19.9492228, "tags": {"amenity": "cafe", "check_date": "2024-03-25", "cuisine": "ice_cream", "name": "Pasti\u00e7eri Mangalemi", "name:de": "Konditorei Mangalemi", "name:en": "Pastry Mangalemi", "name:sq": "Pasti\u00e7eri Mangalemi"}}, {"type": "node", "id": 4344588689, "lat": 40.7038842, "lon": 19.9571603, "tags": {"air_conditioning": "yes", "amenity": "restaurant", "bar": "yes", "brewery": "various", "cuisine": "regional", "microbrewery": "no", "name": "Piccolo Grande Amore", "name:en": "Piccolo Grande Amore", "name:sq": "Piccolo Grande Amore"}}, {"type": "node", "id": 4344588690, "lat": 40.7044406, "lon": 19.9488632, "tags": {"amenity": "restaurant", "name": "The White House"}}, {"type": "node", "id": 4403153611, "lat": 40.7670776, "lon": 19.8997057, "tags": {"amenity": "restaurant", "kitchen": "local", "name": "Taverna"}}, {"type": "node", "id": 4405479254, "lat": 40.8159746, "lon": 19.8296365}, {"type": "node", "id": 4405479255, "lat": 40.8161674, "lon": 19.8307148}, {"type": "node", "id": 4405479256, "lat": 40.8162364, "lon": 19.829556}, {"type": "node", "id": 4405479257, "lat": 40.8164171, "lon": 19.8306209}, {"type": "node", "id": 4507238862, "lat": 40.8655533, "lon": 20.1840557, "tags": {"amenity": "cafe", "cuisine": "regional", "name": "Alfred Kosturi"}}, {"type": "node", "id": 4603781843, "lat": 40.9241234, "lon": 19.7863144, "tags": {"addr:city": "lushnje Skilaj", "addr:housenumber": "1", "addr:postcode": "9002", "addr:street": "Rruga Bedri Nezha", "amenity": "cafe", "cuisine": "traditional_Albanese", "ele": "+80", "internet_access": "no", "name": "Afrimi", "opening_hours": "06:00-22:00", "outdoor_seating": "veranda", "smoking": "outside"}}, {"type": "node", "id": 4603839052, "lat": 40.9238744, "lon": 19.7857848, "tags": {"addr:city": "lushnje Skilaj", "addr:housenumber": "2", "addr:street": "Rruga Bedri Nezha", "amenity": "restaurant", "capacity": "150", "cuisine": "regional", "delivery": "no", "name": "Kushtrimi", "opening_hours": "06:00-23:00", "outdoor_seating": "yes", "smoking": "yes", "takeaway": "no"}}, {"type": "node", "id": 4626626579, "lat": 40.8654351, "lon": 20.1832536}, {"type": "node", "id": 4626626580, "lat": 40.8654351, "lon": 20.1834115}, {"type": "node", "id": 4626626581, "lat": 40.8653247, "lon": 20.1834141}, {"type": "node", "id": 4626626582, "lat": 40.8653247, "lon": 20.1832549}, {"type": "node", "id": 4988147522, "lat": 40.7024386, "lon": 19.9445181, "tags": {"amenity": "restaurant", "cuisine": "balkan;local", "name": "Lu\u00e7", "name:sq": "Lu\u00e7"}}, {"type": "node", "id": 5070715321, "lat": 40.7046456, "lon": 19.9549739, "tags": {"addr:street": "Rruga Gaqi Gjika", "amenity": "restaurant", "cuisine": "local", "internet_access": "wlan", "name": "Pasarela"}}, {"type": "node", "id": 5587937921, "lat": 40.7744487, "lon": 19.87935, "tags": {"amenity": "restaurant"}}, {"type": "node", "id": 5587938021, "lat": 40.7749663, "lon": 19.8808186, "tags": {"amenity": "cafe"}}, {"type": "node", "id": 5590169927, "lat": 40.7058878, "lon": 19.951321, "tags": {"amenity": "restaurant", "name": "Zgara Kaon"}}, {"type": "node", "id": 5666160621, "lat": 40.7038752, "lon": 19.9540568, "tags": {"amenity": "restaurant", "check_date": "2024-06-16", "name": "Piazza"}}, {"type": "node", "id": 5704301248, "lat": 40.709753, "lon": 19.9450958, "tags": {"amenity": "restaurant", "name": "Klea Hotel restaurant", "name:mk": "\u0420\u0435\u0441\u0442\u043e\u0440\u0430\u043d \u201e\u041a\u043b\u0435\u0458\u0430\u201c"}}, {"type": "node", "id": 5758857234, "lat": 40.7115806, "lon": 19.9466166, "tags": {"amenity": "restaurant", "name": "La Taverna Lazaro"}}, {"type": "node", "id": 5775494853, "lat": 40.7096781, "lon": 19.9458083, "tags": {"addr:floor": "G", "addr:street": "Rrugica Mbrica", "air_conditioning": "yes", "amenity": "restaurant", "check_date": "2025-02-18", "cuisine": "regional", "delivery": "no", "internet_access": "wlan", "internet_access:fee": "customers", "level": "0", "name": "Antipatrea", "outdoor_seating": "yes", "phone": "069 30 95 052", "smoking": "outside", "source": "local knowledge", "toilets": "yes", "toilets:wheelchair": "no", "wheelchair": "no"}}, {"type": "node", "id": 5838702285, "lat": 40.7040232, "lon": 19.95361, "tags": {"amenity": "cafe", "cuisine": "cake;coffee_shop", "name": "Sht\u00ebpia e kafes Gimi"}}, {"type": "node", "id": 5839243485, "lat": 40.7005686, "lon": 19.9627166, "tags": {"amenity": "restaurant"}}, {"type": "node", "id": 6179934508, "lat": 40.9087124, "lon": 20.1389853, "tags": {"amenity": "restaurant", "name": "BAR RESTORANT LUNDRA"}}, {"type": "node", "id": 6388054207, "lat": 40.8675868, "lon": 20.1835005, "tags": {"amenity": "restaurant", "cuisine": "regional;steak_house", "name": "Beni"}}, {"type": "node", "id": 6388072836, "lat": 40.868259, "lon": 20.1840249, "tags": {"amenity": "restaurant", "cuisine": "pizza;italian;regional", "internet_access": "wlan", "level": "1", "name": "Piazza Lounge", "wheelchair": "no"}}, {"type": "node", "id": 6388072843, "lat": 40.8707101, "lon": 20.1846172, "tags": {"amenity": "cafe", "name": "Mateo"}}, {"type": "node", "id": 6410090703, "lat": 40.705972, "lon": 19.951007, "tags": {"amenity": "restaurant", "check_date": "2024-03-25", "name": "Restaurant Mangalemi", "outdoor_seating": "yes", "website": "https://mangalemihotel.com/restaurant/"}}, {"type": "node", "id": 6499794368, "lat": 40.8013547, "lon": 19.9100783, "tags": {"amenity": "cafe", "name": "Bar Centrim"}}, {"type": "node", "id": 6502028571, "lat": 40.7799232, "lon": 19.8851583, "tags": {"amenity": "restaurant", "name": "Bar Restaurant Hotel Familja"}}, {"type": "node", "id": 6702531485, "lat": 40.7086883, "lon": 19.9459257, "tags": {"addr:postcode": "5001", "addr:street": "Rrugica Mbrica", "amenity": "restaurant", "cuisine": "balkan", "diet:vegan": "yes", "name": "Temi", "name:en": "Temi Albanian Food", "opening_hours": "Mo-Su 09:00-18:00"}}, {"type": "node", "id": 6835887302, "lat": 40.8410373, "lon": 20.0222794, "tags": {"amenity": "restaurant"}}, {"type": "node", "id": 6882513889, "lat": 40.7049182, "lon": 19.9527023, "tags": {"amenity": "restaurant", "contact:instagram": "hotelrestorantcuci", "name": "Te \u00c7uci", "name:en": "Restaurant \u00c7u\u00e7i (cheap)", "phone": "+355696676004"}}, {"type": "node", "id": 7203115138, "lat": 40.7052976, "lon": 19.9492794, "tags": {"amenity": "cafe", "name": "Ba\u00e7o"}}, {"type": "node", "id": 7622668785, "lat": 40.9770241, "lon": 19.8894416, "tags": {"amenity": "restaurant", "name": "Ujvara"}}, {"type": "node", "id": 7806120085, "lat": 40.9269736, "lon": 20.2214414, "tags": {"amenity": "restaurant", "name:en": "Bar Restaurant Holta", "operator": "Agem", "phone": "+355685184937"}}, {"type": "node", "id": 8894856740, "lat": 40.7220047, "lon": 19.9442803, "tags": {"amenity": "cafe"}}, {"type": "node", "id": 9071208217, "lat": 40.7059137, "lon": 19.9512218, "tags": {"amenity": "restaurant", "name:en": "Traditional Food"}}, {"type": "node", "id": 9071574917, "lat": 40.7080306, "lon": 19.9453862, "tags": {"amenity": "cafe", "name": "Akropoli", "name:en": "Acropolis", "name:ru": "\u0410\u043a\u0440\u043e\u043f\u043e\u043b\u044c"}}, {"type": "node", "id": 9084810237, "lat": 40.9917671, "lon": 19.8306537}, {"type": "node", "id": 9084810238, "lat": 40.9918462, "lon": 19.8306599}, {"type": "node", "id": 9084810239, "lat": 40.9919067, "lon": 19.8307523}, {"type": "node", "id": 9084810240, "lat": 40.9920322, "lon": 19.8304319}, {"type": "node", "id": 9084810241, "lat": 40.9920415, "lon": 19.8303333}, {"type": "node", "id": 9084810242, "lat": 40.9920183, "lon": 19.830247}, {"type": "node", "id": 9084810243, "lat": 40.9919764, "lon": 19.8301793}, {"type": "node", "id": 9084810244, "lat": 40.9919067, "lon": 19.8301669}, {"type": "node", "id": 9084810245, "lat": 40.9918369, "lon": 19.8301669}, {"type": "node", "id": 9084810246, "lat": 40.9917578, "lon": 19.8301916}, {"type": "node", "id": 9084810247, "lat": 40.9917625, "lon": 19.8303456}, {"type": "node", "id": 9084810248, "lat": 40.9916881, "lon": 19.8304134}, {"type": "node", "id": 9085964157, "lat": 40.6339378, "lon": 20.1984565}, {"type": "node", "id": 9085964158, "lat": 40.6340232, "lon": 20.198579}, {"type": "node", "id": 9085964159, "lat": 40.633805, "lon": 20.1988431}, {"type": "node", "id": 9085964160, "lat": 40.6337289, "lon": 20.198734}, {"type": "node", "id": 9085964161, "lat": 40.6338001, "lon": 20.1986478}, {"type": "node", "id": 9085964162, "lat": 40.6338201, "lon": 20.1986766}, {"type": "node", "id": 9085964163, "lat": 40.633896, "lon": 20.1985847}, {"type": "node", "id": 9085964164, "lat": 40.6338667, "lon": 20.1985426}, {"type": "node", "id": 9111599775, "lat": 40.7022961, "lon": 19.9439125, "tags": {"addr:city": "Berat", "amenity": "restaurant", "cuisine": "local", "internet_access": "wlan", "name": "Eni traditional restaurant", "outdoor_seating": "yes"}}, {"type": "node", "id": 9153938258, "lat": 40.7098759, "lon": 19.9390253, "tags": {"amenity": "cafe"}}, {"type": "node", "id": 9153938272, "lat": 40.6999191, "lon": 19.9622692, "tags": {"amenity": "cafe"}}, {"type": "node", "id": 9153938282, "lat": 40.703937, "lon": 19.9543727, "tags": {"amenity": "cafe"}}, {"type": "node", "id": 9153938500, "lat": 40.7081812, "lon": 19.9398529, "tags": {"amenity": "cafe", "name": "Colombo"}}, {"type": "node", "id": 9153938503, "lat": 40.7046102, "lon": 19.9415616, "tags": {"amenity": "cafe"}}, {"type": "node", "id": 9153938506, "lat": 40.7045528, "lon": 19.952038, "tags": {"amenity": "cafe", "check_date": "2024-03-25", "name": "Bar Shp\u00ebtimi", "name:sq": "Bar Shp\u00ebtimi"}}, {"type": "node", "id": 9153938509, "lat": 40.7042159, "lon": 19.9545548, "tags": {"amenity": "cafe"}}, {"type": "node", "id": 9153939726, "lat": 40.7044356, "lon": 19.9523896, "tags": {"amenity": "cafe"}}, {"type": "node", "id": 9153949038, "lat": 40.7143906, "lon": 19.9395322, "tags": {"amenity": "cafe"}}, {"type": "node", "id": 9153949040, "lat": 40.7134858, "lon": 19.9386541, "tags": {"amenity": "cafe"}}, {"type": "node", "id": 9153949043, "lat": 40.7117731, "lon": 19.938323, "tags": {"amenity": "cafe"}}, {"type": "node", "id": 9153949044, "lat": 40.7115715, "lon": 19.9383553, "tags": {"amenity": "cafe"}}, {"type": "node", "id": 9153949059, "lat": 40.7059055, "lon": 19.9512743, "tags": {"amenity": "restaurant", "name:en": "Traditional food"}}, {"type": "node", "id": 9153949062, "lat": 40.7042589, "lon": 19.9529007, "tags": {"amenity": "cafe", "name": "Biondi"}}, {"type": "node", "id": 9153949063, "lat": 40.7039263, "lon": 19.9538472, "tags": {"amenity": "cafe", "name": "Divino"}}, {"type": "node", "id": 9153949066, "lat": 40.7012361, "lon": 19.9592783, "tags": {"amenity": "cafe"}}, {"type": "node", "id": 9153949096, "lat": 40.7057919, "lon": 19.9410954, "tags": {"amenity": "restaurant", "name": "Emiljano co"}}, {"type": "node", "id": 9153949098, "lat": 40.7055193, "lon": 19.9414694, "tags": {"amenity": "cafe"}}, {"type": "node", "id": 9153950519, "lat": 40.6981476, "lon": 19.9596888, "tags": {"amenity": "cafe"}}, {"type": "node", "id": 9153950531, "lat": 40.7021089, "lon": 19.9380274, "tags": {"amenity": "cafe"}}, {"type": "node", "id": 9153950534, "lat": 40.7080874, "lon": 19.9389266, "tags": {"amenity": "cafe"}}, {"type": "node", "id": 9153950536, "lat": 40.7040885, "lon": 19.9538155, "tags": {"amenity": "restaurant", "name": "Zgara Zaloshnja"}}, {"type": "node", "id": 9155652117, "lat": 40.7043928, "lon": 19.9524829, "tags": {"amenity": "cafe"}}, {"type": "node", "id": 9155652218, "lat": 40.7004796, "lon": 19.9606654, "tags": {"amenity": "cafe"}}, {"type": "node", "id": 9176129321, "lat": 40.78135, "lon": 20.2386121}, {"type": "node", "id": 9176129325, "lat": 40.7813414, "lon": 20.2386974}, {"type": "node", "id": 9176129344, "lat": 40.7814496, "lon": 20.2386467}, {"type": "node", "id": 9176129350, "lat": 40.781322, "lon": 20.2386252}, {"type": "node", "id": 9176129401, "lat": 40.7813386, "lon": 20.2385696}, {"type": "node", "id": 9176129406, "lat": 40.7814188, "lon": 20.238532}, {"type": "node", "id": 9677851599, "lat": 40.92624, "lon": 20.22249, "tags": {"amenity": "cafe", "description": "Only open in summer"}}, {"type": "node", "id": 9761933639, "lat": 40.9559963, "lon": 19.8855083, "tags": {"amenity": "restaurant", "name": "Bujtina Zejtaria", "phone": "+355676306733"}}, {"type": "node", "id": 9792679517, "lat": 40.6301405, "lon": 20.0661965, "tags": {"amenity": "restaurant"}}, {"type": "node", "id": 9792679617, "lat": 40.6299998, "lon": 20.0662834, "tags": {"amenity": "restaurant"}}, {"type": "node", "id": 9806759672, "lat": 40.7040214, "lon": 19.9544607, "tags": {"amenity": "restaurant", "name": "Proper Pizza Berat"}}, {"type": "node", "id": 9813705060, "lat": 40.7117557, "lon": 19.9465416, "tags": {"amenity": "restaurant"}}, {"type": "node", "id": 9815096647, "lat": 40.9441955, "lon": 19.8666958}, {"type": "node", "id": 9815096648, "lat": 40.9440618, "lon": 19.8666578}, {"type": "node", "id": 9815096649, "lat": 40.9440343, "lon": 19.8668273}, {"type": "node", "id": 9815096650, "lat": 40.944168, "lon": 19.8668653}, {"type": "node", "id": 9969764648, "lat": 40.7025843, "lon": 19.9452651, "tags": {"addr:floor": "G", "amenity": "cafe", "check_date": "2025-02-19", "internet_access": "wlan", "internet_access:fee": "customers", "level": "0", "name": "Classic", "name:signed": "no", "outdoor_seating": "yes"}}, {"type": "node", "id": 9969997982, "lat": 40.708658, "lon": 19.9459973, "tags": {"amenity": "restaurant", "cuisine": "balkan", "diet:vegetarian": "yes", "name": "Mbrica"}}, {"type": "node", "id": 9983160570, "lat": 40.8294744, "lon": 19.9074741}, {"type": "node", "id": 9983160571, "lat": 40.829456, "lon": 19.907493}, {"type": "node", "id": 9983160572, "lat": 40.8294745, "lon": 19.9075242}, {"type": "node", "id": 9983160573, "lat": 40.8293721, "lon": 19.9076297}, {"type": "node", "id": 9983160574, "lat": 40.8291812, "lon": 19.9073063}, {"type": "node", "id": 9983160575, "lat": 40.8293019, "lon": 19.9071818}, {"type": "node", "id": 10049256931, "lat": 40.7057203, "lon": 19.9357862, "tags": {"amenity": "restaurant", "name": "Blen Grand", "phone": "+355 699977334"}}, {"type": "node", "id": 10052948773, "lat": 40.7046656, "lon": 19.9515965, "tags": {"amenity": "restaurant", "name": "City Grill"}}, {"type": "node", "id": 10052968027, "lat": 40.7015708, "lon": 19.9576172, "tags": {"amenity": "restaurant", "name": "Mexican"}}, {"type": "node", "id": 10055280905, "lat": 40.7038875, "lon": 19.9539929, "tags": {"amenity": "restaurant", "name": "Te Albany"}}, {"type": "node", "id": 10186032416, "lat": 40.9579123, "lon": 19.883763}, {"type": "node", "id": 10186045159, "lat": 40.9578445, "lon": 19.8837724}, {"type": "node", "id": 10186045160, "lat": 40.9578627, "lon": 19.8839338}, {"type": "node", "id": 10186045161, "lat": 40.9578448, "lon": 19.8839369}, {"type": "node", "id": 10186045162, "lat": 40.957855, "lon": 19.8840071}, {"type": "node", "id": 10186045163, "lat": 40.9579468, "lon": 19.883987}, {"type": "node", "id": 10207242288, "lat": 40.9578926, "lon": 19.8838797, "tags": {"addr:city": "Seferan", "amenity": "cafe", "internet_access": "wlan", "internet_access:fee": "no", "name": "Sali Kasa", "outdoor_seating": "yes"}}, {"type": "node", "id": 10246103994, "lat": 40.9543749, "lon": 19.9050852, "tags": {"amenity": "restaurant", "caravan": "yes", "name": "Paja AgroTourism", "phone": "+355 682086655"}}, {"type": "node", "id": 10994627505, "lat": 40.7044133, "lon": 19.9484677, "tags": {"addr:street": "Rruga Antipatrea", "amenity": "restaurant", "name": "Bar-Restorant Zonja Gjen\u00eb"}}, {"type": "node", "id": 11049748805, "lat": 40.775536, "lon": 19.8189426, "tags": {"addr:street": "Rruga Abdyl Frash\u00ebri, Tirana, Albania", "amenity": "cafe", "name": "D'Angelo Chocolate & Coffee", "name:en": "D'Angelo Chocolate & Coffee"}}, {"type": "node", "id": 11079156352, "lat": 40.688626, "lon": 19.875586, "tags": {"amenity": "cafe"}}, {"type": "node", "id": 11079164184, "lat": 40.671804, "lon": 19.880841, "tags": {"amenity": "restaurant", "name": "Bar Restaurant Lisi"}}, {"type": "node", "id": 11079164338, "lat": 40.6461551, "lon": 19.8701675, "tags": {"amenity": "cafe"}}, {"type": "node", "id": 11079173255, "lat": 40.6445273, "lon": 19.8732731, "tags": {"amenity": "restaurant", "name": "Bar Restaurant Park Sinja"}}, {"type": "node", "id": 11079177866, "lat": 40.8117777, "lon": 19.9163816, "tags": {"amenity": "cafe"}}, {"type": "node", "id": 11079177867, "lat": 40.6462798, "lon": 19.8703217, "tags": {"amenity": "cafe"}}, {"type": "node", "id": 11079179805, "lat": 40.9941338, "lon": 20.0204062, "tags": {"amenity": "cafe", "name": "Eli Coffee"}}, {"type": "node", "id": 11138429155, "lat": 40.731218, "lon": 20.0408912}, {"type": "node", "id": 11138429156, "lat": 40.7313015, "lon": 20.0410752}, {"type": "node", "id": 11138429160, "lat": 40.7311416, "lon": 20.0409516}, {"type": "node", "id": 11146567105, "lat": 40.7044056, "lon": 19.9524251, "tags": {"addr:street": "Bulevardi Republika", "amenity": "cafe", "cuisine": "coffee_shop;crepe;tea", "internet_access": "wlan", "name": "Shtepia e Kafes Gimi"}}, {"type": "node", "id": 11210299639, "lat": 40.7025719, "lon": 19.9454346, "tags": {"addr:street": "Rruga Stiliano Bandilli", "amenity": "restaurant", "description": "Hotel and restaurant", "name": "Kapllani"}}, {"type": "node", "id": 11235783433, "lat": 40.6626538, "lon": 20.0294339, "tags": {"amenity": "restaurant", "name": "Restorant Zogj Fshati Ne Sac", "phone": "+355692576791"}}, {"type": "node", "id": 11235791096, "lat": 40.6626538, "lon": 20.0294339, "tags": {"amenity": "restaurant", "name": "Restorant Zogj Fshati Ne Sac", "phone": "+355692576791"}}, {"type": "node", "id": 11251082938, "lat": 40.6124917, "lon": 20.0984918, "tags": {"amenity": "cafe", "name": "Donald Lavdari"}}, {"type": "node", "id": 11251097137, "lat": 40.5669065, "lon": 20.1445664, "tags": {"amenity": "restaurant", "name": "Arber"}}, {"type": "node", "id": 11333421371, "lat": 40.6526638, "lon": 20.0424421, "tags": {"amenity": "restaurant", "name": "Pupa"}}, {"type": "node", "id": 11333421374, "lat": 40.6907323, "lon": 20.0015116, "tags": {"amenity": "restaurant"}}, {"type": "node", "id": 11333488269, "lat": 40.5873007, "lon": 20.1060775, "tags": {"amenity": "restaurant"}}, {"type": "node", "id": 11333488284, "lat": 40.630052, "lon": 20.066649, "tags": {"amenity": "restaurant", "name": "Robi"}}, {"type": "node", "id": 11735235553, "lat": 40.9807563, "lon": 19.8901986, "tags": {"amenity": "cafe", "name": "Estrados"}}, {"type": "node", "id": 11806850092, "lat": 40.7312252, "lon": 20.0411356}, {"type": "node", "id": 11863296208, "lat": 40.899877, "lon": 20.1603321}, {"type": "node", "id": 11863296209, "lat": 40.8997931, "lon": 20.1603891}, {"type": "node", "id": 11863296210, "lat": 40.8997248, "lon": 20.1602132}, {"type": "node", "id": 11863296211, "lat": 40.8998087, "lon": 20.1601562}, {"type": "node", "id": 11863328642, "lat": 40.8038644, "lon": 20.2929607}, {"type": "node", "id": 11863328643, "lat": 40.8039021, "lon": 20.2927968}, {"type": "node", "id": 11863328644, "lat": 40.8041173, "lon": 20.2928833}, {"type": "node", "id": 11863328645, "lat": 40.8040797, "lon": 20.2930471}, {"type": "node", "id": 11967530169, "lat": 40.7046916, "lon": 19.9495464, "tags": {"amenity": "restaurant", "cuisine": "balkan;italian", "name:en": "Friendly House"}}, {"type": "node", "id": 11978043618, "lat": 40.7017773, "lon": 19.9577089, "tags": {"addr:city": "Berat", "addr:housenumber": "5000", "addr:street": "Bulevardi Republika", "amenity": "cafe", "name": "Caffe Vergnato"}}, {"type": "node", "id": 12010104229, "lat": 40.8056608, "lon": 20.2501971, "tags": {"amenity": "cafe"}}, {"type": "node", "id": 12100626378, "lat": 40.80142, "lon": 20.3264311, "tags": {"amenity": "restaurant", "name": "Bar Restorant Liqeni i Dushkut"}}, {"type": "node", "id": 12117353601, "lat": 40.7124277, "lon": 19.93865, "tags": {"amenity": "restaurant", "contact:instagram": "rus_halal_food", "name": "Rus Halal food", "phone": "+355686080400"}}, {"type": "node", "id": 12143938695, "lat": 40.706688, "lon": 19.9507833, "tags": {"amenity": "restaurant", "check_date": "2024-08-28", "name": "Onufri", "payment:cash": "yes", "payment:mastercard": "yes", "payment:visa_debit": "yes"}}, {"type": "node", "id": 12143938698, "lat": 40.7051487, "lon": 19.9519095, "tags": {"amenity": "cafe", "check_date": "2024-08-29"}}, {"type": "node", "id": 12143938699, "lat": 40.7025476, "lon": 19.944402, "tags": {"amenity": "restaurant", "check_date": "2024-08-29", "name": "Balkoni Gorices"}}, {"type": "node", "id": 12143985601, "lat": 40.7028154, "lon": 19.946799, "tags": {"amenity": "restaurant", "check_date": "2024-08-29", "name": "Amalia"}}, {"type": "node", "id": 12188165839, "lat": 40.6990011, "lon": 19.9706295, "tags": {"amenity": "restaurant", "name": "Time Out", "opening_hours": "Mo-Su 07:00-23:30"}}, {"type": "node", "id": 12189712788, "lat": 40.7045931, "lon": 19.9499076, "tags": {"amenity": "restaurant", "internet_access": "wlan", "internet_access:fee": "yes", "name": "Lundra 2", "opening_hours": "Mo-Sa 08:00-24:00, Su 08:00-23:30"}}, {"type": "node", "id": 12247786226, "lat": 40.7738762, "lon": 19.8747296, "tags": {"amenity": "cafe", "opening_hours": "24/7"}}, {"type": "node", "id": 12281413041, "lat": 40.8656258, "lon": 20.1852807, "tags": {"amenity": "cafe"}}, {"type": "node", "id": 12600210157, "lat": 40.702515, "lon": 19.9453787, "tags": {"addr:floor": "G", "amenity": "cafe", "check_date": "2025-02-19", "level": "0", "name": "Goo Vibes", "outdoor_seating": "yes", "wheelchair": "yes"}}, {"type": "node", "id": 12787606826, "lat": 40.7100235, "lon": 19.9456804, "tags": {"amenity": "restaurant", "name": "Vjeter"}}, {"type": "node", "id": 12787629636, "lat": 40.7098961, "lon": 19.9460966, "tags": {"amenity": "restaurant", "name": "Zeri"}}, {"type": "way", "id": 169740741, "nodes": [1809013682, 1809013684, 1809013679, 1809013653, 1809013657, 1809013655, 1809013682], "tags": {"addr:housename": "n/a", "addr:postcode": "5001", "addr:street": "L.agjja Mangalem", "amenity": "restaurant", "building": "yes", "check_date": "2024-03-26", "cuisine": "regional", "name": "Guva Mangalem Hotel Restaurant", "name:de": "Hotel Restaurant Guva Mangalem", "name:en": "Guva Mangalem Hotel Restaurant", "name:sq": "Guva Mangalem Hotel Restaurant", "outdoor_seating": "yes", "website:menu": "https://ozzo.eu/restaurant-profile/65aa3afce4cf22ed1048b8fc/65aa3fe408aee2d64586d8a2", "wheelchair": "no"}}, {"type": "way", "id": 288162861, "nodes": [2917112693, 2917112694, 2917112695, 2917112696, 2917112693], "tags": {"amenity": "restaurant", "building": "house", "cuisine": "regional;mediterranean", "name": "Mulliri", "opening_hours:covid19": "Mo-Su 07:00-23:30", "outdoor_seating": "yes"}}, {"type": "way", "id": 334869510, "nodes": [3419894422, 3419894423, 3419894424, 3419894425, 3419894422], "tags": {"amenity": "cafe", "building": "yes", "internet_access": "yes"}}, {"type": "way", "id": 405165685, "nodes": [4073859284, 4073859283, 4073859281, 4073859282, 4073859284], "tags": {"amenity": "restaurant", "building": "commercial", "cuisine": "regional"}}, {"type": "way", "id": 442898840, "nodes": [4405479256, 4405479254, 4405479255, 4405479257, 4405479256], "tags": {"amenity": "restaurant", "cuisine": "italian", "name": "Italia", "outdoor_seating": "yes"}}, {"type": "way", "id": 468107905, "nodes": [4626626579, 4626626580, 4626626581, 4626626582, 4626626579], "tags": {"amenity": "cafe", "building": "yes"}}, {"type": "way", "id": 982324231, "nodes": [9084810237, 9084810238, 9084810239, 9084810240, 9084810241, 9084810242, 9084810243, 9084810244, 9084810245, 9084810246, 9084810247, 9084810248, 9084810237], "tags": {"amenity": "restaurant", "building": "yes"}}, {"type": "way", "id": 982449979, "nodes": [9085964157, 9085964158, 9085964159, 9085964160, 9085964161, 9085964162, 9085964163, 9085964164, 9085964157], "tags": {"amenity": "restaurant", "building": "yes", "name": "Perla e Tomorrit"}}, {"type": "way", "id": 993225373, "nodes": [9176129344, 9176129325, 9176129350, 9176129321, 9176129401, 9176129406, 9176129344], "tags": {"amenity": "restaurant", "building": "yes"}}, {"type": "way", "id": 1069330105, "nodes": [9815096647, 9815096648, 9815096649, 9815096650, 9815096647], "tags": {"amenity": "restaurant", "building": "yes", "name": "Sofra e Liqenit", "phone": "+355692923666"}}, {"type": "way", "id": 1089835069, "nodes": [9983160570, 9983160571, 9983160572, 9983160573, 9983160574, 9983160575, 9983160570], "tags": {"amenity": "restaurant", "building": "yes", "contact:mobile": "+335696174466", "cuisine": "regional", "name": "Taverna Devolli", "outdoor_seating": "garden", "phone": "+335682336596", "start_date": "2004"}}, {"type": "way", "id": 1113361018, "nodes": [10186032416, 10186045159, 10186045160, 10186045161, 10186045162, 10186045163, 10186032416], "tags": {"addr:city": "Seferan", "addr:street": "Rruga Seferan", "amenity": "cafe", "bar": "yes", "building": "commercial", "internet_access": "yes", "internet_access:fee": "no", "name": "Sali Kasa Bar Cafe", "outdoor_seating": "yes", "payment:cash": "yes"}}, {"type": "way", "id": 1201380711, "nodes": [11138429155, 11138429156, 11806850092, 11138429160, 11138429155], "tags": {"amenity": "restaurant", "building": "yes", "name": "RESTORANT ROSHNIKU", "phone": "+355692409401"}}, {"type": "way", "id": 1277945537, "nodes": [11863296208, 11863296209, 11863296210, 11863296211, 11863296208], "tags": {"amenity": "restaurant", "building": "yes", "name": "Etjoni"}}, {"type": "way", "id": 1277947058, "nodes": [11863328642, 11863328643, 11863328644, 11863328645, 11863328642], "tags": {"addr:city": "Gramsh", "addr:street": "Fshati Bulcar", "amenity": "restaurant", "building": "yes", "name": "Bio Farm Gramsh", "website": "https://biofarmgramsh.al/"}}]}