{"version": 0.6, "generator": "Overpass API 0.7.62.7 375dc00a", "osm3s": {"timestamp_osm_base": "2025-06-14T13:24:02Z", "copyright": "The data included in this document is from www.openstreetmap.org. The data is made available under ODbL."}, "elements": [{"type": "node", "id": 1343717010, "lat": 38.9897978, "lon": 9.0125855}, {"type": "node", "id": 1343717062, "lat": 38.9897897, "lon": 9.0126299}, {"type": "node", "id": 1343717090, "lat": 38.9900344, "lon": 9.0128082}, {"type": "node", "id": 1343717198, "lat": 38.9897744, "lon": 9.0127293}, {"type": "node", "id": 1343717307, "lat": 38.9897827, "lon": 9.012684}, {"type": "node", "id": 1343717339, "lat": 38.9899566, "lon": 9.0126269}, {"type": "node", "id": 1343717352, "lat": 38.9897247, "lon": 9.0126102}, {"type": "node", "id": 1343717395, "lat": 38.9897149, "lon": 9.0126634}, {"type": "node", "id": 1732764678, "lat": 38.9900606, "lon": 9.0126652}, {"type": "node", "id": 3001712822, "lat": 38.9809928, "lon": 8.973235}, {"type": "node", "id": 3001712831, "lat": 38.9810902, "lon": 8.9733839}, {"type": "node", "id": 3001712832, "lat": 38.9811505, "lon": 8.9733192}, {"type": "node", "id": 3001712836, "lat": 38.9811821, "lon": 8.9733666}, {"type": "node", "id": 3001712837, "lat": 38.9811982, "lon": 8.9730156}, {"type": "node", "id": 3001712847, "lat": 38.9813262, "lon": 8.9732118}, {"type": "node", "id": 3001713096, "lat": 38.9850778, "lon": 8.9842852}, {"type": "node", "id": 3001713097, "lat": 38.9850778, "lon": 8.9846154}, {"type": "node", "id": 3001713104, "lat": 38.9851859, "lon": 8.9843602}, {"type": "node", "id": 3001713111, "lat": 38.985277, "lon": 8.9846431}, {"type": "node", "id": 3001713112, "lat": 38.9852797, "lon": 8.9845934}, {"type": "node", "id": 3001713117, "lat": 38.9853355, "lon": 8.9846003}, {"type": "node", "id": 3001713121, "lat": 38.9853499, "lon": 8.984404}, {"type": "node", "id": 3001713416, "lat": 38.9865195, "lon": 9.0062546}, {"type": "node", "id": 3001713417, "lat": 38.9865217, "lon": 9.0063333}, {"type": "node", "id": 3001713420, "lat": 38.9865465, "lon": 9.006316}, {"type": "node", "id": 3001713429, "lat": 38.9865943, "lon": 9.0065009}, {"type": "node", "id": 3001713432, "lat": 38.9865987, "lon": 9.0061983}, {"type": "node", "id": 3001713645, "lat": 38.9866588, "lon": 9.0064554}, {"type": "node", "id": 3001713651, "lat": 38.9866782, "lon": 9.0065003}, {"type": "node", "id": 3001713662, "lat": 38.9867178, "lon": 9.0064733}, {"type": "node", "id": 3001716013, "lat": 38.9953044, "lon": 9.0162568}, {"type": "node", "id": 3001716152, "lat": 38.9953729, "lon": 9.0161391}, {"type": "node", "id": 3001716158, "lat": 38.9953864, "lon": 9.0162361}, {"type": "node", "id": 3001716169, "lat": 38.9954116, "lon": 9.0161737}, {"type": "node", "id": 3001716213, "lat": 38.9955089, "lon": 9.0164439}, {"type": "node", "id": 3001716333, "lat": 38.9955531, "lon": 9.016392}, {"type": "node", "id": 3001790090, "lat": 39.0315165, "lon": 9.0346107}, {"type": "node", "id": 3001790096, "lat": 39.0315863, "lon": 9.0347155}, {"type": "node", "id": 3001790105, "lat": 39.0316748, "lon": 9.0344357}, {"type": "node", "id": 3001790113, "lat": 39.0317447, "lon": 9.0345405}, {"type": "node", "id": 3597348082, "lat": 39.0126688, "lon": 9.0016337, "tags": {"addr:city": "Pula", "addr:country": "IT", "addr:postcode": "09010", "addr:street": "Piazza del Popolo", "air_conditioning": "yes", "amenity": "restaurant", "bar": "yes", "check_date": "2023-09-03", "cuisine": "italian;regional", "diet:vegetarian": "yes", "name": "Su Nuraghe", "outdoor_seating": "yes", "payment:bancomat": "yes", "payment:cash": "yes", "payment:mastercard": "yes", "payment:visa": "yes", "payment:visa_debit": "yes", "reservation": "yes", "takeaway": "yes", "toilets": "yes", "weather_protection": "yes", "wheelchair": "yes"}}, {"type": "node", "id": 4520884352, "lat": 39.0108989, "lon": 9.0008874, "tags": {"addr:city": "Pula", "addr:housenumber": "43", "addr:postcode": "09010", "addr:street": "Corso Vittorio Emanuele", "amenity": "cafe", "indoor_seating": "yes", "name": "B&G Snack Caffe", "outdoor_seating": "yes"}}, {"type": "node", "id": 4520885480, "lat": 39.0131066, "lon": 9.0018147, "tags": {"addr:city": "Pula", "addr:housenumber": "11", "addr:postcode": "09010", "addr:street": "Via 24 maggio 1915", "amenity": "restaurant", "cuisine": "barbecue;regional;italian", "indoor_seating": "yes", "name": "Su Furriadroxu", "opening_hours": "Fr-Su 19:30-22:30", "outdoor_seating": "yes", "phone": "+39 070 9246148", "source": "Regione Autonoma della Sardegna", "website": "http://www.sufurriadroxu.it/"}}, {"type": "node", "id": 4732864314, "lat": 39.012419, "lon": 9.0017879, "tags": {"addr:city": "Pula", "addr:country": "IT", "addr:housenumber": "69", "addr:postcode": "09010", "addr:street": "Piazza del Popolo", "amenity": "restaurant", "check_date": "2023-09-03", "cuisine": "barbecue;fish;pizza", "name": "S'Incontru", "outdoor_seating": "yes"}}, {"type": "node", "id": 4837033512, "lat": 39.0055046, "lon": 9.0011607, "tags": {"amenity": "restaurant", "cuisine": "regional", "name": "Cucina Machri"}}, {"type": "node", "id": 4847857249, "lat": 38.9836192, "lon": 8.9801779, "tags": {"amenity": "restaurant", "cuisine": "italian", "name": "Corte Noa"}}, {"type": "node", "id": 4888454522, "lat": 39.0075208, "lon": 9.0033805, "tags": {"addr:housenumber": "8", "addr:postcode": "09010", "addr:street": "Via Nora", "amenity": "restaurant", "name": "Ristorante Da Giancarlo"}}, {"type": "node", "id": 4888466822, "lat": 39.0041385, "lon": 9.0063751, "tags": {"addr:housenumber": "38", "addr:postcode": "09010", "addr:street": "Via Nora", "amenity": "restaurant", "contact:phone": "+39 070 924 5464", "name": "Lobina's Ristorante"}}, {"type": "node", "id": 5117205722, "lat": 39.0094809, "lon": 9.0005126, "tags": {"amenity": "cafe", "indoor_seating": "yes", "name": "Caffetteria", "name:it": "Caffetteria", "outdoor_seating": "no"}}, {"type": "node", "id": 5127039722, "lat": 39.0072061, "lon": 9.0020797, "tags": {"amenity": "cafe", "name": "Melody Cafe"}}, {"type": "node", "id": 9877588419, "lat": 39.0100924, "lon": 9.0021594, "tags": {"addr:city": "Pula", "addr:housenumber": "140", "addr:postcode": "09050", "addr:street": "Via Nora", "alt_name": "Char\u00ec Caff\u00e8 Bistr\u00f2", "amenity": "cafe", "bar": "yes", "check_date": "2023-09-03", "cuisine": "italian", "name": "Char\u00ec", "operator": "Char\u00ec s.r.l.s.", "outdoor_seating": "yes", "payment:bancomat": "yes", "payment:cash": "yes", "payment:mastercard": "yes", "payment:visa": "yes", "payment:visa_debit": "yes", "toilets": "yes", "toilets:handwashing": "yes"}}, {"type": "node", "id": 9877593071, "lat": 39.0114986, "lon": 9.0020953, "tags": {"amenity": "restaurant", "name": "Solaria"}}, {"type": "node", "id": 9877599711, "lat": 39.0099097, "lon": 9.0024949, "tags": {"addr:city": "Pula", "addr:street": "Via Nora", "amenity": "restaurant", "check_date": "2023-09-03", "cuisine": "pizza", "name": "Pizzeria da Ale & Simo"}}, {"type": "node", "id": 9877603726, "lat": 39.0117572, "lon": 9.0020175, "tags": {"amenity": "restaurant", "name": "La Corte"}}, {"type": "node", "id": 9877603844, "lat": 39.0115648, "lon": 9.0020313, "tags": {"amenity": "restaurant", "indoor_seating": "yes", "name": "Federico's", "outdoor_seating": "yes"}}, {"type": "node", "id": 9950533238, "lat": 39.0114846, "lon": 9.0008237, "tags": {"addr:city": "Pula", "addr:country": "IT", "addr:housenumber": "24", "addr:street": "Corso Vittorio Emanuele", "amenity": "restaurant", "cuisine": "steak;regional", "name": "Monang", "payment:cash": "yes", "payment:credit_cards": "yes", "phone": "+39 349 4011491", "website:menu": "https://vqui.it/w/dXrEeLH0"}}, {"type": "node", "id": 9992057563, "lat": 38.9579579, "lon": 8.9692435, "tags": {"amenity": "restaurant", "cuisine": "pizza", "name": "Pizzeria Cala d'Ostia"}}, {"type": "node", "id": 9999549442, "lat": 38.9795337, "lon": 8.9745355, "tags": {"amenity": "restaurant", "name": "Ristorante gli Orti di Nora", "operator": "Ema S.r.l.", "phone": "+393474838369", "ref:vatin": "IT03815420926", "website": "https://ortidinora.it/ristorante-orti-di-nora/"}}, {"type": "node", "id": 11056964457, "lat": 39.0127421, "lon": 9.0015458, "tags": {"addr:city": "Pula", "addr:country": "IT", "addr:housenumber": "51", "addr:postcode": "09010", "addr:street": "Piazza del Popolo", "amenity": "restaurant", "check_date": "2023-09-03", "cuisine": "italian", "name": "Locanda Caddeo", "outdoor_seating": "yes"}}, {"type": "node", "id": 11056964486, "lat": 39.0112472, "lon": 9.0010348, "tags": {"addr:city": "Pula", "addr:country": "IT", "amenity": "restaurant", "name": "Diaderus - oyster bar bistrot"}}, {"type": "node", "id": 11057009073, "lat": 39.0130151, "lon": 9.0016678, "tags": {"addr:city": "Pula", "addr:housenumber": "9", "addr:postcode": "09010", "addr:street": "Via 24 maggio 1915", "amenity": "restaurant", "contact:facebook": "https://www.facebook.com/nomadjustfree/", "cuisine": "barbecue;regional;italian", "indoor_seating": "yes", "name": "Nom\u00e0d", "outdoor_seating": "yes"}}, {"type": "node", "id": 11165154232, "lat": 38.9859698, "lon": 9.0160587, "tags": {"amenity": "cafe", "check_date": "2023-09-03", "name": "Fondazione Pula Cultura Diffusa", "payment:cash": "yes"}}, {"type": "way", "id": 119663648, "nodes": [1343717010, 1343717339, 1732764678, 1343717090, 1343717198, 1343717307, 1343717395, 1343717352, 1343717062, 1343717010], "tags": {"amenity": "cafe", "building": "yes", "cuisine": "italian"}}, {"type": "way", "id": 296381056, "nodes": [3001712831, 3001712822, 3001712837, 3001712847, 3001712836, 3001712832, 3001712831], "tags": {"addr:city": "Santa Margherita de Pula", "addr:postcode": "09010", "amenity": "restaurant", "building": "yes", "name": "Ristorante Bacchixeddu"}}, {"type": "way", "id": 296381454, "nodes": [3001716213, 3001716013, 3001716152, 3001716169, 3001716158, 3001716333, 3001716213], "tags": {"addr:city": "Pula", "addr:postcode": "09050", "addr:street": "Strada Comunale Su Guventeddu", "amenity": "restaurant", "building": "yes", "cuisine": "italian;regional", "name": "Ristorante Don Carlo", "phone": "+390709208181", "website": "https://www.facebook.com/doncarlopula"}}, {"type": "way", "id": 296381775, "nodes": [3001713097, 3001713096, 3001713104, 3001713121, 3001713117, 3001713112, 3001713111, 3001713097], "tags": {"amenity": "restaurant", "building": "yes", "cuisine": "pizza"}}, {"type": "way", "id": 296381965, "nodes": [3001713429, 3001713417, 3001713420, 3001713416, 3001713432, 3001713662, 3001713651, 3001713645, 3001713429], "tags": {"addr:city": "Pula", "addr:postcode": "09010", "addr:street": "Laguna di Nora Localit\u00e0", "amenity": "restaurant", "building": "yes", "cuisine": "italian;seafood;mediterran", "name": "Fradis Minoris", "opening_hours": "Di 19:30-22:30; Mi 19:30-22:30; Do 12:30-13:30,19:30-22:30; Fr 12:30-13:30, 19:30-22:30; Sa 12:30-13:30, 19:30-22:30; So 12:30-13:30; 19:30-22:30", "phone": "+39 351 313 7998", "website": "https://www.facebook.com/FradisMinoris/", "website:menu": "http://www.fradisminoris.it/menu/"}}, {"type": "way", "id": 296390114, "nodes": [3001790096, 3001790090, 3001790105, 3001790113, 3001790096], "tags": {"amenity": "restaurant", "building": "yes", "cuisine": "pizza"}}]}